ReviewUrl,name,Address,districtid,RestaurantId,RestaurantStatus,avgrating,TotalPictures,TotalSaves,TotalReviews,TotalFavourites,TotalViews,TotalCheckIns,Latitude,Longitude
/ho-chi-minh/saigon-juice-to-hien-thanh/binh-luan,Saigon Juice - Ăn Luôn Ly,"SA1.04 Toà Nhà Green Park, Đường Số 8, KDC Vĩnh Lộc, P. Bình Hưng Hoà B",18,88154,2,7.398,838,0,160,732,106985,110,10.813947,106.593447
/ho-chi-minh/koi-the-aeon-mall-binh-tan/binh-luan,KOI Thé - AEON Mall Bình Tân,"Lô F29B, Tầng 1, Aeon Mall Bình Tân, 1 Đường Số 17A, P. Bình Trị Đông",18,251753,2,7.336,1093,0,223,103,12660,85,10.7429605,106.6118665
/ho-chi-minh/da-heo-ut-cung-shop-online-kinh-duong-vuong/binh-luan,Da Heo Út Cưng - Shop Online - Kinh Dương Vương,"532/28/34/27 Kinh Dương Vương, P. Bình Trị Đông B",18,110568,2,7.518,395,0,175,358,60896,55,10.7373179,106.6122428
/ho-chi-minh/gogi-house-aeon-mall-binh-tan-quan-thit-nuong-han-quoc/binh-luan,GoGi House - Quán Thịt Nướng Hàn Quốc - Aeon Mall Bình Tân,"Tầng 3, Aeon Mall Bình Tân,1 Đường Số 17A, KP. 11, P. Bình Trị Đông B",18,252102,2,8.532,695,0,240,24,10538,30,10.742589,106.611458
/ho-chi-minh/vi-sai-gon-bun-thit-nuong-duong-1c/binh-luan,Vị Sài Gòn - Bún Thịt Nướng - Đường 1C,"11/3 Đường 1C, P. Bình Hưng Hòa A",18,38540,2,7.208,616,0,140,292,76962,53,10.779502,106.613153
/ho-chi-minh/sukiya-com-bo-ham-mi-ramen/binh-luan,Sukiya - Cơm Bò Hầm & Mì Ramen - AEON Mall Bình Tân,"Tầng 3, Aeon Mall Bình Tân, 1 Đường Số 17A, P. Bình Trị Đông B",18,251680,2,7.388,638,0,123,102,12879,23,10.74256,106.611427
/ho-chi-minh/crystal-jade-nha-hang-quang-dong-aeon-mall-binh-tan/binh-luan,Crystal Jade Kitchen - AEON Mall Bình Tân - Nhà Hàng Quảng Đông,"Lầu 3, Aeon Mall Bình Tân, 532A Kinh Dương Vương, P. Bình Trị Đông",18,252692,2,9.054,534,0,221,33,6077,14,10.742589,106.611458
/ho-chi-minh/kichi-kichi-lau-bang-chuyen-aeon-mall-binh-tan/binh-luan,Kichi Kichi Lẩu Băng Chuyền - AEON Mall Bình Tân,"Tầng 3 - T26, Aeon Mall Bình Tân, 1 Đường Số 17A, P. Bình Trị Đông",18,251803,2,8.772,279,0,172,24,16217,20,10.742589,106.611458
/ho-chi-minh/phuc-long-aeon-mall-binh-tan/binh-luan,Phúc Long AEON Mall Bình Tân,"Tầng 1, Aeon Mall Bình Tân, 1 Đường Số 17A, P. Bình Trị Đông",18,251756,2,6.878,543,0,109,33,6525,39,10.7428274,106.6119296
/ho-chi-minh/osaka-ohsho-aeon-mall-binh-tan-quan-mi-ramen-gyoza-nhat-ban/binh-luan,Osaka Ohsho Aeon Mall Bình Tân - Quán Mì Ramen - Gyoza Nhật Bản,"Lầu 3 Aeon Mall Bình Tân, Đường Số 17A, P. bình Trị Đông B",18,253462,2,7.512,557,0,115,25,4107,26,10.7436174,106.6129857
/ho-chi-minh/swebi-cafe-ten-lua/binh-luan,Swebi Cafe - Tên Lửa,"250 Tên Lửa, P. Bình Trị Đông B",18,77315,2,8.29,534,0,70,91,51803,41,10.745568,106.612791
/ho-chi-minh/hutong-hotpot-paradise-aeon-mall-binh-tan/binh-luan,Hutong - Hotpot Paradise - Aeon Mall Bình Tân,"Lô T12, Lầu 3, TTTM AEON Bình Tân, Số 1 Đường Số 17A, P. Bình Trị Đông B",18,711559,2,9.092,240,0,154,15,4762,9,10.7437405337811,106.6118021539756
/ho-chi-minh/lan-com-com-tam/binh-luan,Lan Cơm - Cơm Tấm,"181A Đường Số 8, P. Bình Hưng Hòa A",18,1050893,2,8.33,5,0,3,0,149081,1,10.784778,106.615793
/ho-chi-minh/banh-handmade-thoa-mup/binh-luan,Bánh Handmade Thoa Múp,"230 Mã Lò, P. Bình Trị Đông A",18,103238,2,6.96,109,0,25,112,67123,7,10.7687984,106.6030344
/ho-chi-minh/dung-nam-can-1-vanh-dai-trong/binh-luan,Dũng Năm Căn 1 - Vành Đai Trong,"236 Vành Đai Trong, P. Bình Trị Đông",18,10597,2,6.38,107,0,19,28,53552,10,10.750363,106.614912
/ho-chi-minh/bui-van-ngo-coffee-ten-lua/binh-luan,Bùi Văn Ngọ Coffee - Tên Lửa,"269 Tên Lửa, P. Bình Trị Đông B",18,130255,2,7.894,369,0,32,28,46797,16,10.749804,106.611036
/ho-chi-minh/quan-bach-tuoc-nuong/binh-luan,Quán Bạch Tuộc Nướng,"258 Kinh Dương Vương, P. An Lạc",18,182733,2,7.054,47,0,11,31,40242,3,10.7498587,106.6291461
/ho-chi-minh/cua-hang-hai-san-kho-ha-kho/binh-luan,Hà Khô - Hải Sản Khô Phan Thiết,"219/17 Đường Số 5, P. Bình Hưng Hòa",18,102763,2,7.342,38,0,7,3,37113,0,10.8070977908651,106.6053307281249
/ho-chi-minh/am-thuc-hue-vi-da/binh-luan,Ẩm Thực Huế Vĩ Dạ,"256 Vành Đai Trong, P. Bình Trị Đông B",18,39070,2,5.372,45,0,7,12,37021,3,10.750921,106.615436
/ho-chi-minh/sai-gon-food-market-shop-online/binh-luan,Sài Gòn Food & Market - Shop Online,"41 Đường Số 4, P. Bình Trị Đông B",18,172848,2,8.0,7,0,1,16,36314,1,10.776929,106.6194769999999
/ho-chi-minh/mbboo-lien-khu-4-5/binh-luan,MbBoo - Liên Khu 4-5,"83/30 Liên Khu 4-5, P. Bình Hưng Hòa B",18,1151654,2,0.0,0,0,0,0,1,0,10.7975727950721,106.5923798819458
/ho-chi-minh/banh-da-cua-lau-cua-dong-dat-cang-ten-lua/binh-luan,Bánh Đa Cua - Lẩu Cua Đồng Đất Cảng - Tên Lửa,"412 Tên Lửa, P. Bình Trị Đông B",18,1151480,2,0.0,0,0,0,0,1,0,10.7536599,106.6100882
/ho-chi-minh/banh-trang-tron-minh-chau-duong-so-9/binh-luan,Bánh Tráng Trộn - Minh Châu - Đường Số 9,"77/103A Đường Số 9, P. Bình Hưng Hòa",18,1000058456,2,0.0,0,0,0,0,5,0,10.7994808,106.6024913
/ho-chi-minh/thot-not-rim-huong-lo-3/binh-luan,Thốt Nốt Rim - Hương Lộ 3,"507/47 Hương Lộ 3, P. Bình Hưng Hòa",18,1151347,2,0.0,0,0,0,0,1,0,10.802979,106.608718
/ho-chi-minh/tra-sua-yanyan-xingfucha-tra-sua-topping-3-mon-tra-sua-panda-an-duong-vuong/binh-luan,Trà Sữa Yanyan Xingfucha - Trà Sữa Topping 3 Món & Trà Sữa Panda - An Dương Vương,"109/10 An Dương Vương, P. An Lạc",18,1151334,2,0.0,0,0,0,0,1,0,10.7357038902254,106.6215219127916
/ho-chi-minh/bun-nuoc-leo-bac-lieu-lien-khu-16-18/binh-luan,Bún Nước Lèo Bạc Liêu - Liên Khu 16 -18,"40B Liên Khu 16 - 18, P. Bình Trị Đông",18,1151281,2,0.0,0,0,0,0,2,0,10.7596563,106.6136567
/ho-chi-minh/bao-coffee-tea-duong-so-5/binh-luan,Báo Coffee & Tea - Đường Số 5,"219/18 Đường Số 5, P. Bình Hưng Hòa",18,1000058391,2,0.0,0,0,0,0,2,0,10.8061355,106.601496
/ho-chi-minh/hu-tieu-mi-bo-vien-hu-tieu-mi-ga-phuong-anh-nguyen-thuc-tu/binh-luan,Hủ Tiếu Mì Bò Viên & Hủ Tiếu Mì Gà Phương Anh - Nguyễn Thức Tự,"16M Nguyễn Thức Tự, P. An Lạc A",18,1151275,2,0.0,0,0,0,0,1,0,10.751263,106.620628
/ho-chi-minh/mi-sui-cao-tam-muoi-ten-lua/binh-luan,Mì Sủi Cảo Tam Muội - Tên Lửa,"265 Tên Lửa, P. Bình Trị Đông B",18,1151194,2,0.0,0,0,0,0,1,0,10.7495967,106.6110046
/ho-chi-minh/tra-sua-bb-tra-sua-full-topping-banh-trang-tron/binh-luan,Trà Sữa BB - Trà Sữa Full Topping & Bánh Tráng Trộn,"840/15/1 Hương Lộ 2, P. Bình Trị Đông A",18,1151179,2,0.0,0,0,0,0,1,0,10.768136,106.598864
/ho-chi-minh/banh-mi-xiu-mai-ga-tuan-khang-9-duong-13/binh-luan,Bánh Mì Xíu Mại & Gà Tuấn Khang - 9 Đường 13,"9 Đường 13, P. Bình Hưng Hòa",18,1151128,2,0.0,0,0,0,0,2,0,10.8006831,106.6110027
/ho-chi-minh/quan-chay-ngoc-ly-com-chay-lau-chay-bun-chay/binh-luan,"Quán Chay Ngọc Lý - Cơm Chay, Lẩu Chay & Bún Chay","155 Đ. Bình Trị Đông, P. Bình Trị Đông A",18,1151111,2,0.0,0,0,0,0,1,0,10.763964,106.609813
/ho-chi-minh/2-map-tra-sua-an-vat/binh-luan,2 Mập - Trà Sữa & Ăn Vặt,"1 Bùi Tư Toàn, P. An Lạc (Đối Diện Hẻm 36 Bùi Tư Toàn)",18,1004218,2,10.0,78,0,7,1,160,2,10.73204,106.613951
/ho-chi-minh/mi-quang-bun-cha-ca/binh-luan,Mì Quảng & Bún Chả Cá,"59/35 Hồ Văn Long, P. Bình Hưng Hòa B",18,706780,2,10.0,12,0,4,4,489,3,10.818944,106.599616
/ho-chi-minh/hai-san-oc-19a/binh-luan,Hải Sản Ốc 19A,125 Gò Xoài,18,245796,2,10.0,106,0,2,4,520,3,10.7814414354444,106.603198922343
/ho-chi-minh/tra-sua-sunday-basic-le-van-quoi/binh-luan,Trà Sữa Sunday Basic - Lê Văn Quới,"125 Lê Văn Quới, P. Bình Trị Đông",18,1127804,2,10.0,52,0,4,0,81,1,10.7746057,106.6183226
/ho-chi-minh/nha-banh-trang/binh-luan,Nhà Bánh Tráng,"32/42 Đường Số 5, P. Bình Hưng Hòa",18,1027608,2,10.0,14,0,2,1,64,4,10.8055223,106.6017283
/ho-chi-minh/nong-gia-food-bep-gia-dinh/binh-luan,Nông Gia Food - Bếp Gia Đình,"135 Mã Lò, P Bình Trị Đông A",18,1053348,2,10.0,0,0,5,1,55,3,10.7632652,106.6042397
/ho-chi-minh/a-coffee/binh-luan,A! Coffee,"517 Tên Lửa, P. Bình Trị Đông B",18,986303,2,10.0,44,0,2,0,87,3,10.755054,106.609243
/ho-chi-minh/mi-ga-xa-ken-a-dai-ma-lo/binh-luan,Mì Gà Xá Kén A Đại - Mã Lò,"315 Mã Lò, P. Bình Trị Đông A",18,1141503,2,10.0,10,0,2,1,35,1,10.7746387655435,106.6012134973223
/ho-chi-minh/banh-trang-tron-10k/binh-luan,Bánh Tráng Trộn 10K,"345/21B Bình Thành, P. Bình Hưng Hòa B",18,1056610,2,10.0,8,0,2,1,98,1,10.811875,106.588338
,Yến Sào Sen Vàng,"111/37A Lê Đình Cẩn, Tân Tạo, Bình Tân, Hcm",18,1126860,2,10.0,8,0,4,0,0,1,,
/ho-chi-minh/minh-phu-coffee/binh-luan,Minh Phú Coffee,"26D Đường Số 18B, P. Bình Hưng Hoà A",18,1043636,2,10.0,10,0,6,0,114,0,10.7794443,106.6012778
/ho-chi-minh/banh-chuoi-banh-duc/binh-luan,Bánh Chuối & Bánh Đúc ,"157 Đường Số 19, P. Bình Trị Đông B",18,245054,2,10.0,17,11,1,4,512,2,10.7532620239492,106.6132861375808
/ho-chi-minh/ba-chi-em-com-chien-mi-xao-hu-tieu-xao/binh-luan,"Ba Chị Em - Cơm Chiên, Mì Xào & Hủ Tiếu Xào","114/8/3/1 Chiến Lược, P. Bình Trị Đông",18,1063937,2,9.472,8,0,247,9,443,3,10.7627523,106.6175024
/ho-chi-minh/a-xin-chan-ga-rut-xuong-ngam-sa-tac-nguyen-hoi-shop-online/binh-luan,A Xìn - Chân Gà Rút Xương Ngâm Sả Tắc - Nguyễn Hới - Shop Online,"27 Nguyễn Hới, P. An Lạc",18,1073199,2,9.9,2,0,210,4,382,2,10.7399325,106.6184163
/ho-chi-minh/biscotti-banh-hat-dinh-duong-lien-khu-5-6/binh-luan,Biscotti - Bánh Hạt Dinh Dưỡng - Liên Khu 5 - 6,"118/48/43/35 Liên Khu 5 - 6, P. Bình Hưng Hòa B",18,1062040,2,9.97,5,3,164,7,666,5,10.790208,106.590593
/ho-chi-minh/mi-tron-ten-lua-duong-so-21b/binh-luan,Mì Trộn Tên Lửa - Đường Số 21B,"31 Đường Số 21B, P. Bình Trị Đông B",18,711748,2,6.18,136,0,51,128,12220,4,10.754588,106.618157
/ho-chi-minh/o-thanh-banh-canh-ca-loc/binh-luan,O Thanh - Bánh Canh Cá Lóc,"2J Nguyễn Thức Đường, Khu Phố 3, P. An Lạc A",18,203377,2,7.906,66,0,36,119,11156,4,10.743867,106.619358
/ho-chi-minh/a-kao-banh-trang-muoi-hanh/binh-luan,A Kao - Bánh Tráng Muối Hành,"351 Tân Hòa Đông, P. Bình Trị Đông",18,896216,2,7.526,22,0,11,87,5593,1,10.7629348,106.6206354
/ho-chi-minh/quan-hai-ly-nem-nuong-soc-trang/binh-luan,Quán Hai Ly - Nem Nướng Sóc Trăng,"182 Đường số 1, P. Bình Trị Đông B",18,2632,2,6.35,108,0,23,84,10252,4,10.7484985,106.616107
/ho-chi-minh/kokochi-juice-smoothies-healthy/binh-luan,Kokochi - Juice & Smoothies Healthy,"276/60 Hương Lộ 80, P. Bình Hưng Hòa B",18,1033594,2,9.13,68,0,54,81,407,20,10.817058,106.5842587
,Dũng bê thui 726,"726 Kinh Dương Vương, An Lạc",18,1062271,2,9.0,31,0,2,0,0,0,,
,"Ăn Vặt Chuyên Sỉ Và Lẻ: Trái Cây Sấy, Hạt, Đồ Khô, Bánh Kẹo","575/13 Tỉnh Lộ 10, P. Bình Trị Đông B, Q. Bình Tân",18,1084205,2,10.0,2,0,1,0,0,1,,
,Quán Bún Cá Num-Bu-Chóc Tư Khoa Tại Bình Tân,"473/23A Tỉnh Lộ 10 ( Đường Số 6), Kp 8, An Lạc A, Q. Bình Tân, Tp. Hcm",18,1075605,2,10.0,8,0,1,0,0,0,,
,Bánh Flan Nhà Làm Tini,"231/4 Chiến Lược, P. Bình Trị Đông, Q. Bình Tân, Tp.Hcm, Vietnam",18,1110891,2,10.0,3,0,1,0,0,0,,
,Lẩu Bò Ngọc Tuyết (Quán Ăn),215 Phan Anh ,18,1061717,2,0.0,18,0,0,0,0,0,,
/ho-chi-minh/papatit-pizza-ga-ran-tra-sua-vo-van-van/binh-luan,"Papatit - Pizza, Gà Rán & Trà Sữa - Võ Văn Vân","2 Võ Văn Vân, P. Tân Tạo",18,1047467,2,0.0,0,0,0,0,35,0,10.7632379,106.5679761
/ho-chi-minh/pho-tien-vo-van-van/binh-luan,Phở Tiên - Võ Văn Vân,"B11/14A Võ Văn Vân, P. Tân Tạo",18,773810,2,0.0,1,0,0,0,48,0,10.7636103,106.5680183
/ho-chi-minh/phuong-quang-nam-goi-ga-vit/binh-luan,Phượng Quảng Nam - Gỏi Gà & Vịt,"b11/12 Ấp 2, Võ Văn Vân, P. Tân Tạo",18,773818,2,0.0,2,0,0,0,71,0,10.7642374,106.5683087
/ho-chi-minh/quan-com-yen-chi/binh-luan,Quán Cơm Yến Chi,"28 Võ Văn Vân, P. Tân Tạo",18,1072833,2,0.0,0,0,0,0,9,0,10.7652811,106.5688205
/ho-chi-minh/ga-ta-phat-tai-2/binh-luan,Gà Ta Phát Tài 2,1852 Tỉnh Lộ 10,18,781718,2,0.0,1,0,0,0,52,0,10.762845762479,106.5687473863363
/ho-chi-minh/tra-sua-nuoc-sam-76/binh-luan,Trà Sữa & Nước Sâm 76,"76 Võ Văn Vân, P. Tân Tạo",18,935559,2,0.0,0,0,0,0,16,0,10.766559,106.569282
/ho-chi-minh/tra-sua-maycha-duong-so-1/binh-luan,Trà Sữa Maycha - Đường Số 1,"161 Đường số 1, P. Bình Trị Đông B",18,1074875,2,10.0,0,0,1,1,496,1,10.748368,106.61701
/ho-chi-minh/o-tu-bun-bo-hue/binh-luan,O Tú - Bún Bò Huế - Đường Số 1,"143 Đường Số 1, P. Bình Trị Đông B",18,728843,2,6.242,101,0,16,20,1687,1,10.7483749,106.6173176
/ho-chi-minh/phuc-long-binh-tri-dong/binh-luan,Phúc Long Bình Trị Đông,"299 đường số 07, Khu phố 02, P. Bình Trị Đông B",18,1068134,2,0.0,0,3,0,1,224,0,10.7516849,106.6119603
/ho-chi-minh/tacayo-com-ga-nuong-tieu-xanh-duong-so-7/binh-luan,TACAYO - Cơm Gà Nướng Tiêu Xanh - Đường Số 7,"249 Đường Số 7, P. Bình Trị Đông B",18,1005372,2,8.648,18,0,12,55,3415,0,10.751687,106.61322
/ho-chi-minh/ga-ran-popeyes-huong-lo-2/binh-luan,Gà Rán Popeyes - Hương Lộ 2,"756 Hương Lộ 2, P. Bình Trị Đông A",18,656749,2,6.446,56,0,17,20,1918,40,10.765045,106.602976
/ho-chi-minh/highlands-coffee-duong-so-7/binh-luan,Highlands Coffee - No 7 Bình Tân FC,"142 - 144 Đường Số 7, P. Bình Trị Đông B",18,705523,2,7.098,74,0,18,10,3553,9,10.75204,106.611332
/ho-chi-minh/tra-sua-gong-cha-duong-so-7/binh-luan,Trà Sữa Gong Cha - 貢茶 - Đường Số 7,"385 Đường Số 7, KDC Bình Trị Đông, Tiểu Khu 1, P. Bình Trị Đông B",18,911692,2,5.37,29,0,7,6,1862,1,10.751792,106.608728
/ho-chi-minh/men-bun-cha-ca-sua-nha-trang-le-van-quoi/binh-luan,Mến - Bún Chả Cá Sứa Nha Trang - Lê Văn Quới,"132 Lê Văn Quới, P. Bình Hưng Hòa A",18,893534,2,7.45,14,1,4,7,477,1,10.775138,106.617199
/ho-chi-minh/ga-ran-va-mi-y-jollibee-bigc-an-lac/binh-luan,Gà rán và Mì Ý - Jollibee - BigC An Lạc,"BigC An Lạc, Quốc Lộ 1A, P. Bình Trị Đông",18,284851,2,6.38,21,0,11,10,1641,6,10.730744,106.603414
/ho-chi-minh/bep-nha-chang-eat-clean-healthy/binh-luan,BẾP NHÀ CHANG - EAT CLEAN & HEALTHY,"34/19 Đường Số 14, P. Bình Hưng Hòa A",18,1075559,2,0.0,0,5,0,0,119,0,10.7788072,106.6116925
/ho-chi-minh/com-nieu-thien-ly-binh-tan/binh-luan,Cơm Niêu Thiên Lý - Bình Tân,"120 Đường Số 7, P. Bình Trị Đông B",18,786030,2,8.428,112,0,51,31,2418,13,10.751958,106.612747
/ho-chi-minh/lau-ga-ot-hiem-109-duong-so-7/binh-luan,Lẩu Gà Ớt Hiểm 109 - Đường Số 7,"22 - 24 Đường Số 7, P. An Lạc A",18,739938,2,7.826,47,0,15,20,4015,6,10.75157,106.621603
/ho-chi-minh/lau-bo-sai-gon-vivu-aeon-mall-binh-tan/binh-luan,Lẩu Bò Sài Gòn Vivu - Aeon Mall Bình Tân,"Tầng 3, Aeon Mall Bình Tân, 1 Đường Số 17A, P. Bình Trị Đông",18,703749,2,5.786,85,0,31,2,2847,5,10.742589,106.611458
/ho-chi-minh/wrap-roll-aeon-mall-binh-tan/binh-luan,Wrap&Roll - AEON Mall Bình Tân,"Lô T22, Tầng 3, AEON Mall Bình Tân, 1 Đường Số 17A, P. Bình Trị Đông",18,251382,2,6.402,353,0,35,7,1854,14,10.743261,106.613032
/ho-chi-minh/k-pub-nuong-phong-cach-pub-han-quoc-aeon-mall-binh-tan/binh-luan,K-Pub - Nướng Phong Cách Pub Hàn Quốc - Aeon Mall Bình Tân,"Tầng 03 TTTM Aeon Mall Bình Tân, Số 1 Đường Số 17A, P. Bình Trị Đông B",18,728295,2,8.86,221,0,105,37,6159,22,10.7436773,106.6120167
/ho-chi-minh/sumo-bbq-aeon-mall-binh-tan-710660/binh-luan,Sumo BBQ - Aeon Mall Bình Tân - Buffet Nướng & Lẩu,"Tầng Trệt Aeon Mall Bình Tân, 1 Đường Số 17A, P. Bình Trị Đông",18,710660,2,8.472,220,0,78,13,6680,21,10.742674,106.612107
/ho-chi-minh/tra-sua-bobapop-aeon-mall-binh-tan/binh-luan,Trà Sữa Bobapop - AEON Mall Bình Tân,"Aeon Mall Bình Tân, 1 Đường Số 17A, P. Bình Trị Đông",18,251761,2,6.964,299,0,91,38,5403,25,10.742589,106.611458
/ho-chi-minh/domino-s-pizza-ten-lua/binh-luan,Domino’s Pizza - Tên Lửa,"348 - 350 Tên Lửa, P. Bình Trị Đông B",18,48315,2,7.574,143,0,44,26,15413,31,10.7517468,106.6103727
/ho-chi-minh/sushi-kei-aeon-mall-binh-tan/binh-luan,Sushi Kei Aeon Mall Bình Tân,"Lô T09, Tầng 3 Aeon Mall Bình Tân, 1 Đường Số 17A, P. Bình Trị Đông B",18,1003344,2,7.166,16,0,12,2,490,0,10.742903,106.612624
/ho-chi-minh/nha-ti-tra-sua-an-vat-duong-ba-cung/binh-luan,Nhà Ti - Trà Sữa & Ăn Vặt - Dương Bá Cung,"44-46 Dương Bá Cung, P. An Lạc A",18,1000038081,2,10.0,4,0,1,0,30,1,10.7462526,106.6215366
/ho-chi-minh/com-tam-binh-dan-duong-so-7/binh-luan,Cơm Tấm Bình Dân - Đường Số 7,"238 Đường Số 7, P. Bình Trị Đông B",18,874666,2,0.0,1,0,0,0,50,1,10.75215,106.607951
/ho-chi-minh/tau-hu-hoshi-duong-so-2-kdc-vinh-loc.f0miog/binh-luan,Tàu Hũ Hoshi - Đường Số 2 KDC Vĩnh Lộc,"61/4/2/15 Đường Số 2, P. Bình Hưng Hòa B",18,1000049038,2,0.0,0,0,0,0,17,0,10.8215869,106.5884665
/ho-chi-minh/phuong-vu-heo-nuong/binh-luan,Phương - Vú Heo Nướng,"79 Đường 19, P. Bình Trị Đông",18,1060281,2,0.0,6,3,0,2,64,1,10.7530268,106.6156627
/ho-chi-minh/vu-heo-nga/binh-luan,Vú Heo Nga,"371 Vành Đai Trong, P. Bình Trị Đông",18,1058743,2,0.0,0,1,0,0,36,0,10.7535,106.615
/ho-chi-minh/thuan-khanh-vu-heo-do-nuong-vanh-dai-trong/binh-luan,Thuận Khanh - Vú Heo & Đồ Nướng - Vành Đai Trong,"280 Vành Đai Trong, P. Bình Trị Đông B",18,1129154,2,0.0,0,2,0,1,31,0,10.752884,106.615549
/ho-chi-minh/vu-heo-ten-lua-vanh-dai-trong/binh-luan,Vú Heo Tên Lửa - Vành Đai Trong,"280 Vành Đai Trong, P. Bình Trị Đông B",18,1049963,2,0.0,0,1,0,0,90,0,10.7525338,106.6158561
/ho-chi-minh/pho-phat-dat-le-trong-tan/binh-luan,PHỞ PHÁT ĐẠT - Lê Trọng Tấn,"635 Lê Trọng Tấn, P. Bình Hưng Hoà",18,1118964,2,0.0,0,0,0,0,23,0,10.8144062,106.6056578
/ho-chi-minh/pho-bat-dan-duong-so-18/binh-luan,Phở Bát Đàn - Bình Hưng Hòa,"126 Đường Số 18, P. Bình Hưng Hoà",18,1058968,2,0.0,0,0,0,0,42,0,10.8225959,106.6066189
/ho-chi-minh/bun-thit-nuong-kieu-huong/binh-luan,Bún Thịt Nướng - Kiều Hương,"563 Tỉnh Lộ 10, P. Bình Trị Đông B",18,1000033080,2,0.0,0,0,0,0,22,0,10.7575622,106.6167227
/ho-chi-minh/com-tam-long-xuyen-com-tam-duong-29.pxpfxz/binh-luan,Cơm Tấm Long Xuyên - Cơm Tấm - Đường 29,"131 Đường 29, P. Bình Trị Đông B",18,1000047514,2,0.0,0,0,0,0,3,0,10.7565151,106.6112843
/ho-chi-minh/chao-long-ma-heo-tinh-lo-10/binh-luan,Cháo Lòng Má Heo - Tỉnh Lộ 10,"629 Tỉnh Lộ 10, P. Bình Trị Đông B",18,1000028123,2,0.0,0,0,0,0,21,0,10.7577383,106.6142658
/ho-chi-minh/xoi-man-co-mai-xoi-man-1k-nguyen-thuc-duong/binh-luan,Xôi Mặn Cô Mai - Xôi Mặn - 1K Nguyễn Thức Đường,"1K Nguyễn Thức Đường , P. An Lạc A",18,1000038736,2,0.0,0,0,0,0,23,0,10.7443366,106.6188498
/ho-chi-minh/com-tam-suon-mo-182-com-tam-suon-mo-bi-cha-op-la-182-chien-luoc.gqgnp9/binh-luan,Cơm Tấm Sườn Mỡ 182 - Cơm Tấm Sườn Mỡ Bì Chả Ốp La - 182 Chiến Lược,"182 Chiến Lược, P. Bình Trị Đông",18,1000037161,2,0.0,0,0,0,0,21,0,10.7621419,106.6150868
/ho-chi-minh/tiem-chay-che-mai/binh-luan,Tiệm Chay Chế Mai,"2 Đường Số 8A, P. Bình Trị Đông B",18,1059681,2,7.55,12,0,4,11,172,2,10.75385,106.618217
/ho-chi-minh/ba-phi-sup-cua-gia-truyen-chien-luoc/binh-luan,Ba Phi - Súp Cua Gia Truyền - Chiến Lược,"93/44 Chiến Lược, P. Bình Trị Đông",18,1032307,2,0.0,0,1,0,0,66,0,10.760824,106.619439
/ho-chi-minh/ghien-bakery-banh-mi-hoa-cuc-banh-mi-sandwich/binh-luan,Ghiền Bakery - Bánh Mì Hoa Cúc & Bánh Mì Sandwich,"710 Tên Lửa, P. Bình Trị Đông B",18,1094514,2,0.0,0,0,0,0,37,0,10.7564915,106.6060913
/ho-chi-minh/guta-cafe-duong-so-2/binh-luan,GUTA CAFE - Đường Số 2,"2-4 Đường Số 2, P. An Lạc A",18,1135058,2,0.0,0,0,0,0,11,0,10.7485658,106.6211844
/ho-chi-minh/com-ga-xoi-mo-a-hoi-binh-tri-dong/binh-luan,Cơm Gà Xối Mỡ A Hỏi - Bình Trị Đông,"168/86/14/30 Bình Trị Đông, P. Bình Trị Đông",18,1066636,2,9.64,3,0,5,2,91,0,10.76629,106.612047
/ho-chi-minh/duc-mai-chao-dinh-duong-tinh-lo-10/binh-luan,Đức Mai - Cháo Dinh Dưỡng - Tỉnh Lộ 10,860 Tỉnh Lộ 10,18,727610,2,8.2,22,0,2,2,271,0,10.7581351,106.6080984
/ho-chi-minh/tra-dau-mr-do-nguyen-thi-tu/binh-luan,Trà Dâu Mr. Đỏ - Nguyễn Thị Tú,"81 Nguyễn Thị Tú, P. Bình Hưng Hòa B",18,1148969,2,0.0,0,0,0,0,10,0,10.8158187077064,106.5983205440121
/ho-chi-minh/mi-xao-ca-vien-chien-tra-sua-lucky-bin/binh-luan,"Mì Xào, Cá Viên Chiên & Trà Sữa - Lucky Bin","688/87 Hương Lộ 2, P. Bình Trị Đông A",18,1148723,2,0.0,0,0,0,0,7,0,10.771374,106.608296
/ho-chi-minh/quan-chay-thien-tam-sinh-to-nuoc-ep-112-le-van-quoi/binh-luan,Quán Chay Thiện Tâm - Sinh Tố & Nước Ép - 112 Lê Văn Quới,"112 Lê Văn Quới, P. Bình Hưng Hòa A",18,793726,2,0.0,1,0,0,0,95,0,10.774938,106.617705
/ho-chi-minh/cafe-milano-cafe-lien-khu-5-6/binh-luan,Cafe Milano - Cafe - Liên Khu 5 - 6,"124/1 Liên Khu 5 - 6, P. Bình Hưng Hòa B",18,1144226,2,0.0,0,0,0,0,7,0,10.7896834,106.5931097
/ho-chi-minh/pho-de-huynh-khu-ten-lua-duong-so-4/binh-luan,Phở Đệ Huynh Khu Tên Lửa - Đường Số 4,"38A Đường Số 4, P. Bình Trị Đông B",18,1139718,2,0.0,0,0,0,0,2,0,10.750066,106.620592
/ho-chi-minh/rau-ma-vitamin-le-van-quoi/binh-luan,Rau Má Vitamin - Lê Văn Quới,"5 Lê Văn Quới, P. Bình Trị Đông",18,1138328,2,0.0,0,0,0,0,32,0,10.7738237,106.620943
/ho-chi-minh/a-beo-quan-mon-an-nhau-duong-so-6/binh-luan,A Béo Quán - Món Ăn Nhậu - Đường Số 6,"141 Đường Số 6, P. Bình Trị Đông B",18,1132712,2,0.0,0,0,0,0,22,0,10.7526402,106.6187257
/ho-chi-minh/milk-foam-tea-tra-sua-than-tre-tra-xoai-cam-sa-nguyen-thi-tu/binh-luan,Milk Foam Tea - Trà Sữa Than Tre & Trà Xoài Cam Sả - Nguyễn Thị Tú,"291 Nguyễn Thị Tú, P. Bình Hưng Hòa B",18,1132641,2,0.0,0,0,0,0,18,0,10.8155325104873,106.5917621259344
/ho-chi-minh/be-thui-368-binh-tri-dong/binh-luan,Bê Thui 368 - Bình Trị Đông,"355A Đ. Bình Trị Đông, P. Bình Trị Đông",18,1130845,2,0.0,0,0,0,0,9,0,10.7718527493512,106.6091036238932
/ho-chi-minh/halo-coffee-ho-van-long/binh-luan,Halo Coffee - Hồ Văn Long,"117/4G Hồ Văn Long, P. Tân Tạo",18,1129720,2,0.0,0,0,0,0,21,0,10.7574137948402,106.5889658491597
/ho-chi-minh/tra-sua-ngon-dai-loan-384-tran-van-giau/binh-luan,Trà Sữa Ngon Đài Loan 384 - Trần Văn Giàu,"384 Trẩn Văn Giàu, P. Tân Tạo",18,1124468,2,0.0,0,0,0,0,28,0,10.751664,106.60237
/ho-chi-minh/bro-coffee-duong-42/binh-luan,BRO COFFEE - Đường 42,"Số 7 Đường 42, P. Tân Tạo",18,1123897,2,0.0,0,0,0,0,3,0,10.7519892637018,106.602154299617
/ho-chi-minh/lau-bo-sai-gon-vivu-quoc-lo-1a/binh-luan,Lẩu Bò Sài Gòn Vivu - Quốc Lộ 1A,"Tầng Trệt, Go! An Lạc, 1231 Quốc Lộ 1A, P. Bình Trị Đông B",18,704368,2,7.91,9,0,18,2,1084,2,10.7308365,106.6040756
/ho-chi-minh/h-a-b-food-drinks/binh-luan,H.A.B Food & Drinks,"1235/1 Tỉnh Lộ 10, P. Tân Tạo",18,733474,2,7.324,124,0,13,6,499,8,10.7558804,106.5937437
/ho-chi-minh/bun-dau-bep-tam-ten-lua/binh-luan,Bún Đậu Bếp Tấm - Tên Lửa,"597N Tên Lửa, P. Bình Trị Đông B",18,935133,2,7.58,29,1,10,8,717,1,10.7549015,106.6070553
/ho-chi-minh/marukame-udon-udon-tempura-aeon-mall-binh-tan/binh-luan,Marukame Udon - Udon & Tempura - AEON Mall Bình Tân,"Lô T5, Tầng 3, Aeon Mall Bình Tân, 1 Đường Số 17A, P. Bình Trị Đông",18,251785,2,7.606,341,0,64,26,3777,14,10.742589,106.611458
/ho-chi-minh/king-bbq-buffet-aeon-mall-binh-tan/binh-luan,King BBQ - Vua Nướng Hàn Quốc - AEON Mall Bình Tân,"Tầng 3, Aeon Mall Bình Tân, 1 Đường Số 17A, P. Bình Trị Đông",18,251665,2,6.802,341,0,59,22,13941,12,10.742589,106.611458
/ho-chi-minh/motif-coffee/binh-luan,Motif Coffee - Đường Số 6,"167 Đường Số 6, P. Bình Trị Đông B",18,195354,2,7.92,315,0,27,33,9035,24,10.7536674,106.6190058
/ho-chi-minh/highlands-coffee-aeon-mall-binh-tan/binh-luan,Highlands Coffee - AEON Mall Bình Tân,"Tầng Trệt, Aeon Mall Bình Tân, 1 Đường Số 17A, P. Bình Trị Đông",18,252481,2,7.496,292,0,41,19,2717,23,10.742589,106.611458
/ho-chi-minh/bun-rieu-cua-dong/binh-luan,Bún Riêu Cua Đồng,"255B Nguyễn Thị Tú, KP. 2, P. Bình Hưng Hòa B",18,188332,2,0.0,0,1,0,0,35066,0,10.8153624,106.590262
/ho-chi-minh/hu-tieu-mi-a-keeng/binh-luan,Akeeng - Bún Mì Vàng,"323 Đường Số 1, P. Bình Trị Đông B",18,79678,2,7.79,41,0,19,76,13975,9,10.748034,106.612293
/ho-chi-minh/alibaba-buffet-tu-chon-119k/binh-luan,Alibaba - Buffet Tự Chọn 119K - Tân Kỳ Tân Quý,"961 Tân Kỳ Tân Quý, P. Bình Hưng Hòa A",18,658420,2,7.4,53,0,12,60,13675,4,10.788153,106.599897
/ho-chi-minh/tra-sua-tran-chau-be-cool/binh-luan,Trà Sữa Trân Châu Be Cool,"240 Vành Đai Trong, P. Bình Trị Đông B",18,2183,2,5.92,27,0,5,3,10435,6,10.750416,106.615228
/ho-chi-minh/bun-bo-bo-kho-thanh-phat/binh-luan,Bún Bò & Bò Kho - Thành Phát,"163/6 Bình Thành, P. Bình Hưng Hòa B",18,1151098,2,0.0,0,0,0,0,4,0,10.8002655,106.5873193
/ho-chi-minh/mi-ga-quay-thuan-phong-sui-cao-hu-tieu-xi-quach/binh-luan,Mì Gà Quay Thuận Phong - Sủi Cảo & Hủ Tiếu Xí Quách,"152 -154 Đường Lộ Tẻ, P. Tân Tạo A",18,1151070,2,0.0,0,0,0,0,1,0,10.7515172,106.5904466
/ho-chi-minh/ba-miu-com-tam-bun-thit-nuong/binh-luan,Bà Miu - Cơm Tấm & Bún Thịt Nướng,"75 Đường Số 16, P. Bình Hưng Hòa",18,1151059,2,0.0,0,0,0,0,1,0,10.8114594,106.6062569
/ho-chi-minh/katinat-saigon-kafe-le-van-quoi/binh-luan,Katinat Saigon Kafe - Lê Văn Quới,"34 Lê Văn Quới, P. Hưng Hòa A",18,1150903,2,0.0,0,0,0,0,3,0,10.7746395725859,106.6193506377452
/ho-chi-minh/qua-tao-do-shop-trai-cay-vo-van-kiet.lwjgla/binh-luan,Quả Táo Đỏ - Shop Trái Cây - Võ Văn Kiệt,"Sảnh AK2 Chung Cư Akari Số 77 Võ Văn Kiệt, P. An Lạc",18,1000058181,2,0.0,0,0,0,0,3,0,10.7177051,106.6068546
/ho-chi-minh/tra-sua-bao-ngoc-tra-sua-xien-que-do-nang-te/binh-luan,Trà Sữa Bảo Ngọc - Trà Sữa & Xiên Que - Đỗ Năng Tế,"59 Đỗ Năng Tế, P. An Lạc A",18,1150808,2,0.0,0,0,0,0,1,0,10.7416177,106.6171155
/ho-chi-minh/an-vat-nha-su-bo-tuyen/binh-luan,Ăn Vặt Nhà Su - Bờ Tuyến,"32 Bờ Tuyến, P. Tân Tạo A",18,1000058167,2,0.0,0,0,0,0,2,0,10.7548883,106.5900118
/ho-chi-minh/ga-nuong-muoi-ot-le-sao/binh-luan,Gà Nướng Muối Ớt - Lê Sao,"275B Phan Anh, P. Bình Trị Đông",18,943237,2,0.0,0,0,0,0,78,0,10.769615,106.622259
/ho-chi-minh/hu-tieu-nam-vang-huynh-quan-tan-hoa-dong/binh-luan,Hủ Tiếu Nam Vang Huỳnh Quán - Tân Hoà Đông,"416 Tân Hoà Đông, P. Bình Trị Đông",18,1150566,2,0.0,0,0,0,0,2,0,10.767406,106.615878
/ho-chi-minh/mi-ga-xa-ken-k3-khu-dan-cu-vinh-loc/binh-luan,Mì Gà Xá Kén K3 - Khu Dân Cư Vĩnh Lộc,"Khu Dân Cư Vĩnh Lộc, 79 Đường Số 3, P. Bình Hưng Hòa B",18,1150553,2,0.0,0,0,0,0,2,0,10.805495,106.591673
/ho-chi-minh/milk-tea-k-an-vat-thach-tu-lam-tra-sua-122a-duong-so-16-phuong-binh-hung-hoa-quan-binh-tan.lhjeyz/binh-luan,"Milk Tea K - Ăn Vặt, Thạch Tự Làm & Trà Sữa - 122A Đường Số 16","122A Đường Số 16, P. Bình Hưng Hòa",18,1000057972,2,0.0,0,0,0,0,4,0,10.8092952,106.6058059
/ho-chi-minh/hu-tieu-muc-272-binh-tri-dong/binh-luan,Hủ Tiếu Mực 272 - Bình Trị Đông,"272/3 Bình Trị Đông, P. Bình Trị Đông",18,1150432,2,0.0,0,0,0,0,1,0,10.772313,106.609647
/ho-chi-minh/me-min-ruoc-ca-hoi/binh-luan,Ruốc Cá Hồi Mẹ Min - Shop Online,"4449 Nguyễn Cửu Phú, P. Tân Tạo A",18,765978,2,10.0,18,1,2,0,111,1,10.7530451,106.585336
/ho-chi-minh/mia-coffee-nuoc-ep-tra-sua/binh-luan,"Mia - Coffee, Nước Ép & Trà Sữa","141 - 143 Vành Đai Trong, P. Bình Trị Đông B",18,1062253,2,10.0,42,0,1,0,108,4,10.7461298,106.6149771
/ho-chi-minh/the-lotus-tea/binh-luan,The Lotus Tea,"84 Nguyễn Thị Tú, P. Bình Hưng Hòa B",18,936976,2,10.0,66,0,1,0,97,2,10.815958,106.597842
/ho-chi-minh/banh-canh-trang-bang-245/binh-luan,Bánh Canh Trảng Bàng 245,"245 Chiến Lược, P. Bình Trị Đông",18,1057937,2,10.0,4,1,1,1,41,2,10.7615472289591,106.6118304441901
/ho-chi-minh/khuc-bach-co-en-duong-so-3/binh-luan,Khúc Bạch Cô Én - Đường Số 3,"7/5 Đường Số 3, P. Bình Hưng Hòa A",18,1000052643,2,10.0,16,1,2,1,51,0,10.7835789,106.6163979
/ho-chi-minh/mon-ngon-mien-bac/binh-luan,Món Ngon Miền Bắc,"686A Tên Lửa, P. Bình Trị Đông B",18,999391,2,10.0,11,0,2,1,154,0,10.754939,106.607079
/ho-chi-minh/tra-dau-mr-do-binh-long/binh-luan,Trà Dâu Mr. Đỏ - Bình Long,"7 Bình Long, P. Bình Hưng Hòa A",18,1126917,2,10.0,0,0,4,0,75,1,10.7742071,106.621315
/ho-chi-minh/chim-cut-dau-ga-chien-bo-tinh-lo-10/binh-luan,Chim Cút Đầu Gà Chiên Bơ - Tỉnh Lộ 10,"330 Tỉnh Lộ 10, P. Bình Trị Đông",18,635862,2,10.0,1,0,1,1,221,2,10.7562925,106.6236639999999
/ho-chi-minh/pha-lau-bo-dinh-cao-ma-lo/binh-luan,Phá Lấu Bò Đỉnh Cao - Mã Lò,"232B Mã Lò, P. Bình Trị Đông A",18,1056475,2,10.0,1,0,1,2,77,1,10.768709,106.602965
/ho-chi-minh/yumi-mart-dua-yen-trai-cay-dong-chai/binh-luan,Yumi Mart - Dừa Yến Trái Cây Đóng Chai,"24 - 26 Đường 53D, P. Tân Tạo",18,1135167,2,10.0,21,0,1,0,6,1,10.7511060715983,106.5944194204403
/ho-chi-minh/com-chay-phuoc-thien-tan-ky-tan-quy/binh-luan,Cơm Chay Phước Thiện - Tân Kỳ Tân Quý,658 Tân Kỳ Tân Quý,18,744441,2,10.0,6,2,1,0,228,2,10.792809,106.6071087
/ho-chi-minh/sala-cafe-duong-so-19/binh-luan,Sala Cafe - Đường Số 19,156 Đường Số 19,18,722496,2,10.0,12,0,1,0,109,1,10.753306,106.614228
/ho-chi-minh/susu-an-vat/binh-luan,Susu - Ăn Vặt,"286/1/20 Chiến Lược, P. Bình Trị Đông A",18,1067078,2,9.256,1,0,110,1,153,0,10.7616812,106.608444
/ho-chi-minh/aytee-s-milk-tra-sua-an-vat-binh-tri-dong.8sfahi/binh-luan,Aytee’s milk - Trà Sữa & Ăn Vặt - Bình Trị Đông,"233 Bình Trị Đông, P. Bình Trị Đông A",18,1000039173,2,9.736,9,0,65,1,91,0,10.7668483,106.609649
/ho-chi-minh/hotpot-story-aeon-mall-binh-tan/binh-luan,Hotpot Story Aeon Mall Bình Tân,"Lô T06, Tầng 3, Aeon Mall Bình Tân, 1 Đường Số 17A, P. Bình Trị Đông B",18,252088,2,6.774,251,0,62,29,7445,4,10.74256,106.611427
/ho-chi-minh/nha-cao-ca-vien-chien-an-vat-ho-hoc-lam/binh-luan,Nhà Cáo - Cá Viên Chiên & Ăn Vặt - Hồ Học Lãm,"350 Hồ Học Lãm, P. An Lạc",18,1116771,2,9.686,0,0,61,0,85,0,10.724673,106.6096343
/ho-chi-minh/sinh-to-3mom/binh-luan,Sinh Tố 3MoM,"36 Đường Số 4A, P. Bình Trị Đông B",18,1080949,2,9.61,0,0,60,0,106,0,10.7498386,106.620161
/ho-chi-minh/yomisumo-shop-banh-nhat-online/binh-luan,Yomisumo Shop - Bánh Nhật Online,Tên Lửa,18,126826,2,7.542,148,0,7,62,8553,8,10.7468291,106.6122248
/ho-chi-minh/sau-bot-chien-ten-lua/binh-luan,Sáu Bột Chiên - Tên Lửa,"428 Tên Lửa, P. Bình Trị Đông B",18,39593,2,7.21,54,0,18,44,3909,5,10.7537756,106.60984
/ho-chi-minh/banh-rau-cau-sinh-nhat/binh-luan,Bánh Rau Câu Sinh Nhật,"424 Tân Hoà Đông, P. Bình Trị Đông",18,196781,2,5.932,15,0,6,43,3122,4,10.7680502170375,106.6150025009277
/ho-chi-minh/don-quan-an-quang-ngai/binh-luan,Don - Quán Ăn Quảng Ngãi,"298/2A Lê Văn Quới, P. Bình Hưng Hoà A",18,300682,2,7.688,511,0,9,42,4222,7,10.776653,106.608121
/ho-chi-minh/quay-nha-che-tra-sua-topping-nha-lam-100/binh-luan,Quầy Nhà Chế - Trà Sữa & Topping Nhà Làm 100%,"473/23B Tỉnh Lộ 10, P. An Lạc A",18,311983,2,7.724,231,0,18,41,2593,2,10.7547219481513,106.6192743797622
/ho-chi-minh/ca-vien-chien-1a-duong-18/binh-luan,Cá Viên Chiên 1A - Đường 18,"114/9 Đường 18, P. Bình Hưng Hoà",18,698322,2,7.214,34,0,14,41,2941,2,10.8228186,106.6064044
/ho-chi-minh/baos-house-bong-lan-trung-muoi/binh-luan,Bao's House - Bông Lan Trứng Muối,199 Phan Anh,18,710421,2,7.8,78,0,31,38,1053,1,10.767942,106.62279
/ho-chi-minh/bun-bo-hue-co-mai/binh-luan,Bún Bò Huế Cô Mai,158 Vành Đai Trong,18,197598,2,6.572,47,0,21,38,5060,5,10.747631,106.615349
/ho-chi-minh/ho-cau-ca-ut-phuong-quan-an-dong-que/binh-luan,Hồ Câu Cá Út Phương - Quán Ăn Đồng Quê,"Trần Văn Giàu, P. Tân Tạo A",18,648408,2,0.0,0,0,0,0,507,1,10.755154,106.571213
/ho-chi-minh/quan-619-hu-tieu-gio/binh-luan,Quán 619 - Hủ Tiếu Giò,"67B Tỉnh Lộ 10, P. Tân Tạo A",18,937033,2,0.0,1,0,0,0,11,0,10.75781,106.572336
/ho-chi-minh/bun-bo-tp/binh-luan,Bún bò TP,"80 Trần Văn Giàu, P. Tân Tạo A",18,298974,2,0.0,0,0,0,0,42,0,10.7573049125727,106.5726329013705
/ho-chi-minh/7-tam-quan-cau-ca-giai-tri-quan-an-gia-dinh/binh-luan,7 Tầm Quán - Câu Cá Giải Trí & Quán Ăn Gia Đình,"291/4 Nguyễn Thị Tú, P. Bình Hưng Hòa B",18,663024,2,0.0,4,1,0,0,301,0,10.8123279999999,106.5760972
/ho-chi-minh/ba-chi-chan-ga-nuong-duong-so-1/binh-luan,Ba Chị - Chân Gà Nướng - Đường Số 1,"54 Đường Số 1, P. Tân Tạo A",18,1000050777,2,0.0,0,0,0,0,22,0,10.7579794,106.5733903
/ho-chi-minh/meo-f-b-thuc-uong-dong-chai-tinh-lo-10/binh-luan,MEO F&B - THỨC UỐNG ĐÓNG CHAI - Tỉnh Lộ 10,"1850 Tỉnh Lộ 10, P. Tân Tạo",18,1090697,2,0.0,0,0,0,0,19,0,10.7603036544927,106.574287252074
/ho-chi-minh/nhat-ban-ca-vien-tra-sua-duong-so-1.ycbusv/binh-luan,Nhật Bản - Cá Viên & Trà Sữa - Đường Số 1,"16 Đường Số 1, P. Tân Tạo A",18,1000048532,2,0.0,0,0,0,0,3,0,10.7588703,106.5742532
/ho-chi-minh/com-binh-dan-quynh-nhu/binh-luan,Cơm Bình Dân Quỳnh Như,"36 Đường Số 1, P. Tân Tạo",18,784848,2,0.0,1,0,0,0,29,0,10.7592294982438,106.5743897482753
/ho-chi-minh/com-chay-dieu-duc-tinh-lo-10/binh-luan,Cơm Chay Diệu Đức - Tỉnh Lộ 10,1799 Tỉnh Lộ 10,18,728713,2,0.0,5,0,0,0,130,0,10.75983,106.5751434
/ho-chi-minh/ho-cau-ca-giai-tri-quang-thuan/binh-luan,Hồ Câu Cá Giải Trí Quang Thuận ,"145 Nguyễn Văn Cự, P. Tân Tạo A",18,952380,2,0.0,0,0,0,0,97,0,10.745052,106.574416
/ho-chi-minh/xinh-sang-thuc-pham-sach-co-dam-bao-banh-dan-gian-dan-da-dac-biet-mien-tay-tinh-lo-10/binh-luan,Xinh Sang Thực phẩm Sạch Có Đảm Bảo - Bánh Dân Gian Dân Dã Đặc Biệt Miền Tây - Tỉnh Lộ 10,"1870/5/31B Tỉnh Lộ 10, P. Tân Tạo",18,1000051979,2,0.0,2,0,0,0,32,0,10.7619999,106.575986
/ho-chi-minh/trung-nguyen-e-coffee-tinh-lo-10/binh-luan,Trung Nguyên E-Coffee - Tỉnh Lộ 10,"1732 Tỉnh Lộ 10, P. Tân Tạo",18,1053908,2,0.0,0,0,0,0,52,0,10.759479,106.576314
/ho-chi-minh/hong-tra-ngo-gia-ma-lo/binh-luan,Hồng Trà Ngô Gia - Mã Lò,"127 Mã Lò, P. Bình Trị Đông A",18,1000928,2,0.0,0,4,0,2,109,0,10.762902,106.604463
/ho-chi-minh/tra-sua-tron-94/binh-luan,Trà Sữa Tròn 94,"49 Đường Số 14, KDC Vĩnh Lộc, P. Bình Hưng Hòa B",18,1058160,2,0.0,0,0,0,0,145,1,10.810127,106.593195
/ho-chi-minh/katinat-ten-lua/binh-luan,KATINAT - Tên Lửa,"346 Tên Lửa, P. Bình Trị Đông B",18,1117004,2,0.0,0,0,0,0,765,0,10.7516966,106.6106469
/ho-chi-minh/tra-sua-sunday-basic-tinh-lo-10/binh-luan,Trà Sữa Sunday Basic - Tỉnh Lộ 10,"349 Tỉnh Lộ 10, P. An Lạc A",18,1145930,2,0.0,0,0,0,0,9,0,10.7568542,106.6229042
/ho-chi-minh/mcdonald-s-aeon-mall-binh-tan/binh-luan,McDonald's  AEON MALL Binh Tan,"Lô G9A Tầng Trệt, TTTM Aeon Mall Bình Tân, 01 Đường Số 17A, P. Bình Trị Đông B",18,1114973,2,0.0,0,3,0,1,46,0,10.7430132,106.6119094
/ho-chi-minh/bep-cua-ngoai-com-chien-mi-nui-xao-duong-21d/binh-luan,"Bếp Của Ngoại - Cơm Chiên, Mì & Nui Xào - Đường 21D","27 Đường 21D, P. Bình Trị Đông B",18,1050021,2,0.0,0,3,0,0,137,0,10.7553776,106.6188332
/ho-chi-minh/xoi-binh-tien-tinh-lo-10/binh-luan,Xôi Bình Tiên - Tỉnh Lộ 10,"526 Tỉnh Lộ 10, P. Bình Trị Đông",18,1048656,2,9.4,3,0,2,4,168,0,10.757551,106.617925
/ho-chi-minh/tocotoco-bubble-tea-le-van-quoi/binh-luan,TocoToco Bubble Tea - Lê Văn Quới,"285 Lê Văn Quới, P. Bình Trị Đông",18,939299,2,2.542,5,1,7,0,938,1,10.776075,106.612783
/ho-chi-minh/khoi-tea-tra-sua-sach/binh-luan,KHÔITEA - Trà Sữa Sạch - Đường Số 14,"78A Đường Số 14, P. Bình Hưng Hoà A",18,756413,2,9.8,82,0,2,1,462,4,10.780263,106.612119
/ho-chi-minh/sasin-mi-cay-7-cap-do-han-quoc-duong-17a/binh-luan,SaSin - Mì Cay 7 Cấp Độ Hàn Quốc - Đường 17A,"30 Đường Số 17A, P. Bình Trị Đông B (Đối Diện Aeon Mall Bình Tân)",18,664085,2,5.158,239,0,34,14,3801,5,10.743898,106.612083
/ho-chi-minh/bun-dau-mac-van-khoa-ten-lua/binh-luan,Bún Đậu Mạc Văn Khoa -Tên Lửa,"499 Tên Lửa, P. Bình Trị Đông B",18,987779,2,1.0,2,4,2,2,679,1,10.7547944,106.6092006
/ho-chi-minh/pizza-hut-aeon-mall-binh-tan/binh-luan,Pizza Hut - AEON Mall Bình Tân,"Lô T31, Tầng 3, Trung Tâm Mua Sắm Aeon Mall Bình Tân, Số 1 Đường Số 17A, P. Bình Trị Đông",18,252086,2,6.82,496,0,42,19,3108,12,10.742599732044,106.6116586874543
/ho-chi-minh/tra-sua-xien-que-hot-cold-duong-so-7/binh-luan,Trà Sữa Xiên Que Hot & Cold - Đường Số 7,"157 Đường Số 7, P. Bình Trị Đông B",18,201126,2,6.384,166,0,51,22,6412,17,10.7515937,106.6166432
/ho-chi-minh/seoul-garden-buffet-lau-nuong-aeon-mall-binh-tan/binh-luan,Seoul Garden AEON Mall Bình Tân,"Lô T23, Tầng 3, Aeon Mall Bình Tân,1 Đường Số 17A, P. Bình Trị Đông B",18,251678,2,6.848,229,0,37,10,8524,9,10.743185,106.611519
/ho-chi-minh/papa-s-chicken-aeon-mall-binh-tan/binh-luan,Papas' Chicken - AEON Mall Bình Tân,"Tầng 2, Aeon Mall Bình Tân, 1 Đường Số 17A, P. Bình Trị Đông B",18,251676,2,6.352,187,0,34,34,4332,18,10.743185,106.611519
/ho-chi-minh/royaltea-shanghai/binh-luan,Royaltea Shanghai - Đường Số 17A,"18 Đường Số 17A, P. Bình Trị Đông B",18,690689,2,7.488,235,0,43,22,2840,2,10.744281,106.61474
/ho-chi-minh/tokyo-deli-ten-lua/binh-luan,Tokyo Deli Express - Sushi - Tên Lửa,"306 - 308 Tên Lửa, P. Bình Trị Đông B",18,717344,2,7.89,145,0,38,15,3767,6,10.7507106,106.6111172
/ho-chi-minh/com-ga-gay-som/binh-luan,Cơm Gà Gáy Sớm - Lê Đình Cẩn,"168 Lê Đình Cẩn, P. Tân Tạo",18,1041702,2,9.554,15,0,48,8,420,15,10.759724,106.600087
/ho-chi-minh/khao-lao-aeon-mall-binh-tan/binh-luan,Khao Lao AEON Mall Bình Tân,"Lô 25, Tầng 3, AEON Mall Bình Tân, 1 Đường Số 17A, P. Bình Trị Đông",18,253714,2,7.248,308,0,33,10,2314,10,10.742589,106.611458
/ho-chi-minh/greenberry-coffee-tea/binh-luan,Greenberry Coffee & Tea,335 Bình Trị Đông,18,275608,2,7.62,174,0,20,31,6298,12,10.7748552,106.6091168
/ho-chi-minh/the-banned-duong-so-7/binh-luan,The Banned - Đường Số 7,"130 - 132 Đường Số 7, P. Bình Trị Đông B",18,1138865,2,0.0,0,0,0,0,19,0,10.7523186208227,106.6123882122861
/ho-chi-minh/gau-ba-gai-tra-sua-tinh-lo-10.zyyep1/binh-luan,Gấu Ba Gai - Trà Sữa - Tỉnh Lộ 10,"364 Tỉnh Lộ 10, P. Bình Trị Đông",18,1000044375,2,0.0,0,0,0,0,26,0,10.756746,106.622691
/ho-chi-minh/cafe-ong-bau-511-cafe-tra-sua-tinh-lo-10.i8cotm/binh-luan,Cafe Ông Bầu 511 - Cafe & Trà Sữa - Tỉnh Lộ 10,"511 Tỉnh Lộ 10, P. Bình Trị Đông B",18,1000053049,2,0.0,0,0,0,0,0,0,10.757346,106.618723
/ho-chi-minh/oanh-house-tra-sua-huong-lo-2.rkg0w0/binh-luan,Oanh House - Trà Sữa - Hương Lộ 2,"690 Hương Lộ 2, P. Bình Trị Đông A",18,1000022853,2,0.0,0,0,0,0,57,0,10.7671319,106.6075187
/ho-chi-minh/tieu-duy-vit-quay-ga-quay-gio-heo-quay-nguyen-thi-tu/binh-luan,"Tiêu Duy - Vịt Quay, Gà Quay & Giò Heo Quay - Nguyễn Thị Tú","34 Nguyễn Thị Tú, P. Bình Hưng Hòa B",18,961374,2,0.0,0,0,0,0,99,0,10.816246,106.599763
/ho-chi-minh/com-ga-xoi-mo-com-chien-duong-chau/binh-luan,Cơm Gà Xối Mỡ & Cơm Chiên Dương Châu,"353 Tỉnh Lộ 10, P. An Lạc A",18,727683,2,0.0,6,0,0,0,154,0,10.7567993,106.6225639
/ho-chi-minh/tra-sua-te-amo-duong-so-1/binh-luan,Trà Sữa Te Amo - Đường Số 1,"280 Đường Số 1, P. Bình Trị Đông B",18,1019066,2,9.284,18,0,14,3,549,2,10.748263,106.612587
/ho-chi-minh/quan-an-nhat-ban-tanchou-duong-so-7.ua2vhl/binh-luan,Quán Ăn Nhật Bản TANCHOU - Đường Số 7,"257 Đường Số 7, P. Bình Trị Đông B",18,1000032991,2,0.0,0,0,0,0,200,0,10.7514829,106.6130705
/ho-chi-minh/bap-no-truyen-thong-26-3.3pswjm/binh-luan,Bắp Nổ Truyền Thống - 26/3,"37 26 Tháng 3, P. Bình Hưng Hòa",18,1000044557,2,0.0,0,0,0,0,5,0,10.7990836,106.6068989
/ho-chi-minh/quan-hue-dac-san-hue/binh-luan,Quán Huế - Đặc Sản Huế,"135A Gò Xoài, P. Bình Hưng Hòa A",18,1011689,2,0.0,0,0,0,0,58,0,10.7848274,106.6042007
/ho-chi-minh/quan-tokbokki-kdc-vinh-loc-duong-so-1a/binh-luan,Quán Tokbokki Kdc Vĩnh Lộc - Đường Số 1A,"200 Đường Số 1A, P. Bình Hưng Hòa B",18,1116311,2,0.0,0,0,0,0,24,0,10.810279,106.594719
/ho-chi-minh/banh-mi-ha-noi-hai-tuyet-le-trong-tan/binh-luan,Bánh Mì Hà Nội Hải Tuyết - Lê Trọng Tấn,"695 Lê Trọng Tấn, P. Bình Hưng Hoà",18,1111596,2,0.0,0,0,0,0,26,0,10.8150053,106.6042434
/ho-chi-minh/quan-chao-long-mien-tay-an-la-ghien-le-van-quoi/binh-luan,Quán Cháo Lòng Miền Tây Ăn Là Ghiền - Lê Văn Quới,"141-145 Lê Văn Quới, P. Bình Trị Đông",18,1119908,2,0.0,0,0,0,0,28,0,10.7750475,106.6176836
/ho-chi-minh/tra-sua-meo-mum-mim-le-van-quoi/binh-luan,Trà Sữa Mèo Mũm Mĩm - Lê Văn Quới,"413/56/8/1 Lê Văn Quới, P. Bình Trị Đông A",18,1083012,2,0.0,1,0,0,0,31,0,10.7762079,106.605694
/ho-chi-minh/bep-nha-katy-banh-canh-duong-14b/binh-luan,Bếp Nhà Katy - Bánh Canh - Đường 14B,"37 Đường 14B, P. Bình Hưng Hòa A",18,1141667,2,0.0,0,0,0,0,2,0,10.783116,106.614335
/ho-chi-minh/sua-chua-nep-cam-ha-noi-dinh-nghi-xuan/binh-luan,Sữa Chua Nếp Cẩm Hà Nội - Đình Nghi Xuân,"77/13 Đình Nghi Xuân, P. Bình Trị Đông",18,995740,2,0.0,0,0,0,0,62,0,10.7695565,106.6196245
/ho-chi-minh/tiem-tra-lintea-tra-trai-cay-tra-sua/binh-luan,Tiệm Trà LinTea - Trà Trái Cây & Trà Sữa,"307/31A Tỉnh Lộ 10, P. An Lạc A",18,1141707,2,0.0,0,0,0,0,10,0,10.755404,106.623745
/ho-chi-minh/hu-tieu-my-tho-ut-thuy-duong-so-7/binh-luan,Hủ Tiếu Mỹ Tho Út Thủy - Đường Số 7,"83 Đường Số 7, P. Bình Trị Đông B",18,1129966,2,0.0,0,0,0,0,6,0,10.751551,106.619259
/ho-chi-minh/tin-tin-quan-bo-kho-banh-mi-an-vat/binh-luan,Tin Tin Quán - Bò Kho Bánh Mì & Ăn Vặt,"206/26/6 Lê Văn Quới, P. Bình Hưng Hòa A",18,1045977,2,0.0,0,2,0,1,46,1,10.7776673,106.6126785
/ho-chi-minh/nui-xao-my-lan-bot-chien-duong-so-3.gaxput/binh-luan,Nui Xào Mỹ Lan - Bột Chiên - Đường Số 3,"10C Đường Số 3, P. Bình Hưng Hòa A",18,1000034229,2,0.0,0,0,0,0,24,0,10.7836743,106.6184812
/ho-chi-minh/com-ga-chien-nuoc-mam-ut-tham/binh-luan,Cơm Gà Chiên Nước Mắm Út Thắm,"145 Mã Lò, P. Bình Trị Đông",18,1078616,2,0.0,0,0,0,0,24,0,10.7637298,106.6041348
/ho-chi-minh/hu-tieu-go-76-hu-tieu-213-duong-so-6.u0ozyc/binh-luan,Hủ Tiếu Gõ 76 - Hủ Tiếu - 213 Đường Số 6,"213 Đường Số 6, P. An Lạc A",18,1000037497,2,0.0,0,0,0,0,22,0,10.7547106,106.6190648
/ho-chi-minh/phat-tien-hu-tieu-nam-vang/binh-luan,Tiến Phát - Hủ Tiếu Nam Vang -Gò Xoài,"81C Gò Xoài, P. Bình Hưng Hòa A",18,953232,2,9.0,38,0,25,4,529,3,10.780795,106.602892
/ho-chi-minh/sunny-house-coffee-tea/binh-luan,SUNNY HOUSE - COFFEE & TEA,"193 Đường Số 1, KDC Vĩnh Lộc, P. Bình Hưng Hoà B",18,1120643,2,0.0,0,0,0,0,25,0,10.8122078683662,106.595570529546
/ho-chi-minh/hoang-ty-dac-san-trang-bang/binh-luan,Hoàng Ty - Đặc Sản Trảng Bàng,"447 - 449 - 451 Trần Văn Giàu, P. Bình Trị Đông B",18,695515,2,8.4,120,0,7,8,1357,4,10.751835,106.607347
/ho-chi-minh/the-7ml-tea/binh-luan,The 7ml Tea,"08 Lê Đình Cẩn, P. Bình Trị Đông A",18,1122874,2,0.0,0,5,0,4,41,0,10.7584699,106.6060238
/ho-chi-minh/oc-kieu-vanh-dai-trong/binh-luan,Ốc Kiều - Vành Đai Trong,"78 Vành Đai Trong, P. Bình Trị Đông B",18,1122460,2,0.0,0,1,0,1,36,0,10.7440652,106.615332
/ho-chi-minh/com-chien-minh-luc-mi-xao-hu-tieu-xao/binh-luan,Cơm Chiên Minh Lực - Mì Xào & Hủ Tiếu Xào,"98B Đường Cầu Kinh - Khu Phố 7, P. Tân Tạo A",18,1119270,2,0.0,0,0,0,0,7,0,10.7545662,106.5823716
/ho-chi-minh/banh-mi-an-vat-3-chi-em/binh-luan,Bánh Mì & Ăn Vặt - 3 Chị Em,"713/25/13 An Dương Vương, P. Bình Trị Đông",18,1000040214,2,0.0,0,0,0,0,34,0,10.7589664,106.624308
/ho-chi-minh/yummy-com-ga-hai-nam-duong-so-13/binh-luan,Yummy - Cơm Gà Hải Nam - Đường Số 13,"24 Đường Số 13, P. Bình Hưng Hòa",18,1114374,2,0.0,0,0,0,0,31,0,10.8006619,106.6100104
/ho-chi-minh/oc-nhu-lau-bo-duong-34.mz8crx/binh-luan,Ốc Như - Lẩu Bò - Đường 34,"59 Đường 34, P. Bình Trị Đông B",18,1000037481,2,0.0,0,0,0,0,18,0,10.7546941,106.6073722
/ho-chi-minh/oc-439-ten-lua/binh-luan,Ốc 439 - Tên Lửa,"439 Tên Lửa, P. Bình Trị Đông B",18,1115277,2,0.0,0,0,0,0,23,0,10.7538387,106.6096347
/ho-chi-minh/jasmine-tra-tra-sua/binh-luan,Jasmine - Trà & Trà sữa,"88 Đường Số 17A, Bình Trị Đông B",18,1113445,2,0.0,0,0,0,0,22,0,10.7431354923495,106.6106850975409
/ho-chi-minh/goc-cafe-chung-cu-le-thanh/binh-luan,Góc Cafe - Chung Cư Lê Thành,"Khu A - Chung Cư Lê Thành, P. An Lạc",18,1112337,2,0.0,0,0,0,0,5,0,10.7181573781671,106.6173262173495
/ho-chi-minh/ken-s-house-coffee/binh-luan,KEN'S HOUSE COFFEE - Coffee & Tea - Đường Số 24,"67 Đường Số 24, P. Bình Trị Đông B",18,947028,2,0.0,0,0,0,0,74,0,10.7527442,106.6118726
/ho-chi-minh/tocotoco-bubble-tea-duong-so-1/binh-luan,TocoToco Bubble Tea - Đường Số 1,172 Đường Số 1,18,946044,2,5.52,22,0,10,0,1299,0,10.748512,106.61647
/ho-chi-minh/tra-sua-bobapop-tinh-lo-10/binh-luan,Trà Sữa Bobapop - Tỉnh Lộ 10,"840 Tỉnh Lộ 10, P. Bình Trị Đông A",18,799358,2,5.348,24,0,15,6,2316,3,10.758107,106.608075
/ho-chi-minh/tocotoco-bubble-tea-tinh-lo-10/binh-luan,Tocotoco Bubble Tea - Tỉnh Lộ 10,"657 Tỉnh Lộ 10, P. Bình Trị Đông B",18,984038,2,5.5,3,1,2,0,177,1,10.758125,106.613196
/ho-chi-minh/com-ga-xoi-mo-thach-lam-ma-lo/binh-luan,Cơm Gà Xối Mỡ Thạch Lam - Mã Lò,"144 Mã Lò, P. Bình Trị Đông A",18,1004554,2,9.2,17,0,1,1,158,3,10.762857,106.604545
/ho-chi-minh/tocotoco-bubble-tea-duong-so-17a/binh-luan,TocoToco Bubble Tea - Đường Số 17A,"96 Đường Số 17A, P. Bình Trị Đông B",18,941484,2,2.96,26,0,5,1,533,0,10.742937,106.610629
/ho-chi-minh/banh-trang-gau-mi-nhon-duong-so-3b/binh-luan,Bánh Tráng Gấu Mi Nhon - Đường Số 3B,"7 Đường Số 3B, P. Tân Tạo A",18,947690,2,5.0,18,0,4,5,593,2,10.7517441,106.5912713
/ho-chi-minh/thai-express-mon-thai-aeon-mall-binh-tan/binh-luan,Thai Express - Món Thái - AEON Mall Bình Tân,"T24, Tầng 3, TTMS Aeon Mall Bình Tân - 01 Đướng số 17A, Khu phố 11, P. Bình Trị Đông B",18,252061,2,6.592,273,0,49,11,10111,9,10.742589,106.611458
/ho-chi-minh/abc-bakery-kinh-duong-vuong/binh-luan,ABC Bakery - Kinh Dương Vương,"545 Kinh Dương Vương, P. An Lạc ",18,4401,2,5.776,25,0,15,5,10418,8,10.736154,106.614064
/ho-chi-minh/be-vang/binh-luan,Nhà Hàng Bê Vàng - Hải Sản & Bê Thui Nóng,"110A - 112  Vành Đai Trong, P. Bình Trị Đông B",18,8849,2,5.334,65,0,9,5,9100,4,10.745646,106.615287
/ho-chi-minh/lo-dat-bbq/binh-luan,Lò Đất BBQ ,"81 Phan Anh, P. Bình Trị Đông",18,91941,2,7.666,7,0,3,8,8825,2,10.765126,106.62337
/ho-chi-minh/am-thuc-dong-que/binh-luan,Ẩm Thực Đồng Quê ,"666 Lê Trọng Tấn, P. Bình Hưng Hòa",18,8982,2,5.2,0,0,3,2,8615,2,10.8141182,106.606015
/ho-chi-minh/fenix-palace/binh-luan,Nhà Hàng Tiệc Cưới Fenix Palace,309 Lê Văn Quới,18,121820,2,7.8,55,0,2,3,8548,1,10.7762578,106.6068576999999
/ho-chi-minh/hong-ky-mi-gia/binh-luan,Hồng Ký Mì Gia,"2 Đường Số 4, P. An Lạc",18,107434,2,5.052,104,0,12,11,8245,16,10.7500084,106.620655
/ho-chi-minh/pho-oc-duong-so-4/binh-luan,Phố Ốc - Hải Sản Tươi Sống,"16 Đường số 4, P. An Lạc A",18,84697,2,6.938,159,0,19,22,8202,10,10.749193,106.620517
/ho-chi-minh/tra-sua-nong-duong-so-2/binh-luan,Trà Sữa Nọng - Đường Số 2,"44 Đường Số 2, P. An Lạc A",18,1150370,2,0.0,0,0,0,0,1,0,10.7495632,106.6215341
/ho-chi-minh/com-ga-xoi-mo-huynh-ky-ten-lua/binh-luan,Cơm Gà Xối Mỡ Huỳnh Ký - Tên Lửa,"442 Tên Lửa, P. Bình Trị Đông B",18,1150348,2,0.0,0,0,0,0,1,0,10.7541117,106.6099286
/ho-chi-minh/say-coffee-do-uong-125-30-2-tay-lan/binh-luan,Say Coffee - Đồ Uống - 125/30/2 Tây Lân,"125/30/2 Tây Lân, P. Bình Trị Đông A",18,1000057925,2,0.0,0,0,0,0,1,0,10.7721123,106.5831599
/ho-chi-minh/bep-que-xu-quang-banh-beo-don-duong-16/binh-luan,Bếp Quê Xứ Quảng - Bánh Bèo & Don - Đường 16,"109 Đường 16, P. Bình Hưng Hòa",18,1150251,2,0.0,0,0,0,0,1,0,10.8110655,106.6061863
/ho-chi-minh/quan-an-gia-hoang-com-ga-xoi-mo-hu-tieu-xao-kinh-duong-vuong/binh-luan,Quán Ăn Gia Hoàng - Cơm Gà Xối Mở & Hủ Tiếu Xào - Kinh Dương Vương,"600/12 Kinh Dương Vương, P. An Lạc",18,1150228,2,0.0,0,0,0,0,1,0,10.73043,106.608533
/ho-chi-minh/tra-sua-an-vat-41-duong-so-5/binh-luan,Trà Sữa Ăn Vặt 41 - Đường Số 5,"41/6 Đường Số 5, P. Bình Hưng Hòa",18,1150166,2,0.0,0,0,0,0,3,0,10.805352,106.6038004
/ho-chi-minh/tra-sua-oanh-house-437-tan-hoa-dong/binh-luan,Trà Sữa Oanh House - 437 Tân Hoà Đông,"437 Tân Hoà Đông, P. Bình Trị Đông",18,1150162,2,0.0,0,0,0,0,2,0,10.767077,106.616091
/ho-chi-minh/coffee-nuoc-ep-nguyen-chat-duong-so-4/binh-luan,Coffee Nước Ép Nguyên Chất - Đường Số 4,"12 Đường Số 4, P. Bình Hưng Hòa A",18,1149965,2,0.0,0,0,0,0,1,0,10.7854053,106.5996667
/ho-chi-minh/quan-nang-moi-tinh-lo-10/binh-luan,Quán Nắng Mới - Tỉnh Lộ 10,"753/54 Tỉnh Lộ 10, P. Bình Trị Đông B",18,1149912,2,0.0,0,0,0,0,4,0,10.7574537,106.6091995
/ho-chi-minh/mi-quang-hao-ha-lien-khu-16-18/binh-luan,Mì Quảng Hảo Hà - Liên Khu 16 - 18,"24 Liên Khu 16 - 18, P. Bình Trị Đông",18,1149850,2,0.0,0,0,0,0,3,0,10.7590677,106.6135572
/ho-chi-minh/quan-com-binh-dan-hanh-109-duong-16/binh-luan,Quán Cơm Bình Dân Hạnh - 109 Đường 16,"109 Đường Số 16, P. Bình Hưng Hòa",18,1149805,2,0.0,0,0,0,0,1,0,10.8106525,106.6061857
/ho-chi-minh/hu-tiu-bo-vien-1433-tinh-lo-10/binh-luan,Hủ Tíu Bò Viên - 1433 Tỉnh Lộ 10,"1433 Tỉnh Lộ 10, P. Tân Tạo A",18,1000057787,2,0.0,0,0,0,0,2,0,10.7569698,106.5853036
/ho-chi-minh/com-ga-xoi-mo-a-map-mon-xao-nuoc-giai-khat-truong-phuoc-phan/binh-luan,Cơm Gà Xối Mỡ A Mập - Món Xào & Nước Giải Khát - Trương Phước Phan,"43/4A Trương Phước Phan, P. Bình Trị Đông",18,1135061,2,10.0,11,0,1,0,25,1,10.759909,106.61125
/ho-chi-minh/xoi-man-147/binh-luan,Xôi Mặn 147,147 Đường Số 19,18,724663,2,10.0,23,1,1,2,323,0,10.753235,106.613335
/ho-chi-minh/mi-quang-anh-ba-duong-so-15/binh-luan,Mì Quảng Anh Ba - Đường Số 15,"106 Đường Số 15, P. Bình Hưng Hòa",18,989034,2,10.0,9,0,1,0,65,1,10.80331,106.605267
/ho-chi-minh/good-coffee-coffee-juice-smoothie-duong-so-18/binh-luan,GOOD COFFEE - Coffee & Juice Smoothie - Đường Số 18,"208 Đường Số 18, P. Bình Hưng Hoà",18,1113234,2,10.0,3,0,3,0,32,0,10.820562,106.609168
/ho-chi-minh/66-coffee/binh-luan,66 Coffee,"66 Đường Số 32, P. Bình Trị Đông B",18,887897,2,10.0,32,0,1,1,80,0,10.752184,106.609674
/ho-chi-minh/cha-ca-cua-ma-shop-online/binh-luan,Chả Cá Của Má - Shop Online,"Block A3, Chung Cư Ehome 3, Hồ Học Lãm, P. An Lạc",18,893752,2,10.0,15,0,1,0,114,1,10.7148,106.610512
/ho-chi-minh/gold-coffee-tea-tra-sua-tra-trai-cay-nuoc-ep-duong-so-5.nry1tc/binh-luan,"Gold Coffee & Tea - Trà Sữa, Trà Trái Cây & Nước Ép - Đường Số 5","262 Đường Số 5, P. Bình Hưng Hòa",18,1000053913,2,10.0,14,0,2,0,30,0,10.8055855,106.6075667
/ho-chi-minh/suri-an-vat-tra-sua/binh-luan,Suri - Ăn Vặt & Trà Sữa,"127 Hồ Văn Long, P. Bình Hưng Hòa B",18,1047187,2,10.0,6,0,1,0,23,1,10.821765,106.599504
/ho-chi-minh/me-69-chao-ech-singapore/binh-luan,Me.69 - Cháo Ếch Singapore,"144 Đường Số 19, P. Bình Trị Đông B",18,1051419,2,10.0,16,0,1,1,62,0,10.75328,106.614519
/ho-chi-minh/uji-cha-tra-sua-an-vat/binh-luan,Uji Cha - Trà Sữa & Ăn Vặt,"116B Lô Tư, P. Bình Hưng Hòa A",18,1077012,2,10.0,1,0,3,0,61,0,10.7857487,106.5987926
/ho-chi-minh/tiem-co-chau-banh-it-tran-bo-kho.8eesc9/binh-luan,Tiệm Cô Châu - Bánh Ít Trần & Bò Kho,"48/38 Đường Số 14A, P. Bình Hưng Hòa A",18,1000033242,2,10.0,7,0,2,0,39,0,10.782199,106.613211
/ho-chi-minh/bun-moc-thanh-quan-huong-lo-2/binh-luan,Bún Mọc Thanh Quán - Hương Lộ 2,"650/2/8 Hương Lộ 2, P. Bình Trị Đông A",18,1138496,2,9.552,0,0,60,0,86,0,10.7682694,106.6091929
/ho-chi-minh/lemon-juice-nuoc-ep-detox-mi-y/binh-luan,LEMÓN JUICE - NƯỚC ÉP DETOX & MÌ Ý,"14 Đường Liên Khu 16-18, P. Bình Trị Đông A",18,1080834,2,9.614,14,0,51,5,189,0,10.7589205581441,106.6134886389883
/ho-chi-minh/viet-thanh-bakery-banh-kem-sua-kem-bap-va-cac-loai-banh-mi/binh-luan,"Việt Thành Bakery - Bánh Kem Sữa, Kem Bắp Và Các Loại Bánh Mì","744-746 Tân Kỳ Tân Quý, P. Bình Hưng Hoà A",18,1092134,2,9.844,11,0,50,2,231,0,10.7909647,106.603615
/ho-chi-minh/viet-thanh-bakery-banh-mi-man-ngot-tan-ky-tan-quy/binh-luan,Việt Thành Bakery - Bánh Mì Mặn Ngọt - Tân Kỳ Tân Quý,"744 Tân Kỳ Tân Quý, P. Bình Hưng Hoà A",18,1091647,2,9.84,11,0,50,0,172,0,10.792149,106.606217
/ho-chi-minh/xoi-nha-minh/binh-luan,Xôi Nhà Mình,"704/27/16 Hương Lộ 2, P. Bình Trị Đông A",18,688264,2,7.71,93,0,34,34,1787,3,10.770765,106.606268
/ho-chi-minh/quan-long-ky-com-ga-hai-nam/binh-luan,Quán Long Ký - Cơm Gà Hải Nam,"126 Đường Số 1, P. Bình Trị Đông B",18,37660,2,6.482,43,0,17,33,7140,19,10.7484827,106.617343
/ho-chi-minh/kho-bo-thien-phuc-shop-online/binh-luan,Khô Bò Thiên Phúc - Shop Online,"43/15/27 Mã Lò, Bình Trị Đông A",18,174249,2,7.82,37,0,9,33,7817,1,10.7864414,106.5984532
/ho-chi-minh/trai-cay-4u/binh-luan,Trái Cây 4U,"53 Đường Số 6, Khu Dân Cư Thắng Long, P. Bình Trị Đông",18,633970,2,9.51,34,0,11,32,1661,2,10.7567087,106.6065109
/ho-chi-minh/pho-bun-bo-tinh-lo-10/binh-luan,Phở & Bún Bò - Tỉnh Lộ 10,1720 Tỉnh Lộ 10,18,759919,2,0.0,7,0,0,0,118,1,10.759292,106.576991
/ho-chi-minh/my-phuong-quan-com-tu-chon/binh-luan,Mỹ Phượng - Quán Cơm Tự Chọn,"1702 Tỉnh Lộ 10, P. Tân Tạo",18,768258,2,0.0,9,0,0,0,48,0,10.7590689,106.5777654
/ho-chi-minh/cha-lui-lagi-19-5-tinh-lo-10.uzfuen/binh-luan,Chả Lụi Lagi 19/5 - Tỉnh Lộ 10,"1702 Tỉnh Lộ 10, P. Tân Tạo A",18,1000048958,2,0.0,0,0,0,0,7,0,10.7590971,106.5777904
/ho-chi-minh/nhung-nguoi-ban-quan-an-sinh-thai-gia-dinh-cau-ca-giai-tri/binh-luan,Những Người Bạn - Quán Ăn Sinh Thái Gia Đình & Câu Cá Giải Trí,"60/13 Nguyễn Văn Cự, P. Tân Tạo A",18,753125,2,8.0,14,0,1,1,642,1,10.755131,106.577844
/ho-chi-minh/tra-sua-bb-milktea-nguyen-thi-tu/binh-luan,Trà Sữa BB Milktea - Nguyễn Thị Tú,"19 Nguyễn Thị Tú, P. Bình Hưng Hoà B",18,1113815,2,0.0,0,0,0,0,20,0,10.8139812,106.5812768
/ho-chi-minh/hoa-su-cafe-tran-dai-nghia/binh-luan,Hoa Sứ Cafe - Trần Đại Nghĩa,"599B Trần Đại Nghĩa, P. Tân Tạo",18,642429,2,0.0,0,0,0,0,57,0,10.7303693068927,106.5765925124287
/ho-chi-minh/lau-bo-bia-set-lau-bo-tinh-lo-10.auiev0/binh-luan,Lẩu Bò Bia Sệt  - Lẩu Bò - Tỉnh Lộ 10,"1655 Tỉnh Lộ 10, P. Tân Tạo A",18,1000026931,2,0.0,0,0,0,0,7,0,10.758886,106.5783475
/ho-chi-minh/com-tam-binh-dan-tinh-lo-10/binh-luan,Cơm Tấm Bình Dân - Tỉnh Lộ 10,1682 Tỉnh Lộ 10,18,729222,2,0.0,5,0,0,0,66,0,10.758952,106.578444
/ho-chi-minh/vi-vu-bap-xao-an-vat/binh-luan,Vi Vu - Bắp Xào & Ăn Vặt,"1658/10 Tỉnh Lộ 10, P. Tân Tạo A",18,1061815,2,0.0,0,0,0,0,17,0,10.758598,106.578504
/ho-chi-minh/cherry-shop-thuc-pham-ho-van-long/binh-luan,Cherry Shop - Thực Phẩm - Hồ Văn Long,"117/80 Hồ Văn Long, P. Tân Tạo",18,1089784,2,0.0,0,0,0,0,6,0,10.7643536919849,106.5791990404152
/ho-chi-minh/pizza-sol-sol/binh-luan,Pizza Sol Sol,"117/80 Hồ Văn Long, P. Tân Tạo",18,1028747,2,0.0,0,1,0,1,49,0,10.763255,106.57916
/ho-chi-minh/bep-nha-sua-ho-van-long-shop-online/binh-luan,Bếp Nhà Sữa - Hồ Văn Long - Shop Online,"117/80 Hồ Văn Long, Chung Cư Lê Thành, P. Tân Tạo",18,1091441,2,0.0,0,0,0,0,10,0,10.7633064152511,106.5792016212723
/ho-chi-minh/co-ut-bun-rieu-an-la-ghien/binh-luan,Cô Út - Bún Riêu Ăn Là Ghiền - Lê Công Phép,"4 Lê Công Phép, P. An Lạc",18,1026651,2,8.04,4,0,5,5,238,1,10.74272,106.620992
/ho-chi-minh/tutimi-milo-dam-tra-sua-tan-ky-tan-quy/binh-luan,TUTIMI - Milo Dầm - Trà Sữa - Tân Kỳ Tân Quý,"985 Tân Kỳ Tân Quý, P. Bình Hưng Hòa A",18,1132608,2,0.0,0,0,0,0,44,0,10.7882269,106.5994216
/ho-chi-minh/banh-canh-cua-gia-linh-ten-lua/binh-luan,BÁNH CANH CUA GIA LINH - TÊN LỬA,"238 Tên Lửa, P. Bình Trị Đông",18,1082526,2,0.0,0,2,0,1,55,2,10.745265,106.613068
/ho-chi-minh/che-nghia-ten-lua/binh-luan,Chè Nghĩa - Tên Lửa,"714C Tên Lửa, P. Bình Trị Đông B",18,1141973,2,0.0,0,0,0,0,15,0,10.7563105,106.6061158
/ho-chi-minh/lotteria-tinh-lo-10/binh-luan,Lotteria - Tỉnh Lộ 10,"1271 Tỉnh Lộ 10, P. Tân Tạo",18,998834,2,0.0,0,2,0,0,124,1,10.756193,106.592634
/ho-chi-minh/banh-trang-co-vuong/binh-luan,Bánh Tráng Cô Vương,"29/41 Nguyễn Hới, P. An Lạc",18,1048686,2,9.932,20,0,6,3,324,5,10.738571,106.619215
/ho-chi-minh/tra-sua-let-s-milk/binh-luan,Trà Sữa Let's Milk,"62 Liên Khu 2-5, P. Bình Trị Đông",18,742643,2,8.3,16,0,4,5,926,2,10.770987,106.6166278
/ho-chi-minh/oc-tai-2/binh-luan,Ốc Tài 2,"484 Lê Văn Quới, P. Bình Hưng Hòa A",18,1045430,2,8.0,0,0,1,1,168,0,10.7763479,106.606129
/ho-chi-minh/kfc-bigc-an-lac/binh-luan,Gà Rán KFC - BigC An Lạc,"1231 Quốc Lộ 1A, P. Bình Trị Đông",18,4287,2,5.512,44,0,7,4,7688,18,10.7307362,106.6039895
/ho-chi-minh/hia-vu-com-tam-suon/binh-luan,Hia Vũ - Cơm Tấm Sườn - Đường Số 7,"221 Đường Số 7, P. Bình Trị Đông B",18,918890,2,8.18,28,0,10,19,1183,2,10.7513888,106.6140952
/ho-chi-minh/kitty-food-ship-do-an-online/binh-luan,Cơm Văn Phòng Home,"353/1 Chiến Lược, P. Bình Trị Đông A",18,879665,2,6.198,295,0,44,17,1144,4,10.761143,106.607543
/ho-chi-minh/eisroma-italian-ice-cream/binh-luan,Eisroma - Italian Ice Cream,"263 - 265 Vành Đai Trong, P. Bình Trị Đông B",18,724547,2,8.378,74,0,34,16,1274,2,10.75023,106.614922
/ho-chi-minh/shabu-ya-aeon-mall-binh-tan/binh-luan,Shabu Ya - AEON Mall Bình Tân,"Lô T14B, Tầng 3, AEON Mall Bình Tân, 1 Đường Số 17A, P. Bình Trị Đông",18,655961,2,7.494,86,0,32,26,5175,2,10.742601,106.611661
/ho-chi-minh/gangnam-bulgogi-aeon-mall-binh-tan/binh-luan,Gangnam Bulgogi - Aeon Mall Bình Tân,"Tầng 3, Aeon Mall Bình Tân, 1 Đường Số 17A, Phường Bình Trị Đông B",18,251661,2,6.448,180,0,25,10,8106,12,10.74256,106.611427
/ho-chi-minh/banh-deli-tiramisu-cookies-banh-ngot-nguyen-thi-tu/binh-luan,"Bánh Deli - Tiramisu, Cookies & Bánh Ngọt - Nguyễn Thị Tú","233 Nguyễn Thị Tú, P. Bình Hưng Hoà B",18,1107974,2,8.97,74,0,20,5,141,32,10.8165915,106.5938623
/ho-chi-minh/bingo-coffee-cake-vanh-dai-trong/binh-luan,Bingo Coffee & Cake - Vành Đai Trong,"280 Bis Vành Đai Trong, P. Bình Trị Đông B",18,136059,2,7.788,128,0,15,21,3342,25,10.7522343297568,106.6154882311821
/ho-chi-minh/chu-teo-buffet-nuong-99k-nguyen-thi-tu/binh-luan,Chú Tèo Buffet Nướng 99K - Nguyễn Thị Tú,"229 Nguyễn Thị Tú, P. Bình Hưng Hòa B",18,798992,2,7.86,126,0,27,12,2072,2,10.815644,106.594709
/ho-chi-minh/tra-sua-won-cha-tinh-lo-10/binh-luan,Trà Sữa Won Cha - Tỉnh Lộ 10,"893 Tỉnh Lộ 10, P. Bình Trị Đông B",18,707393,2,5.792,282,0,23,17,2858,5,10.757079,106.605895
/ho-chi-minh/hung-ky-tinh-lo-10/binh-luan,Hủ Tíu Mì Hùng Ký - Tỉnh Lộ 10,"312 Tỉnh Lộ 10, P. Bình Trị Đông",18,40059,2,7.554,108,0,13,19,4073,12,10.755904,106.624364
/ho-chi-minh/ga-hap-hongkong-shop-online/binh-luan,Gà Hấp HongKong - Shop Online,"379/3/39 Tân Hoà Đông, P. Bình Trị Đông",18,990188,2,0.0,7,1,0,0,27,1,10.763164,106.618973
/ho-chi-minh/hieu-banh-nha-gau/binh-luan,Hiệu Bánh Nhà Gấu,"996 Tỉnh Lộ 10, P. Tân Tạo",18,762332,2,0.0,0,1,0,0,85,0,10.7547334,106.6036074999999
/ho-chi-minh/365-bakery/binh-luan,365 Bakery,"72 Đường 26 Tháng 3, P. Bình Hưng Hòa",18,780098,2,8.4,86,0,1,0,156,1,10.8018256,106.6085605
/ho-chi-minh/tiem-banh-bnb-bakery-duong-so-7/binh-luan,Tiệm Bánh BnB Bakery - Đường Số 7,"87 Đường Số 7, P. Bình Trị Đông B",18,1127690,2,0.0,0,1,0,0,60,0,10.7517916,106.6190474
/ho-chi-minh/my-linh-banh-trang-an-vat/binh-luan,Mỹ Linh - Bánh Tráng & Ăn Vặt,"704/3 Tên Lửa, P. Bình Trị Đông B",18,1059212,2,0.0,0,0,0,0,35,0,10.7549080318189,106.606305514417
/ho-chi-minh/an-vat-pin-gau-banh-trang-tron-bap-xao-kho-muc-nuong/binh-luan,"Ăn Vặt Pin Gấu - Bánh Tráng Trộn, Bắp Xào & Khô Mực Nướng","56A Đường Số 8, P. Bình Hưng Hòa A",18,1148568,2,0.0,0,0,0,0,5,0,10.7787106,106.6158026
/ho-chi-minh/mi-cay-coffee-360-vui-hi-duong-3a/binh-luan,Mì Cay & Coffee 360 Vui Hi - Đường 3A,"50 Đường Số 3A, P. Tân Tạo A",18,1145043,2,0.0,0,0,0,0,9,0,10.752246,106.5897585
/ho-chi-minh/banh-mi-ha-noi-le-trong-tan/binh-luan,Bánh Mì Hà Nội - Lê Trọng Tấn,"695 Lê Trọng Tấn Phường, P. Bình Hưng Hòa",18,1091429,2,0.0,0,0,0,0,10,0,10.814869,106.6042756
/ho-chi-minh/hu-tiu-mi-hung-ky-312-tinh-lo-10/binh-luan,Quán Ăn Hùng Ký - 312 Tỉnh Lộ 10,312 Tỉnh Lộ 10,18,781723,2,0.0,3,9,0,4,163,1,10.756109,106.624253
/ho-chi-minh/milk-tea-cacao-dam-banh-flan-chien-luoc/binh-luan,Milk Tea - Cacao Dầm Bánh Flan - Chiến Lược,"231/16 Chiến Lược, P. Bình Trị Đông",18,1136459,2,0.0,0,0,0,0,29,0,10.760231,106.61239
/ho-chi-minh/miss-thuan-tra-sua-an-vat-truong-phuoc-phan/binh-luan,Miss Thuận - Trà Sữa & Ăn Vặt - Trương Phước Phan,"63/3/10 Trương Phước Phan, P. Bình Trị Đông",18,1000044020,2,0.0,0,0,0,0,32,0,10.7669857,106.6137961
/ho-chi-minh/bot-chien-tinh-lo-10-bot-chien-nui-chien/binh-luan,Bột Chiên Tỉnh Lộ 10 - Bột Chiên & Nui Chiên,"415 Tỉnh Lộ 10, P. An Lạc",18,1114661,2,0.0,0,0,0,0,32,0,10.756972,106.6214636
/ho-chi-minh/pho-bay-cu-pho-bo-pho-ga-ho-hoc-lam/binh-luan,Phở Bảy Cù - Phở Bò & Phở Gà - Hồ Học Lãm,"397 Hồ Học Lãm, P. An Lạc",18,1082768,2,0.0,0,1,0,0,30,0,10.7236345,106.6099954
/ho-chi-minh/tra-sua-harry/binh-luan,Trà Sữa Harry,"107/5 Đường Số 14, P. Bình Hưng Hòa A",18,951871,2,0.0,0,3,0,0,112,0,10.780666,106.6119964
/ho-chi-minh/vu-heo-ca-nuong-my-chau-duong-12b/binh-luan,Vú Heo & Cá Nướng Mỹ Châu - Đường 12B,"29A Đường 12B, P. Bình Trị Đông B",18,1083499,2,0.0,0,1,0,1,29,0,10.7545262,106.6160672
/ho-chi-minh/xien-que-ca-vien-tho-koon-an-vat-xien-que-huong-lo-2.hcuvhm/binh-luan,Xiên Que Cá Viên Thỏ Koon - Ăn Vặt & Xiên Que - Hương Lộ 2,"689/1L Hương Lộ 2, P. Bình Trị Đông A",18,1000044135,2,0.0,0,0,0,0,7,0,10.7669536,106.6084145
/ho-chi-minh/dong-kieu-hu-tiu-bo-vien/binh-luan,Đông Kiều - Hủ Tíu Bò Viên,"415 Tỉnh Lộ 10, P. An Lạc",18,1114649,2,0.0,0,0,0,0,21,0,10.7569599,106.6214574
/ho-chi-minh/quan-oc-bon-xa/binh-luan,Quán Ốc Bốn Xã,"225 Lê Văn Quới, P. Bình Trị Đông",18,789842,2,7.55,4,0,4,4,464,1,10.77546,106.615424
/ho-chi-minh/oc-cam-quan-nhau-binh-dan/binh-luan,Ốc Cam - Quán Nhậu Bình Dân,"544 Lê Văn Quới, P. Bình Hưng Hòa A",18,793248,2,10.0,1,1,1,0,234,0,10.776419,106.603978
/ho-chi-minh/bin-steak-pizza-vinh-loc/binh-luan,Bin - Steak & Pizza - Vĩnh Lộc,"85 Đường Số 3, Khu Dân Cư Vĩnh Lộc, P. Bình Hưng Hòa B",18,1082736,2,1.0,0,0,1,0,54,0,10.8023564,106.591846
/ho-chi-minh/nuba-coffee-coffee-quoc-lo-1a.muj1vx/binh-luan,Nuba Coffee - Coffee - Quốc lộ 1A,"1052Q Quốc lộ 1A, P. Tân Tạo A",18,1000024407,2,0.0,0,0,0,0,8,0,10.7542118,106.5920792
/ho-chi-minh/bay-thanh-quan-quan-an-gia-dinh-mieu-go-xoai/binh-luan,Bảy Thành Quán - Quán Ăn Gia Đình - Miếu Gò Xoài,"100/27 Miếu Gò Xoài, P. Bình Hưng Hoà A",18,1077058,2,0.0,0,0,0,0,38,0,10.7808639,106.6071318
/ho-chi-minh/hu-tieu-bo-vien-lam-ky-my-cay-tra-sua/binh-luan,HỦ TIẾU BÒ VIÊN LÂM KÝ - MỲ CAY - TRÀ SỮA,"364 Tân Hòa Đông, P. Bình Trị Đông",18,1075560,2,0.0,0,0,0,0,19,0,10.766005,106.6175027
/ho-chi-minh/quan-oc-huynh-suong-hai-san-an-duong-vuong.vzadjd/binh-luan,Quán Ốc Huỳnh Sương - Hải Sản - An Dương Vương,"563 An Dương Vương, P. An Lạc A",18,1000022665,2,0.0,0,0,0,0,99,0,10.7537075,106.6241223
/ho-chi-minh/tra-sua-maycha-nguyen-thi-tu/binh-luan,Trà Sữa Maycha - Nguyễn Thị Tú," 61A Nguyễn Thị Tú, P. Bình Hưng Hoà B",18,1074911,2,6.3,1,0,2,0,269,0,10.8159658,106.5988773
/ho-chi-minh/zaan-tea-coffee-food/binh-luan,Zaan Tea - Coffee & Food,"160 Đường M1, P. Bình Hưng Hòa",18,1073162,2,0.0,0,0,0,0,38,0,10.8216471,106.608192
/ho-chi-minh/atm-coffee-vanh-dai-trong/binh-luan,Atm Coffee - Vành Đai Trong,"313 - 315 Vành Đai Trong, P. Bình Trị Đông",18,1066689,2,0.0,0,0,0,0,40,0,10.753428,106.615025
/ho-chi-minh/visa-coffee/binh-luan,Visa Coffee,"295/27 Tân Hòa Đông, P. Bình Trị Đông",18,1063792,2,9.2,2,0,1,0,40,0,10.7606694,106.6220702
/ho-chi-minh/mi-quang-pho-hoi-duong-so-18/binh-luan,Mì Quảng Phố Hội - Đường Số 18,"64 Đường Số 18, P. Bình Hưng Hòa",18,766927,2,8.934,18,1,3,3,213,2,10.8233293,106.605372
/ho-chi-minh/quan-an-ut-xi-quan-an-binh-dan/binh-luan,Quán Ăn Lộc Ký,"148 Đường Số 5, P. Bình Hưng Hòa",18,903868,2,6.9,12,0,2,1,128,1,10.806145,106.604333
/ho-chi-minh/hu-tieu-dem-mi-banh-canh-nui-hoanh-thanh-huong-lo-2/binh-luan,Hủ Tiếu Đêm - Mì Bánh Canh Nui Hoành Thánh - Hương Lộ 2,"933 Hương Lộ 2, P. Bình Trị Đông A",18,1064599,2,10.0,0,0,1,1,54,0,10.76781,106.596014
/ho-chi-minh/bun-bo-hue-563-tinh-lo-10/binh-luan,Bún Bò Huế 563 - Tỉnh Lộ 10,"563 Tỉnh Lộ 10, P. Bình Trị Đông B",18,1112940,2,10.0,0,0,1,0,14,0,10.757488,106.616998
/ho-chi-minh/chao-dinh-duong-wow-nguyen-thuc-tu/binh-luan,Cháo Dinh Dưỡng Wow - Nguyễn Thức Tự,"16 Lô L Nguyễn Thức Tự, P. An Lạc A",18,1052710,2,0.0,15,0,0,0,35,0,10.745412,106.619782
/ho-chi-minh/chiaki-hiro-food-drink-duong-so-9a/binh-luan,Chiaki Hiro - Food & Drink - Đường Số 9A,"34/8 Đường Số 9A, P. Bình Hưng Hoà A",18,990565,2,8.0,32,0,4,2,121,0,10.7890506,106.6139349
/ho-chi-minh/texas-chicken-aeon-mall-binh-tan/binh-luan,Texas Chicken - Aeon Mall Bình Tân,"Tầng 3, Aeon Mall Bình Tân, 1 Đường Số 17A, P. Bình Trị Đông B",18,251681,2,6.244,112,0,38,15,3747,11,10.74256,106.611427
/ho-chi-minh/panda-buffet-aeon-mall-binh-tan/binh-luan,Panda Buffet - AEON Mall Bình Tân,"Lầu 3 AEON Mall Bình Tân, 1 Đường Số 17A, P. Bình Trị Đông",18,688093,2,6.084,83,0,19,8,8000,2,10.742616,106.611696
/ho-chi-minh/thien-tam-am-thuc-chay-tra-dao/binh-luan,Thiền Tâm - Ẩm Thực Chay & Trà Đạo,75 Đường Số 7,18,66361,2,7.878,66,0,8,28,6932,6,10.751887,106.61373
/ho-chi-minh/3t-quan-quan-an-binh-dan/binh-luan,3T Quán - Quán Ăn Bình Dân,"296 Tên Lửa, P. Bình Trị Đông B",18,256832,2,8.5,31,0,2,11,6622,1,10.752995,106.609977
/ho-chi-minh/mr-ho-coffee-and-tea/binh-luan,Mr Hồ - Coffee And Tea,"56 Trương Phước Phan, P. Bình Trị Đông",18,131356,2,7.7,12,0,2,4,6593,2,10.771578,106.613988
/ho-chi-minh/vi-huong-mi-gia-aeon-mall-binh-tan/binh-luan,Vị Hương Mì Gia - AEON Mall Bình Tân,"Tầng 2, Aeon Mall Bình Tân, 1 Đường Số 17A, P. Bình Trị Đông",18,251814,2,7.588,58,0,17,12,6470,3,10.742589,106.611458
/ho-chi-minh/b-zan-cafe-store-nguyen-cuu-phu/binh-luan,B'ZAN - CAFE & STORE - NGUYỄN CỬU PHÚ,"Chung Cư Tecco Town Quận Bình Tân, Nguyễn Cửu Phú, P. Tân Tạo A",18,1149755,2,0.0,0,0,0,0,4,0,10.7539857,106.5840017
/ho-chi-minh/suri-tra-sua-tra-dao-duong-so-19/binh-luan,Suri - Trà Sữa & Trà Đào - Đường Số 19,"158 Đường Số 19, P. Bình Trị Đông B",18,1000057746,2,0.0,0,0,0,0,7,0,10.7535098,106.613991
/ho-chi-minh/quan-tra-sua-mr-rum-tay-lan/binh-luan,QUÁN TRÀ SỮA MR RUM - Tây Lân,"131/6/1/37/17 Tây Lân, P. Bình Trị Đông A",18,1149686,2,0.0,0,0,0,0,2,0,10.7708725,106.5824984
/ho-chi-minh/bach-hoa-nhan-ai-bia-coca-cola-kinh-duong-vuong/binh-luan,Bách Hóa Nhân Ái - Bia & Coca Cola - Kinh Dương Vương,"693 Kinh Dương Vương, P. An Lạc",18,1149653,2,0.0,0,0,0,0,2,0,10.7292595,106.6092969
/ho-chi-minh/banh-xeo-co-ba-goi-cuon-tom-thit-banh-xeo-tom-thit-mien-tay-ho-hoc-lam/binh-luan,Bánh Xèo Cô Ba - Gỏi Cuốn Tôm Thịt & Bánh Xèo Tôm Thịt Miền Tây - Hồ Học Lãm,"522 Hồ Học Lãm, P. Bình Trị Đông",18,1149507,2,0.0,0,0,0,0,2,0,10.7304869,106.606263
/ho-chi-minh/di-ut-pha-lau-bo-kho-le-van-quoi/binh-luan,Dì Út - Phá Lấu & Bò Kho - Lê Văn Quới,"325/5/1 Lê Văn Quới, P. Bình Trị Đông",18,1000057622,2,0.0,0,0,0,0,2,0,10.7758163,106.6164902
/ho-chi-minh/lo-dat-bbq-nuong-lau-tu-chon/binh-luan,Lò Đất BBQ - Nướng & Lẩu Tự Chọn,"268 Lê Văn Quới, P. Bình Hưng Hòa A",18,793151,2,6.0,3,2,2,3,646,0,10.776221,106.612688
/ho-chi-minh/tiem-tra-seven-tra-sua-tra-trai-cay-mi-tron-36-8-4-lo-te/binh-luan,"Tiệm Trà Seven - Trà Sữa, Trà Trái Cây & Mì Trộn - 36/8/4 Lộ Tẻ","Tiệm Trà Seven - Trà Sữa, Trà Trái Cây & Mì Trộn - 36/8/4 Lộ Tẻ",18,1000057595,2,0.0,0,0,0,0,1,0,10.7550514,106.5892306
/ho-chi-minh/oc-phuong-anh-ten-lua/binh-luan,ỐC PHƯƠNG ANH - TÊN LỬA,"258 Tên Lửa, P. Bình Trị Đông B",18,1149294,2,0.0,0,0,0,0,1,0,10.745757,106.612777
/ho-chi-minh/a-cuong-com-chien-ga-xoi-mo/binh-luan,A Cường - Cơm Chiên Gà Xối Mỡ,"86 Liên Khu 8-9, P. Bình Hưng Hòa A",18,1149254,2,0.0,0,0,0,0,1,0,10.7846052,106.6077194
/ho-chi-minh/guta-cafe-ben-xe-mien-tay/binh-luan,Guta Cafe - Bến Xe Miền Tây,"395 Kinh Dương Vương, P. An Lạc",18,1149251,2,0.0,0,0,0,0,4,0,10.7412258,106.6189425
/ho-chi-minh/bun-dau-mam-tom-thi-no/binh-luan,BÚN ĐẬU MẮM TÔM THỊ NỞ,"48/4/6 Đường Số 6, P. Bình Hưng Hòa",18,1076022,2,10.0,0,0,2,2,31,0,10.776426,106.618808
/ho-chi-minh/tanto-tea-tra-tra-sua/binh-luan,Tanto Tea - Trà & Trà Sữa,"276/20 Tân Hoà Đông, P. Bình Trị Đông",18,1070680,2,10.0,3,0,2,0,26,0,10.7641477,106.6210838
/ho-chi-minh/co-trang-nem-nuong-nha-trang-an-duong-vuong/binh-luan,Cô Trang - Nem Nướng Nha Trang - An Dương Vương,"669/25/1 An Dương Vương, P. Bình Trị Đông",18,1000046682,2,10.0,3,0,2,0,60,0,10.7572031,106.6246269
/ho-chi-minh/bow-tea-mieu-dinh-dong/binh-luan,Bow Tea - Miếu Đình Đông,"28/20 Miếu Đình Đông, P. Bình Hưng Hòa",18,1039988,2,10.0,2,0,2,0,54,0,10.776492,106.617754
/ho-chi-minh/minh-an-pho-bo-ga/binh-luan,Minh An - Phở Bò & Gà,453 Tân Hòa Đông,18,769346,2,10.0,2,0,1,2,161,0,10.768237,106.6148665
/ho-chi-minh/com-tam-hai-be/binh-luan,Cơm Tấm Hai Bé,"703/13 Tỉnh Lộ 10, P. Bình Trị Đông",18,636897,2,10.0,39,0,1,0,231,0,10.75793,106.611627
/ho-chi-minh/com-tam-long-xuyen-di-hai-chinh-hieu-113-21a-duong-so-14.sfjsxw/binh-luan,Cơm Tấm Long Xuyên Dì Hai Chính Hiệu - 113/21A Đường Số 14,"113/21A  Đường Số 14, P. Bình Hưng Hòa A",18,1000048237,2,10.0,19,0,1,0,25,0,10.7811637,106.6113592
/ho-chi-minh/be-suon-nuong-giay-bac-nhat-thuy-phong-116-khu-pho-5-duong-so-3.pehsbf/binh-luan,Bẹ Sườn Nướng Giấy Bạc Nhất Thủy Phong - 116 Khu Phố 5 Đường Số 3,"116 Đường Số 3, P. Bình Hưng Hòa B",18,1000052963,2,10.0,19,0,1,0,31,0,10.804452,106.5919044
/ho-chi-minh/hamburger-hotdog-16b-40-duong-16b/binh-luan,Hamburger & Hotdog 16B - 40 Đường 16B,"40 Đường 16B, P. Bình Hưng Hòa A",18,1139840,2,10.0,18,0,1,0,12,0,10.7824915,106.6014563
/ho-chi-minh/an-vat-cam-linh-banh-trang-muoi-nhuyen-com-chay-nuoc-mam-ma-lo/binh-luan,Ăn Vặt Cẩm Linh - Bánh Tráng Muối Nhuyễn & Cơm Cháy Nước Mắm - Mã Lò,"477/18 Mã Lò, P. Bình Hưng Hòa A",18,1146964,2,10.0,16,0,1,0,5,0,10.7810947,106.5984622
/ho-chi-minh/banh-trang-tron-dudu-binh-tan/binh-luan,Bánh Tráng Trộn Dudu - Bình Tân,"349 Vành Đai Trong, P. Bình Trị Đông B",18,1119883,2,9.664,0,0,40,3,105,0,10.75292,106.61507
/ho-chi-minh/banh-que-ha-lan-lien-khu-5-6/binh-luan,Bánh Quế Hà Lan - Liên Khu 5-6,"118/48/43/35 Liên Khu 5 - 6, P. Bình Hưng Hòa B",18,1062141,2,9.944,7,3,37,4,358,2,10.7920618,106.5883004
/ho-chi-minh/bao-bao-bot-chien-nui-xao/binh-luan,Bảo Bảo - Bột Chiên & Nui Xào,"71/2 Phùng Tá Chu, P. An Lạc A",18,720695,2,7.632,88,0,19,31,822,0,10.755211,106.621022
/ho-chi-minh/hu-tieu-ca-che-khiem/binh-luan,Hủ Tiếu Cá Chế Khiếm,"221 Đường Số 7, P. Bình Trị Đông B",18,204797,2,8.32,68,0,15,29,2159,3,10.7516123,106.6141056
/ho-chi-minh/quan-than-buffet-lau-145k/binh-luan,Quán Than - Buffet Lẩu 145K,"40 Đường Số 7, P. An Lạc A",18,313486,2,7.3,12,0,2,28,4131,3,10.7515755495872,106.6218021512032
/ho-chi-minh/com-ga-xoi-mo-khong-ten/binh-luan,Cơm Gà Xối Mỡ Không Tên,"Đối Diện 117/115 Hồ Văn Long Nối Dài, P. Tân Tạo",18,1071402,2,0.0,0,0,0,0,10,0,10.7638458,106.5792328
/ho-chi-minh/thuy-moc-goi-cuon-ho-van-long.sm1iyt/binh-luan,Thủy Mộc - Gỏi Cuốn - Hồ Văn Long,"117/80 Chung Cư Lê Thành Tân Tạo Hồ Văn Long, P. Tân Tạo",18,1000043797,2,0.0,0,0,0,0,26,0,10.7639815,106.5793133
/ho-chi-minh/gio-cha-xi-gon-ho-van-long/binh-luan,Giò Chả Xì Gòn - Hồ Văn Long,"Chung Cư Lê Thành, 117 Đường Hồ Văn Long, P. Tân Tạo",18,1089223,2,0.0,0,0,0,0,28,0,10.7643232345581,106.5793380737305
/ho-chi-minh/thit-bo-tuoi-cam-dieu/binh-luan,Thịt Bò Tươi - Cẫm Diệu,"Chung Cư Lê Thành, 113/89 Hồ Văn Long, P. Tân Tạo",18,1090734,2,0.0,0,0,0,0,14,0,10.7639586,106.5793183
/ho-chi-minh/nuoc-ep-dua-tuoi-linh-kute-chung-cu-le-thanh-tan-tao/binh-luan,Nước Ép & Dừa Tươi Linh Kute - Chung Cư Lê Thành Tân Tạo,"Chung Cư Lê Thành Tân Tạo, 117/80 Hồ Văn Long, P. Tân Tạo",18,1119858,2,0.0,0,0,0,0,20,0,10.7641851934692,106.5793397548151
/ho-chi-minh/xien-que-viet-sin/binh-luan,Xiên Que Việt Sin,"1645 Tỉnh Lộ 10, P. Tân Tạo A1",18,671615,2,0.0,5,0,0,0,160,0,10.7585785098549,106.5792170128479
/ho-chi-minh/quang-vinh-lau-de-lau-bo/binh-luan,Quang Vinh - Lẩu Dê & Lẩu Bò,4A Nguyễn Văn Cự,18,729238,2,0.0,7,0,0,0,110,0,10.7578286,106.5797156
/ho-chi-minh/hoa-hong-pho-bun-bo-hue/binh-luan,Hoa Hồng - Phở & Bún Bò Huế,9 Nguyễn Văn Cự,18,729236,2,9.65,16,0,4,3,286,4,10.7582585,106.5797465
/ho-chi-minh/banh-canh-ca-loc-rau-dang-dac-san-hue/binh-luan,Bánh Canh Cá Lóc Rau Đắng - Đặc Sản Huế,"16/1/8C Nguyễn Văn Cự, P. Tân Tạo A",18,1065265,2,0.0,0,0,0,0,34,0,10.7563701,106.5796487
/ho-chi-minh/tra-sua-the-1992-cafe-tea/binh-luan,Trà Sữa - The 1992 Cafe & Tea,"1640 Tỉnh Lộ 10, P. Tân Tạo",18,1000052535,2,0.0,0,1,0,0,19,0,10.7584644,106.5798945
/ho-chi-minh/com-ga-xoi-mo-thanh-pho-nguyen-van-cu.itti1d/binh-luan,Cơm Gà Xối Mỡ Thành Phố - Nguyễn Văn Cự,"27/3/6 Nguyễn Văn Cự, P. Tân Tạo A",18,1000050481,2,0.0,0,0,0,0,10,0,10.7548201,106.5797659
/ho-chi-minh/quan-chu-6-cafe-giai-khat/binh-luan,Quán Chú 6 - Cafe & Giải Khát,"1706 Tỉnh Lộ 10, P. Tân Tạo",18,759925,2,0.0,5,0,0,0,32,0,10.7585905,106.5799808
/ho-chi-minh/com-tam-phuc-loc-tho-le-van-quoi/binh-luan,Cơm Tấm Phúc Lộc Thọ  - Lê Văn Quới,"323C Lê Văn Quới, P. Bình Trị Đông",18,1145107,2,9.0,0,0,1,0,19,0,10.7759638,106.610275
/ho-chi-minh/the-pizza-company-le-van-quoi/binh-luan,The Pizza Company - Lê Văn Quới,"239 Lê Văn Quới, P. Bình Trị Đông",18,723466,2,7.332,8,0,3,9,1159,0,10.775434,106.61459
/ho-chi-minh/the-coffee-house-9-11-duong-22/binh-luan,The Coffee House - 9 - 11 Đường 22,"9 -11 Đường 22, P. Bình Trị Đông B",18,1080480,2,0.0,0,1,0,0,81,0,10.7520324,106.6128378
/ho-chi-minh/cong-rau-ma-duong-so-1/binh-luan,Cộng Rau Má - Đường Số 1,"296 Đường Số 1, P. Bình Trị Đông B",18,1023998,2,4.6,8,0,5,0,224,0,10.748148,106.612337
/ho-chi-minh/richii-com-ga-sot/binh-luan,RiChii - Cơm Gà Sốt,"14A Đường Số 6, P. An Lạc A",18,1060652,2,9.8,2,1,2,3,205,0,10.7472277,106.6185595
/ho-chi-minh/bamboo-dimsum-aeon-mall-binh-tan/binh-luan,Bamboo Dimsum - Aeon Mall Bình Tân,"Lô Sf9,Tầng 2 Aeon Mall Bình Tân, 1 Đường Số 17A, Bình Trị Đông",18,251633,2,7.48,105,0,20,22,2350,12,10.74256,106.611427
/ho-chi-minh/mi-tron-454/binh-luan,Mì Trộn Densan - 454 Tên Lửa,"454 Tên Lửa, P. Bình Trị Đông B",18,935130,2,7.0,39,1,21,24,1345,4,10.754383,106.60972
/ho-chi-minh/food-court-aeon-mall-binh-tan/binh-luan,Food Court - AEON Mall Bình Tân,"AEON Mall Bình Tân, 1 Đường số 17A, Khu Phố 11, P. Bình Trị Đông B",18,297607,2,7.514,243,0,19,3,1887,5,10.742589,106.611458
/ho-chi-minh/orchard-road-am-thuc-duong-pho-singapore-aeon-mall-binh-tan/binh-luan,Orchard Road - Ẩm Thực Đường Phố Singapore - Aeon Mall Bình Tân,"Tầng 3, Aeon Mall Bình Tân, 1 Đường Số 17A, P. Bình Trị Đông B",18,251675,2,5.39,115,0,20,9,6369,9,10.743185,106.611519
/ho-chi-minh/lau-tuoi-mk-aeon-mall-binh-tan/binh-luan,Lẩu Tươi MK - AEON Mall Bình Tân,"Tầng 3, Aeon Mall Bình Tân, 1 Đường Số 17A, P. Bình Trị Đông",18,252036,2,6.946,66,0,15,6,1631,5,10.742589,106.611458
/ho-chi-minh/zem-tra-sua-nem-nuong-nha-trang-vo-van-kiet/binh-luan,Zem - Trà Sữa & Nem Nướng Nha Trang - Võ Văn Kiệt,"77 Võ Văn Kiệt, P. An Lạc (Chung cư Akari City, Ngay Cửa Hàng Ministop)",18,1144929,2,0.0,0,0,0,0,3,0,10.7177409,106.6068722
/ho-chi-minh/mi-ga-quay-hu-tiu-mi-huong-lo-2/binh-luan,Mì Gà Quay & Hủ Tíu Mì - Hương Lộ 2,"759/48 Hương Lộ 2, P. Bình Trị Đông A",18,1144934,2,0.0,0,0,0,0,5,0,10.7674077,106.6076616
/ho-chi-minh/tra-sua-nong-100-duong-so-3/binh-luan,Trà Sữa Nọng - 100 Đường Số 3,"100 Đường Số 3, KDC Vĩnh Lộc, P. Bình Hưng Hòa B",18,1144873,2,0.0,0,0,0,0,7,0,10.8029651,106.5912991
/ho-chi-minh/mia-sugar-nuoc-uong-an-vat-duong-so-4/binh-luan,Mía Sugar - Nước Uống & Ăn Vặt - Đường Số 4,"A18 Đường Số 4 Nối Dài KDC Lê Thành (Trước Cổng Chung Cư Lê Thành Khu B, An Dương Vương), P. An Lạc",18,1143351,2,0.0,0,0,0,0,6,0,10.720945,106.616798
/ho-chi-minh/gao-gao-ca-vien-chien-an-vat-duong-so-2/binh-luan,Gạo Gạo - Cá Viên Chiên & Ăn Vặt - Đường Số 2,"3 Đường số 2, KP. 2, Cư Xá Phú Lâm C Mở Rộng, P. An Lạc A",18,1141764,2,0.0,0,0,0,0,8,0,10.743329,106.6175039
/ho-chi-minh/quan-1388-cac-loai-kho-va-vu-heo-nuong-huong-lo-2/binh-luan,Quán 1388 - Các Loại Khô Và Vú Heo Nướng - Hương Lộ 2,"650/2/1 Hương Lộ 2, Bình Trị Đông A",18,1141098,2,0.0,0,0,0,0,16,0,10.7686493,106.6089657
/ho-chi-minh/sua-chua-thach-dac-hang-nguyen-lien-khu-5-6/binh-luan,Sữa Chua Thạch Đác Hằng Nguyễn - Liên Khu 5-6,"118/49 Liên Khu 5-6, P. Bình Hưng Hòa",18,1138635,2,0.0,0,0,0,0,19,0,10.7899853,106.589489
/ho-chi-minh/quan-bun-dau-bun-cha-ha-noi-pham-dang-giang.zgxxli/binh-luan,Quán Bún Đậu & Bún Chả Hà Nội - Phạm Đăng Giảng,"25/10 Phạm Đăng Giảng, P. Bình Hưng Hòa",18,1000054207,2,0.0,0,0,0,0,8,0,10.8207817,106.6059154
/ho-chi-minh/tra-sua-an-vat-gia-han-759-5-8-huong-lo-2.wsnayt/binh-luan,Trà Sữa Ăn Vặt Gia Hân  - 759/5/8 Hương Lộ 2,"759 /5/8 Hương Lộ 2, P. Bình Trị Đông A",18,1000053560,2,0.0,0,0,0,0,3,0,10.7665948,106.6063215
/ho-chi-minh/che-huong-vi-bac-che-thap-cam-pham-dang-giang/binh-luan,Chè Hương Vị Bắc - Chè Thập Cẩm - Phạm Đăng Giảng,"25/10 Phạm Đăng Giảng, P. Bình Hưng Hòa",18,1000053177,2,0.0,0,0,0,0,8,0,10.8207817,106.6059154
/ho-chi-minh/com-chay-dieu-nhan-7-com-chay-do-chay-tran-van-giau/binh-luan,CƠM CHAY DIỆU NHÂN 7 - Cơm Chay & Đồ Chay - Trần Văn Giàu,"388 Trần Văn Giàu, P. Tân Tạo",18,1000049979,2,0.0,0,0,0,0,12,0,10.7516867,106.6021258
/ho-chi-minh/quan-huu-khanh-com-ga-nui-xao-bo/binh-luan,Quán Hữu Khánh - Cơm Gà & Nui Xào Bò,"26C Bia Truyền Thống, P. Tân Tạo",18,1127857,2,0.0,0,0,0,0,27,0,10.758234,106.596964
/ho-chi-minh/quan-com-ga-xoi-mo-96-ga-xoi-mo-ga-mam-toi-ma-lo/binh-luan,Quán Cơm Gà Xối Mỡ 96 - Gà Xối Mỡ & Gà Mắm Tỏi - Mã Lò,"355/9/1 Mã Lò, P. Bình Trị Đông A",18,1133904,2,0.0,0,0,0,0,9,0,10.775938,106.600456
/ho-chi-minh/pho-gia-truyen-bac-binh-nam-dinh-pho-bun-tinh-lo-10/binh-luan,Phở Gia Truyền Bắc Bình Nam Định - Phở & Bún - Tỉnh Lộ 10,"1157 Tỉnh Lộ 10, P. Tân Tạo",18,1000034720,2,0.0,0,0,0,0,35,0,10.7550839,106.5972771
/ho-chi-minh/chao-ech-singapore-mr-bonl-chao-ech-singapore-sinco.k8uz18/binh-luan,Cháo Ếch Singapore Mr Bonl - Cháo Ếch Singapore - Sinco,"280 Tên Lửa, P. Bình Trị Đông B",18,1000033912,2,0.0,0,0,0,0,4,0,10.746282,106.612791
/ho-chi-minh/3-rau-ga-ran-pizza-tra-sua-tinh-lo-10/binh-luan,"3 Râu - Gà Rán, Pizza & Trà Sữa - Tỉnh Lộ 10","562 Tỉnh Lộ 10, P. Bình Trị Đông",18,981067,2,7.6,3,3,1,3,98,0,10.757716,106.616227
/ho-chi-minh/quan-nha-lam-an-vat-ho-van-long/binh-luan,Quán NHÀ LÀM - Ăn Vặt - Hồ Văn Long,"Hẻm 85/27 Hồ Văn Long, P. Tân Tạo",18,1000036249,2,0.0,0,0,0,0,24,0,10.760758,106.587926
/ho-chi-minh/nha-bon-lau-xien-que-mieu-go-xoai/binh-luan,Nhà Bon - Lẩu & Xiên Que - Miếu Gò Xoài,"22 Hẻm 122 Miếu Gò Xoài, P. Bình Hưng Hòa A",18,1145993,2,0.0,0,0,0,0,1,0,10.7807912,106.6046888
/ho-chi-minh/sinh-to-co-nga-nuoc-ep-tra-sua/binh-luan,Sinh Tố Cô Nga - Nước Ép & Trà Sữa,"2/16 Đường Số 8, P. Bình Hưng Hòa",18,1146031,2,0.0,0,0,0,0,4,0,10.8001782,106.6109721
/ho-chi-minh/bo-bia-gia-truyen/binh-luan,Bò Bía Gia Truyền,"21/44/14 Chiến Lược, P. Bình Trị Đông",18,1050478,2,0.0,0,3,0,0,107,0,10.75873,106.620769
/ho-chi-minh/hasagi-milk-tea-ma-lo/binh-luan,Hasagi Milk Tea - Mã Lò,"142 Mã Lò, P. Bình Trị Đông A",18,748556,2,7.266,73,0,9,10,1138,3,10.762904,106.604621
/ho-chi-minh/yau-chan-mi-vit-tiem-duong-so-1a/binh-luan,Yau Chan - Mì Vịt Tiềm - Đường Số 1A,"58 Đường Số 1A, P. Bình Trị Đông B",18,762135,2,6.0,9,0,5,8,1107,1,10.7480009,106.6185826
/ho-chi-minh/omg-ga-chien-gion-dai-loan/binh-luan,OMG - Gà Chiên Giòn Đài Loan,"326 Tên Lửa, P. Bình Trị Đông B",18,1047939,2,0.0,0,6,0,1,117,0,10.747019,106.612326
/ho-chi-minh/bun-dau-3-chi-em-le-van-quoi/binh-luan,Bún Đậu 3 Chị Em - Lê Văn Quới,"291 Lê Văn Quới, P. Bình Trị Đông",18,919666,2,5.942,45,1,7,2,343,3,10.776074,106.612371
/ho-chi-minh/bun-bap-bo-duong-so-7/binh-luan,Bún Bắp Bò - Đường Số 7,"96 Đường Số 7, P. Bình Trị Đông B",18,722500,2,4.2,14,0,5,3,338,2,10.7522638446818,106.6137184681536
/ho-chi-minh/banh-canh-vit-cai-lay-vanh-dai-trong/binh-luan,Bánh Canh Vịt Cai Lậy - Vành Đai Trong,"206 - 208 Vành Đai Trong, P. Bình Trị Đông B",18,767759,2,4.35,3,0,4,2,377,0,10.749391,106.615307
/ho-chi-minh/tiger-sugar-duong-nau-sua-nguyen-thi-tu/binh-luan,Tiger Sugar - Đường Nâu Sữa - Nguyễn Thị Tú,"315 Nguyễn Thị Tú, P. Bình Hưng Hòa B",18,1002851,2,4.2,1,0,1,0,159,0,10.8151124,106.5903624
/ho-chi-minh/yellow-tea-tra-sua-nha-lam/binh-luan,Yellow Tea - Trà Sữa Nhà Làm,"486A Hồ Học Lãm, P. An Lạc",18,765682,2,7.966,131,0,17,6,1029,3,10.729122,106.606754
/ho-chi-minh/2-con-cua-bun-cha-ha-noi-bun-dau-mam-tom/binh-luan,2 Con Cua - Bún Chả Hà Nội & Bún Đậu Mắm Tôm,"235 Đường Số 7, P. Bình Trị Đông B",18,751000,2,6.268,55,0,12,13,3082,3,10.751647,106.61371
/ho-chi-minh/ha-da-coffee-ca-phe-sua-tuoi-suong-sao-tra-sua/binh-luan,HA.DA Coffee - Cà Phê Sữa Tươi Sương Sáo & Trà Sữa,"17 Đường Số 2 Khu Dân Cư Hương Lộ 5, P. An Lạc",18,1147738,2,9.8,7,0,7,0,16,0,10.717923,106.611953
/ho-chi-minh/hong-loan-mi-xao-bo-duong-so-24/binh-luan,HỒNG LOAN - MÌ XÀO BÒ - ĐƯỜNG SỐ 24,"116 Đường Số 24, P. Bình Hưng Hòa A",18,1076124,2,10.0,0,0,1,0,47,0,10.7799144,106.6043681
/ho-chi-minh/bac-2-voi-ga-u-muoi-duong-so-1/binh-luan,Bác 2 Voi - Gà Ủ Muối - Đường Số 1,"209 Đường Số 1, P. Bình Trị Đông B",18,1139471,2,10.0,0,0,1,0,12,0,10.7485789,106.6159057
/ho-chi-minh/bun-thai-hongkong-co-ut-duong-32.tmt0kv/binh-luan,Bún Thái HongKong - Cô Út - Đường 32,"94 Đường 32, P. Bình Trị Đông",18,1000055355,2,10.0,0,0,1,0,15,0,10.7540419,106.6092046
/ho-chi-minh/chao-dinh-duong-wow-duong-so-19/binh-luan,Cháo Dinh Dưỡng Wow - Đường Số 19,"158 Đường Số 19, P. Bình Trị Đông",18,778290,2,9.8,13,0,3,2,242,2,10.7532595,106.6142621
/ho-chi-minh/cafe-iyo-ca-phe-kem-muoi-duong-so-7/binh-luan,Cafe IYO - Cà Phê Kem Muối - Đường Số 7,"157 Đường Số 7, P. Bình Trị Đông B",18,1013904,2,7.864,3,0,3,2,141,0,10.7515937,106.6166432
/ho-chi-minh/pho-25-duong-so-4/binh-luan,Phở 25 - Chi Nhánh Bình Tân,"40 - 41A Đường Số 4, P. Bình Trị Đông B",18,774436,2,7.28,42,0,23,8,852,39,10.75022,106.6206136
/ho-chi-minh/nha-hang-quynh-anh/binh-luan,Nhà Hàng Quỳnh Anh,"56 - 58 - 60 Vành Đai Trong, P. An Lạc A",18,8149,2,7.4,30,0,2,3,6389,3,10.742937,106.615326
/ho-chi-minh/oc-tu-hang-duong-so-19/binh-luan,Ốc Tư Hằng - Đường Số 19,118 Đường Số 19,18,131877,2,6.06,99,0,10,14,6387,5,10.7532047,106.616199
/ho-chi-minh/lagi-quan-hai-san-tuoi-song-truong-phuoc-phan/binh-luan,Lagi Quán - Hải Sản Tươi Sống - Trương Phước Phan,20 Trương Phước Phan ,18,97600,2,7.8,46,0,1,2,6325,0,10.774336,106.614248
/ho-chi-minh/diem-hen-sai-gon-cafe-vanh-dai-trong/binh-luan,Điểm Hẹn Sài Gòn Cafe - Vành Đai Trong,303 - 305 Vành Đai Trong,18,8450,2,7.7,20,0,4,5,6259,6,10.744083,106.614981
/ho-chi-minh/tiem-banh-kem-thi-thi-tinh-lo-10/binh-luan,Tiệm Bánh Kem Thi Thi,"1243 Tỉnh Lộ 10, P. Tân Tạo",18,39642,2,6.572,18,0,7,6,6019,7,10.756061,106.593352
/ho-chi-minh/banh-macaron-kinh-duong-vuong/binh-luan,Bánh Macaron - Kinh Dương Vương,"574/8/6A Kinh Dương Vương, P. An Lạc",18,183055,2,0.0,25,11,0,5,5588,0,10.732537,106.610052
/ho-chi-minh/tra-sua-nha-lam-bi-tea-ho-hoc-lam/binh-luan,Trà Sữa Nhà Làm Bi Tea - Hồ Học Lãm,"542/14 Hồ Học Lãm, P. Bình Trị Đông B",18,1148777,2,0.0,0,0,0,0,2,0,10.7309205,106.6063556
/ho-chi-minh/ut-kim-canh-bun-bun-rieu-hu-tieu-mi/binh-luan,"Út Kim - Canh Bún, Bún Riêu & Hủ Tiếu Mì","433/1 Bình Thành, P. Bình Hưng Hòa B",18,1148750,2,0.0,0,0,0,0,1,0,10.814681,106.5889119
/ho-chi-minh/tra-sua-te-amo-23-tay-lan/binh-luan,Trà Sữa Te Amo - 23 Tây Lân,"23 Tây Lân, P. Bình Trị Đông A",18,1148663,2,0.0,0,0,0,0,3,0,10.7712492,106.5890809
/ho-chi-minh/che-nhu-binh-3-ten-lua/binh-luan,Chè Như Bình 3 - Tên Lửa,"450 Tên Lửa, P. Bình Trị Đông B",18,1148640,2,0.0,0,0,0,0,2,0,10.7546492,106.6097386
/ho-chi-minh/bun-bo-hue-578-ho-hoc-lam/binh-luan,Bún Bò Huế 578 - Hồ Học Lãm,"578 Hồ Học Lãm, P. Bình Trị Đông B",18,1148619,2,0.0,0,0,0,0,1,0,10.7317478,106.605218
/ho-chi-minh/tiem-mi-1989-mi-sui-cao/binh-luan,Tiệm Mì 1989 - Mì Sủi Cảo,"366/24 Lê Văn Quới, P. Bình Hưng Hòa A",18,1148566,2,0.0,0,0,0,0,2,0,10.778546,106.605692
/ho-chi-minh/ca-vien-chien-xi-gon-ma-lo/binh-luan,Cá Viên Chiên Xì Gòn - Mã Lò,"39B Mã Lò, P. Bình Trị Đông A",18,1148528,2,0.0,0,0,0,0,2,0,10.7591951,106.6058922
/ho-chi-minh/chu-choa-beer-garden-le-van-quoi/binh-luan,Chu Choa Beer Garden - Lê Văn Quới,"359 Lê Văn Quới, P. Bình Trị Đông A",18,1148473,2,0.0,0,0,0,0,2,0,10.7761511,106.6078498
/ho-chi-minh/thien-binh-viet-food-online-do-an-thuc-uong-ho-van-long/binh-luan,Thiên Bình Việt Food Online - Đồ Ăn & Thức Uống - Hồ Văn Long,"25/54B Hồ Văn Long, P. Tân Tạo",18,1000057291,2,0.0,0,0,0,0,0,0,10.7591248,106.5853515
/ho-chi-minh/cafe-phuong-trinh-duong-13/binh-luan,Cafe Phương Trinh - Đường 13,"5M Đường Số 13, P. Bình Hưng Hòa A",18,1148082,2,0.0,0,0,0,0,1,0,10.791166,106.610408
/ho-chi-minh/gain-more-coffee-restaurant/binh-luan,Gain More - Coffee & Restaurant,"206-208-210-212 Trần Văn Giàu, P. Bình Trị Đông",18,1029919,2,10.0,15,0,1,0,188,0,10.752166,106.60845
/ho-chi-minh/chill-coffee-tra-sua-matcha-pudding-duong-so-1/binh-luan,CHILL COFFEE - Trà Sữa Matcha Pudding - Đường Số 1,"238 Đường Số 1, P. Bình Trị Đông B",18,1146968,2,10.0,13,0,1,0,9,0,10.7485354,106.6133835
/ho-chi-minh/an-vat-na-na/binh-luan,Ăn Vặt Na Na,"156/99 Chiến Lược, P. Bình Trị Đông",18,947701,2,10.0,12,0,1,0,230,0,10.764621,106.615732
/ho-chi-minh/kebab-gia-thanh-banh-cuon-hamburger-duong-so-1/binh-luan,Kebab Gia Thành - Bánh Cuộn & Hamburger - Đường Số 1,"238 Đường Số 1, P. Bình Trị Đông B",18,1146971,2,10.0,11,0,1,0,6,0,10.7486671,106.6133971
/ho-chi-minh/sup-cua-a-duya-vi-hong-kong-58a-lien-khu-1-6/binh-luan,Súp Cua A Duỳa - Vị Hong Kong - 58A Liên Khu 1-6,"58A Liên Khu 1 - 6, P. Bình Trị Đông",18,1136323,2,10.0,2,0,1,1,25,0,10.770501,106.611101
/ho-chi-minh/ga-ran-kfc-tan-ky-tan-quy/binh-luan,Gà Rán KFC - Tân Kỳ Tân Quý,"756 Tân Kỳ Tân Quý, P. Bình Hưng Hòa",18,981999,2,10.0,0,0,1,0,193,1,10.790473,106.603202
/ho-chi-minh/com-tam-ben-tre-duong-so-1/binh-luan,Cơm Tấm Bến Tre - Đường Số 1,"295 Đường Số 1, P. Bình Trị Động B",18,1066382,2,10.0,0,1,1,0,83,1,10.7482254,106.6128084
/ho-chi-minh/chan-ga-an-la-ghien-chan-ga-sa-tac-chan-ga-sot-thai/binh-luan,Chân Gà! Ăn Là Ghiền! - Chân Gà Sả Tắc & Chân Gà Sốt Thái,"89/15 Đường 14, P. Bình Hưng Hòa A",18,1141167,2,10.0,9,0,1,0,9,0,10.780069,106.611499
/ho-chi-minh/mi-tron-bep-cua-vo-phan-anh/binh-luan,Mì Trộn Bếp Của Vợ - Phan Anh,"137/107/8 Phan Anh, P. Bình Trị Đông",18,1144923,2,10.0,7,0,1,0,17,0,10.765165,106.620208
/ho-chi-minh/patek-milktea-kinh-duong-vuong/binh-luan,Patek Milktea - Kinh Dương Vương,"510 Kinh Dương Vương, P. An Lạc A",18,1136821,2,10.0,7,0,1,0,29,0,10.7376891,106.6135195
/ho-chi-minh/tra-sua-khong-lo-tra-sua-le-van-quoi/binh-luan,TRÀ SỮA KHỔNG LỒ - TRÀ SỮA - Lê Văn Quới,"264/19 Lê Văn Quới , P. Bình Hưng Hòa A",18,733597,2,10.0,6,0,1,0,144,0,10.7774963245658,106.6093113939261
/ho-chi-minh/cafe-nguyen-chat-huong-lo-2/binh-luan,Cafe Nguyên Chất - Hương Lộ 2,1009 Hương Lộ 2,18,761151,2,10.0,6,0,1,0,62,0,10.7694721,106.5929392
/ho-chi-minh/ga-nuong-muoi-ot-tinh-lo-10/binh-luan,Gà Nướng Muối Ớt - Tỉnh Lộ 10,"998A Tỉnh Lộ 10, P. Tân Tạo",18,787256,2,8.43,5,0,7,22,1794,2,10.75473,106.603526
/ho-chi-minh/hai-quang-ii-ga-ac-tiem-thuoc-bac/binh-luan,Hải Quang II - Gà Ác Tiềm Thuốc Bắc,"233 Vành Đai Trong, P. Bình Trị Đông B",18,38664,2,7.358,14,0,9,21,4307,6,10.749045,106.615009
/ho-chi-minh/banh-sau-rieng-shop-online/binh-luan,Bánh Sầu Riêng - Shop Online,"1028/54 Tân Kỳ Tân Quý, P. Bình Hưng Hòa",18,266796,2,7.16,33,0,5,21,2661,6,10.7916495671438,106.5968561777405
/ho-chi-minh/ga-song-phung-ga-khong-loi-thoat-ga-bo-xoi/binh-luan,Gà Song Phụng - Gà Không Lối Thoát & Gà Bó Xôi,"46 Đường Số 20, P. Bình Hưng Hòa",18,916538,2,8.078,7,0,8,21,1696,5,10.820316,106.608677
/ho-chi-minh/tokbokki-an-vat-han-quoc/binh-luan,Tokbokki & Ăn Vặt Hàn Quốc,"27/3/9 Nguyễn Văn Cự, P. Tân Tạo A",18,1054662,2,6.3,0,0,2,0,163,0,10.754981,106.579907
/ho-chi-minh/sushioki-sushi-huong-lo-80.rpovj5/binh-luan,Sushioki - Sushi - Hương Lộ 80,"252/51/6 Hương Lộ 80, P. Bình Hưng Hòa B",18,1000048682,2,0.0,0,0,0,0,24,0,10.8166952,106.5834177
/ho-chi-minh/quan-khoi-hu-tieu-bo-kho-banh-canh/binh-luan,"Quán Khôi - Hủ Tiếu, Bò Kho & Bánh Canh",1547 Tỉnh Lộ 10,18,729239,2,0.0,5,1,0,0,59,0,10.7583454,106.5801256
/ho-chi-minh/com-tam-ty-lun/binh-luan,Cơm Tấm Tý Lùn,"264 Hương Lộ 80, P. Bình Hưng Hòa",18,766860,2,0.0,4,0,0,0,48,0,10.817046,106.583603
/ho-chi-minh/tra-sua-an-vat-tinh-lo-10/binh-luan,Trà Sữa & Ăn Vặt - Tỉnh Lộ 10,1536 Tỉnh Lộ 10,18,729245,2,0.0,4,1,0,0,163,0,10.7585342,106.5803171
/ho-chi-minh/bao-bao-banh-trang-tron-nguyen-thi-tu/binh-luan,Bảo Bảo - Bánh Tráng Trộn - Nguyễn Thị Tú,"78/4/14 Nguyễn Thị Tú, P. Bình Hưng Hòa B",18,1144959,2,0.0,0,0,0,0,1,0,10.814608,106.5835384
/ho-chi-minh/bo-ne-ba-ngon-bo-bittet-mi-ga-gion-mat-ong-nguyen-thi-tu/binh-luan,Bò Né Ba Ngon - Bò Bittet & Mì Gà Giòn Mật Ong - Nguyễn Thị Tú,"380 Nguyễn Thị Tú, P. Bình Hưng Hòa B",18,1118044,2,0.0,0,0,0,0,22,0,10.814945,106.5836586
/ho-chi-minh/nam-phat-lau-de-de-nuong/binh-luan,Năm Phát - Lẩu Dê & Dê Nướng,1503 Tỉnh Lộ 10,18,729244,2,5.0,11,0,1,0,565,3,10.7584795,106.5804817
/ho-chi-minh/3t-fast-food-nguyen-thi-tu-binh-tan/binh-luan,3T Fast Food - Nguyễn Thị Tú,"380 Nguyễn Thị Tú, P. Bình Hưng Hoà B",18,952525,2,0.0,0,0,0,0,33,0,10.8147420452043,106.5836997420196
/ho-chi-minh/gota-coffee-huong-lo-80/binh-luan,Gota Coffee - Hương Lộ 80,"330 Hương Lộ 80, P. Bình Hưng Hoà B",18,1109525,2,0.0,0,0,0,0,1,0,10.8174731020569,106.5838609249881
/ho-chi-minh/teng-teng-taiwan-tea-nguyen-thi-tu/binh-luan,Teng Teng - Taiwan Tea - Nguyễn Thị Tú,"507 Nguyễn Thị Tú, P. Bình Hưng Hòa B",18,888399,2,0.0,0,1,0,0,87,0,10.814613,106.583751
/ho-chi-minh/co-hai-hamburger-ho-van-long.vshua3/binh-luan,Cô Hai - Hamburger - Hồ Văn Long,"117 Hồ Văn Long, P. Tân Tạo",18,1000027197,2,0.0,0,0,0,0,6,0,10.7640734,106.5810215
/ho-chi-minh/starbucks-coffee-aeon-mall-binh-tan/binh-luan,Starbucks Coffee - Aeon Mall Bình Tân,"G9B Tầng Trệt, TTTM Aeonmall Bình Tân, 1 Đường Số 17A, P. Bình Trị Đông B",18,1120035,2,0.0,0,2,0,1,190,0,10.7427882,106.6118212
/ho-chi-minh/tra-dau-ba-che-kinh-duong-vuong/binh-luan,Trà Dâu Bà Chế - Kinh Dương Vương,"439 Kinh Dương Vương, P. An Lạc",18,1070732,2,0.0,0,2,0,0,107,0,10.7388609,106.6158109
/ho-chi-minh/3-rau-ga-ran-pizza-tra-sua-rau-ma-mix-ma-lo/binh-luan,"3 Râu - Gà Rán, Pizza & Trà Sữa - Mã Lò","404A Mã Lò, P. Bình Hưng Hòa A",18,1027630,2,7.3,4,0,2,1,104,0,10.778989,106.600228
/ho-chi-minh/com-nieu-loi-xua/binh-luan,Cơm Niêu Lối Xưa,"79/15 Phan Anh, P. Bình Trị Đông",18,1026193,2,8.4,2,1,1,4,177,0,10.762301,106.62328
/ho-chi-minh/sui-cao-mi-vit-tiem-tinh-lo-10/binh-luan,Sủi Cảo & Mì Vịt Tiềm - Tỉnh Lộ 10,502 Tỉnh Lộ 10,18,727671,2,6.232,15,0,6,12,644,0,10.7574979,106.6191327
/ho-chi-minh/mi-cay-lutupu-nguyen-thi-tu/binh-luan,Mì Cay Lutupu - Nguyễn Thị Tú,"293 Nguyễn Thị Tú, P. Bình Hưng Hòa B",18,898685,2,7.1,89,2,4,1,462,0,10.815332,106.591196
/ho-chi-minh/kim-ngoc-banh-trang-mo-hanh-tra-tac-shop-online/binh-luan,Kim Ngọc - Bánh Tráng Mỡ Hành & Trà Tắc - Shop Online,"161/15 Bình Trị Đông, P. Bình Trị Đông A",18,1000288,2,8.2,1,3,2,5,158,0,10.764325,106.608789
/ho-chi-minh/ba-thanh-com-chien-mi-xao/binh-luan,Cơm Chiên Ba Thành - Cơm Chiên & Mì Xào - 399/65/23 Đường Số 1,"390/65/23 Đường Số 1, P. Bình Hưng Hòa B",18,780613,2,2.6,1,0,1,0,112,1,10.8050012,106.5940326
/ho-chi-minh/bun-rieu-banh-canh-cua-go-xoai-bun-rieu-cua-banh-canh-cua-40-go-xoai.tg2rok/binh-luan,Bún Riêu Bánh Canh Cua Gò Xoài - Bún Riêu Cua & Bánh Canh Cua - 40 Gò Xoài,"40 Gò Xoài, P. Bình Hưng Hòa A",18,1000036364,2,0.0,0,0,0,0,26,0,10.7779679,106.602923
/ho-chi-minh/rau-ma-mix-duong-so-1/binh-luan,RAU MÁ MIX - ĐƯỜNG SỐ 1,"169 Đường Số 1, P. Bình Trị Đông B",18,1077777,2,0.0,1,0,0,0,76,1,10.7486063,106.6169261
/ho-chi-minh/the-coffee-x/binh-luan,The Coffee X,"183 Vành Đai Trong, P. Bình Trị Đông B",18,705899,2,7.836,159,0,18,9,2380,8,10.748754,106.6152601
/ho-chi-minh/lotteria-vanh-dai-trong/binh-luan,Lotteria - Vành Đai Trong,"309 - 311 Vành Đai Trong, P. Bình Trị Đông",18,35800,2,5.728,144,0,19,6,3842,6,10.751899,106.614944
/ho-chi-minh/tuong-phat-hu-tiu-nam-vang/binh-luan,Tường Phát - Hủ Tiếu Nam Vang - Đường Số 7,"31 Đường Số 7, P. An Lạc",18,69559,2,7.57,37,0,13,17,3279,4,10.722994,106.609295
/ho-chi-minh/dookki-viet-nam-lau-buffet-tokpokki-aeon-mall-binh-tan/binh-luan,Dookki Việt Nam - Lẩu & Buffet Tokpokki - Aeon Mall Bình Tân,"Tầng 3, Aeon Mall Bình Tân, 1 Đường Số 17A, P. Bình Trị Đông B",18,995694,2,5.264,190,0,19,9,3307,4,10.743088,106.611686
/ho-chi-minh/napoli-s-pizza-cafe-aeonmall-binh-tan/binh-luan,Napoli's Pizza & Cafe - Aeonmall Bình Tân,"Aeon Mall Bình Tân, Đường Số 17A",18,253415,2,7.348,107,0,12,6,624,5,10.7440600836372,106.6130071878433
/ho-chi-minh/chiaki-hiro-food-drink-do-nang-te/binh-luan,Chiaki Hiro - Food & Drink - Đỗ Năng Tế,"11 Đỗ Năng Tế (Đối Diện Bến Xe Miền Tây), P. An Lạc",18,947839,2,8.02,55,0,10,6,458,7,10.7412534,106.6180003
/ho-chi-minh/lo-banh-mi-du-muc/binh-luan,Lò Bánh Mì Du Mục,"110 Đường Số 1, P. Bình Trị Đông B",18,37642,2,7.084,25,0,12,5,2912,12,10.7486758,106.617769
/ho-chi-minh/chan-ga-sa-tac-phu-qui-do-an-vat-14-ho-van-long-shop-online.gzba3k/binh-luan,Chân Gà Sả Tắc Phú Quí - Đồ Ăn Vặt - 14 Hồ Văn Long - Shop Online,"14/1 Hồ Văn Long, P. Tân Tạo",18,1000047944,2,0.0,0,0,0,0,0,0,10.7578499,106.588632
/ho-chi-minh/bun-thit-nuong-cha-gio-nha-lam-uc-thao-duong-so-1/binh-luan,Bún Thịt Nướng Chả Giò Nhà Làm Úc Thảo - Đường Số 1,"127A Đường Số 1, P. Bình Hưng Hòa A",18,1125643,2,0.0,0,0,0,0,26,0,10.78026,106.615682
/ho-chi-minh/hai-san-nguyen-chau-hai-san-tuoi-song/binh-luan,Hải Sản Nguyễn Châu - Hải Sản Tươi Sống,"574/77 Sinco, P. Bình Trị Đông B",18,1091022,2,0.0,0,0,0,0,5,0,10.7349024,106.6076231
/ho-chi-minh/a-cot-hu-tieu-mi-go-xoai.vakf2g/binh-luan,A Cọt - Hủ Tiếu Mì - Gò Xoài,"7/2 Gò Xoài, P. Bình Hưng Hòa",18,1000026567,2,0.0,0,1,0,0,60,0,10.7775799,106.6024474
/ho-chi-minh/gau-panda-com-tam-bun-nem-nuong/binh-luan,Gấu Panda - Cơm Tấm & Bún Nem Nướng,"71 Đường Số 55, P. Tân Tạo",18,1015658,2,0.0,0,0,0,0,45,0,10.75235,106.596982
/ho-chi-minh/pho-mai-phuong/binh-luan,Phở Mai Phương,403 - 405 Hương Lộ 3,18,754074,2,0.0,8,0,0,0,59,0,10.8014434,106.6109261
/ho-chi-minh/pho-yen-nhi/binh-luan,Phở Yến Nhi,"132 Đường Số 8, P. Bình Hưng Hòa A",18,801918,2,0.0,1,0,0,0,29,0,10.780865,106.615873
/ho-chi-minh/five-star-vietnam-binh-long/binh-luan,Five Star Vietnam - Bình Long,"382 Bình Long, P. Bình Hưng Hòa A",18,969961,2,7.4,1,0,1,0,59,0,10.787881,106.617566
/ho-chi-minh/che-thai-lan-che-sinh-to-580-tinh-lo-10.7ghjc9/binh-luan,Chè Thái Lan - Chè & Sinh Tố - 580 Tỉnh Lộ 10,"580 Tỉnh Lộ 10, P. Bình Trị Đông B",18,1000036835,2,0.0,0,0,0,0,28,0,10.7577219,106.6159679
/ho-chi-minh/com-tuyet-minh-tinh-lo-10/binh-luan,Cơm Tuyết Minh - Tỉnh Lộ 10,"665 Tỉnh Lộ 10, P. Bình Trị Đông B",18,1123373,2,0.0,0,0,0,0,27,0,10.7582035,106.6131029
/ho-chi-minh/ca-vien-chien-sime-lien-khu-5-6/binh-luan,Cá Viên Chiên Sime - Liên Khu 5-6,"2 Liên Khu 5-6, P. Bình Hưng Hòa B",18,1111230,2,0.0,0,0,0,0,26,0,10.7892053,106.5947036
/ho-chi-minh/ha-cao-tra-sua-nha-lam-284-vanh-dai-trong/binh-luan,Há Cảo & Trà Sữa Nhà Làm 284 - Vành Đai Trong,"284 Vành Đai Trong, P. Bình Trị Đông B",18,1128213,2,0.0,0,1,0,0,21,0,10.75335,106.615577
/ho-chi-minh/sup-cua-nha-lam-sup-cua-huong-lo-2.ghsatd/binh-luan,Súp Cua Nhà làm - Súp Cua - Hương Lộ 2,"689/1 Hương Lộ 2, P. Bình Trị Đông A ",18,1000044889,2,0.0,0,0,0,0,24,0,10.7674474,106.6086436
/ho-chi-minh/ca-vien-chien-chi-diem-ly-thuong-kiet-82-14-le-van-quoi/binh-luan,Cá Viên Chiên Chị Diễm Lý Thường Kiệt - 82/14 Lê Văn Quới,"82/14 Lê Văn Quới, P. Bình Hưng Hòa A",18,1000032676,2,0.0,0,0,0,0,3,0,10.7757333,106.6178432
/ho-chi-minh/mai-ghe-ha-nhau-binh-dan/binh-luan,Mai Ghé Hả - Nhậu Bình Dân,"439 Tên Lửa, P. Bình Trị Đông B",18,947354,2,8.7,36,0,4,3,209,0,10.753602,106.60967
/ho-chi-minh/phu-ky-com-ga-ten-lua/binh-luan,Phú Ký - Cơm Gà - Tên Lửa,"666 Tên Lửa, P. Bình Trị Đông B",18,1105558,2,0.0,0,1,0,1,21,0,10.7550835,106.6077081
/ho-chi-minh/bom-pastry-banh-man-banh-ngot-hamburger/binh-luan,"Bom Pastry - Bánh Mặn, Bánh Ngọt & Hamburger","121 Liên Khu 4 - 5, P. Bình Hưng Hòa B",18,1050971,2,2.2,0,1,2,0,54,0,10.799091,106.5885802
/ho-chi-minh/goi-cuon-bo-bia-bun-thit-xao-duong-so-8/binh-luan,"Gỏi Cuốn, Bò Bía & Bún Thịt Xào - Đường Số 8","304/12 Đường Số 8, P. Bình Hưng Hòa A",18,1003629,2,1.0,0,1,1,0,104,0,10.786837,106.616675
/ho-chi-minh/quan-bo-la-lot-174-duong-so-8/binh-luan,Quán Bò Lá Lốt 174 - Đường Số 8,"174 Đường Số 8, P. Bình Hưng Hòa",18,1108329,2,0.0,0,0,0,0,10,0,10.7957128,106.6080248
/ho-chi-minh/bo-ne-3-ngon-673-le-trong-tan/binh-luan,Bò Né 3 Ngon - 673 Lê Trọng Tấn,"673 Lê Trọng Tấn, P. Bình Hưng Hòa",18,1112431,2,0.0,2,1,0,0,45,1,10.8148641,106.6047971
/ho-chi-minh/bep-nha-huyen-an-vat-online/binh-luan,Bếp Nhà Huyên - Ăn Vặt Online,"423/2 Nguyễn Thị Tú, P. Bình Hưng Hòa B",18,989670,2,0.0,0,2,0,0,66,1,10.8151193,106.5867878
/ho-chi-minh/tra-sua-dhi-tan-ky-tan-quy/binh-luan,Trà Sữa Dhi - Tân Kỳ Tân Quý,"985 Tân Kỳ Tân Quý, P. Bình Hưng Hòa A",18,1132419,2,0.0,0,0,0,0,37,0,10.7883323,106.5994002
/ho-chi-minh/bj-tokbokki-aeon-mall-binh-tan/binh-luan,BJ Tokbokki - Aeon Mall Bình Tân,"Tầng 2 Aeon Mall Bình Tân, 1 Đường Số 17A, P. Bình Trị Đông B",18,995488,2,8.218,19,0,12,7,582,3,10.743208,106.612144
/ho-chi-minh/fan-tra-sua/binh-luan,Fan Trà Sữa,"84 Nguyễn Thị Tú, P. Bình Hưng Hòa B",18,973555,2,9.85,10,0,4,2,165,6,10.815961,106.597851
/ho-chi-minh/rau-ma-tuoi/binh-luan,Rau Má Tươi - Tên Lửa,"132 Tên Lửa, P. Bình Trị Đông B",18,916272,2,5.034,20,0,6,3,413,1,10.745993,106.612724
/ho-chi-minh/tra-sua-nuoc-sam-kimtan/binh-luan,Trà Sữa - Nước Sâm KimTan,"78 Đường Số 1, P. Bình Trị Đông B",18,676116,2,5.598,47,0,3,2,820,3,10.748563,106.61737
/ho-chi-minh/bi-coffee-vanh-dai-trong/binh-luan,Bi Coffee - Vành Đai Trong,206 - 208 Vành Đai Trong,18,751436,2,8.966,79,0,6,0,206,0,10.749375,106.615438
/ho-chi-minh/yolo-tea/binh-luan,Yolo Tea,"246 Lê Cơ, P. An Lạc",18,907534,2,9.1,9,0,2,1,183,1,10.725594,106.613447
/ho-chi-minh/kang-tea-coffee/binh-luan,Kang Tea & Coffee,"74 Đường Số 4, KP. 3, P. Bình Hưng Hòa A",18,859712,2,8.6,75,0,1,0,226,1,10.786009,106.607052
/ho-chi-minh/golden-tea-nguyen-thuc-duong/binh-luan,Golden Tea - Đường Số 2,"39 Đường Số 2, P. An Lạc A",18,773419,2,9.4,94,0,2,0,270,0,10.743851,106.617339
/ho-chi-minh/star-coffee-tea-duong-so-6/binh-luan,Star Coffee & Tea - Đường Số 6,"151 Đường Số 6, P. Bình Trị Đông B",18,911427,2,2.8,38,1,1,0,88,0,10.7531894778424,106.6188518983781
/ho-chi-minh/tra-sua-bep-cao/binh-luan,Trà Sữa Bếp Cáo ,"Lô A8.007 Chung Cư Ehome 3, 103 Hồ Học Lãm, P. An Lạc",18,8568,2,0.0,39,4,0,0,889,1,10.714365,106.614849
/ho-chi-minh/hagan-banh-mi-xoi-man-tran-van-giau/binh-luan,Hagan - Bánh Mì & Xôi Mặn - Trần Văn Giàu,"360 Trần Văn Giàu, P. Tân Tạo",18,902054,2,0.0,13,2,0,1,64,0,10.751798,106.602838
/ho-chi-minh/ruby-yaourt-sua-tuoi-kho-ga-la-chanh-shop-online/binh-luan,Ruby - Yaourt Sữa Tươi & Khô Gà Lá Chanh - Shop Online - Đường Số 5B,"81D Đường Số 5B, P. Bình Hưng Hòa A",18,926755,2,9.2,13,0,1,2,132,0,10.784852,106.616267
/ho-chi-minh/lau-ca-gia-truyen-ap-chien-luoc/binh-luan,Lẩu Cá Gia Truyền - Ấp Chiến Lược,"1/23 Ấp Chiến Lược, P. Bình Trị Đông",18,1000429,2,9.35,0,0,4,5,170,3,10.759465,106.621573
/ho-chi-minh/thebeo-house-tra-sua/binh-luan,Thebeo House - Trà Sữa,"125 Bình Long, P. Bình Hưng Hòa A",18,1032502,2,9.5,2,0,2,0,65,2,10.779674,106.620398
/ho-chi-minh/com-tam-mien-tay-huong-lo-2/binh-luan,Cơm Tấm Miền Tây - Hương lộ 2,"943 Hương lộ 2, P. Bình Trị Đông A",18,1141484,2,9.866,5,0,3,0,26,2,10.7682965,106.5956464
/ho-chi-minh/chicken-man-ga-ran-han-quoc-truong-phuoc-phan-shop-online/binh-luan,Chicken Man - Gà Rán Hàn Quốc - Trương Phước Phan - Shop Online,62/3D Trương Phước Phan P. Bình Trị Đông,18,1112958,2,9.2,1,1,1,1,57,0,10.7657677,106.6125407
/ho-chi-minh/oc-cam-ca-bien-tuoi/binh-luan,Ốc Cam - Cá Biển Tươi,"542 Lê Văn Quới, P. Bình Hưng Hòa A",18,1091317,2,10.0,1,0,1,0,22,0,10.7768315827052,106.6040631971613
/ho-chi-minh/bangkok-house-aeon-mall-binh-tan/binh-luan,Bangkok House - AEON Mall Bình Tân,"Tầng 2, AEON Mall Bình Tân, 1 Đường Số 17A, P. Bình Trị Đông",18,253717,2,7.178,79,0,19,14,1709,5,10.742589,106.611458
/ho-chi-minh/quan-thom-rom-dac-san-dong-que/binh-luan,Quán Thơm Rơm - Đặc Sản Đồng Quê,"91 Đường Số 5, P. Bình Hưng Hoà",18,202401,2,0.0,43,11,0,5,5542,4,10.806446,106.603094
/ho-chi-minh/dinh-thuong-vuong-quan-pha-lau/binh-luan,Đỉnh Thượng Vương - Quán Phá Lấu,"58 - 60 Đường Số 54, P. Tân Tạo",18,266107,2,6.56,26,0,5,4,5533,2,10.7526108,106.5931106
/ho-chi-minh/cafe-ho-boi-le-thanh-ma-lo/binh-luan,Cafe Hồ Bơi Lê Thành - Mã Lò,"198A Mã Lò, P. Bình Trị Đông A",18,162029,2,7.466,9,0,3,4,5412,5,10.7666826,106.6042408999999
/ho-chi-minh/lau-bo-ngoc-tuyet/binh-luan,Lẩu Bò Ngọc Tuyết - Phan Anh,"215 Phan Anh, P. Bình Trị Đông",18,866576,2,0.0,41,1,0,0,5359,0,10.768555,106.622691
/ho-chi-minh/kimchi-ngon-homemade-shop-online/binh-luan,Kimchi Ngon Homemade - Shop Online,38 - 40 Đường Số 14D,18,156105,2,0.0,0,0,0,0,5248,0,10.811408,106.5942854
/ho-chi-minh/xoai-lac-mien-tay/binh-luan,Xoài Lắc Miền Tây,"313/26 Tỉnh Lộ 10, P. An Lạc",18,224361,2,0.0,0,1,0,0,5117,0,10.755395,106.623334
/ho-chi-minh/cha-bo-dac-biet-da-nang-shop-online/binh-luan,Chả Bò Đặc Biệt Đà Nẵng - Shop Online,"53/2 Đường Số 5, P. Bình Hưng Hòa",18,212980,2,0.0,0,3,0,1,5096,0,10.784279,106.615932
/ho-chi-minh/lotteria-binh-tan-coopmart/binh-luan,Lotteria - Bình Tân CoopMart,"158 Đường Số 19, P. Bình Trị Đông",18,11320,2,6.544,32,0,7,10,5088,4,10.7537869,106.6134445
/ho-chi-minh/y-tuong-cafe/binh-luan,Ý Tưởng Cafe,"187 - 189 Vành Đai Trong, P. Bình Trị Đông",18,2018,2,6.9,7,0,4,3,5087,5,10.7473847,106.615
/ho-chi-minh/chivas-hamburger-hotdog/binh-luan,Chivas - Hamburger & Hotdog,"69 Đường Số 3 KDC Vĩnh Lộc, P. Bình Hưng Hòa B",18,1148070,2,0.0,0,0,0,0,1,0,10.8030602,106.5911345
/ho-chi-minh/ankaraz-coffee-tra-sua-aeon-mall-binh-tan/binh-luan,Ankaraz Coffee - Trà Sữa - Aeon Mall Bình Tân,"Aeon Mall Bình Tân, P. Bình Trị Đông B",18,1147987,2,0.0,0,0,0,0,2,0,10.7427497,106.6119309
/ho-chi-minh/sushi-vy-han-sushi-hambuger-sup-sanwich-duong-so-1/binh-luan,Sushi Vy Hân - Sushi Hambuger & Súp Sanwich - Đường Số 1,"406 Mã Lò, P. Bình Hưng Hòa A",18,1147821,2,0.0,0,0,0,0,0,0,10.7796798,106.6000438
/ho-chi-minh/phuc-long-479-kinh-duong-vuong/binh-luan,Phúc Long 479 Kinh Dương Vương,"479 Kinh Dương Vương, Khu Phố 6, P. An Lạc",18,1147811,2,0.0,0,0,0,0,5,0,10.7382362,106.6151851
