ReviewUrl,name,Address,districtid,RestaurantId,RestaurantStatus,avgrating,TotalPictures,TotalSaves,TotalReviews,TotalFavourites,TotalViews,TotalCheckIns,Latitude,Longitude
/ho-chi-minh/texas-chicken-phan-xich-long/binh-luan,Texas Chicken - Phan Xích Long,"274 - 276 Phan Xích Long, P. 7",17,48251,2,7.072,2271,0,587,336,81644,171,10.798036,106.688907
/ho-chi-minh/starbucks-coffee-phan-xich-long/binh-luan,Starbucks Coffee - Phan Xích Long,214 - 216 Phan Xích Long,17,73378,2,7.39,2232,0,323,161,34974,104,10.797456,106.690001
/ho-chi-minh/sumo-bbq-phan-xich-long/binh-luan,Sumo BBQ - Phan Xích Long - Buffet Nướng & Lẩu,"210 Phan Xích Long, P. 2",17,5026,2,7.67,2075,0,314,152,91562,84,10.797516,106.689863
/ho-chi-minh/ngo-8-tra-chanh-lau-rieu-cua-dong-cu-lao/binh-luan,Ngõ 8 - Trà Chanh & Lẩu Riêu Cua Đồng - Cù Lao,"8 Cù Lao, P. 2",17,35111,2,6.918,2678,0,507,1677,291343,236,10.7962235,106.6897665
/ho-chi-minh/papa-s-chicken-truong-sa/binh-luan,Papas' Chicken - Gà Rán Hàn Quốc - Trường Sa,"346 Trường Sa, P. 2",17,233553,2,6.568,3359,0,376,343,36522,70,10.796011,106.690292
/ho-chi-minh/oc-quynh-nhieu-tu/binh-luan,Ốc Quỳnh - Nhiêu Tứ,"1A Nhiêu Tứ, P. 7",17,93324,2,7.954,1750,0,479,626,51996,73,10.802017,106.689264
/ho-chi-minh/san-fu-lou-cantonese-kitchen-phan-xich-long/binh-luan,San Fu Lou - Ẩm Thực Quảng Đông - Phan Xích Long,"195 - 197 Phan Xích Long, P. 2",17,179996,2,7.444,2588,0,322,346,70976,69,10.798457,106.687428
/ho-chi-minh/gogi-house-nuong-han-quoc-phan-xich-long/binh-luan,Gogi House - Nướng Hàn Quốc - Phan Xích Long,"198 Phan Xích Long, P. 7",17,103685,2,7.516,1782,0,334,115,51282,106,10.797722,106.689438
/ho-chi-minh/hachiko-coffee-cafe-thu-cung/binh-luan,Hachiko Coffee - Cafe Thú Cưng,"14 Hoa Sữa, P. 7",17,99049,2,6.936,3006,0,299,825,192999,163,10.7980001,106.6913355
/ho-chi-minh/com-tam-ba-ghien-dang-van-ngu/binh-luan,Cơm Tấm Ba Ghiền - Đặng Văn Ngữ,"84 Đặng Văn Ngữ, P. 10",17,1630,2,6.09,843,0,462,596,117225,167,10.79441,106.66941
/ho-chi-minh/kichi-kichi-lau-bang-chuyen-nguyen-van-troi/binh-luan,Kichi Kichi Lẩu Băng Chuyền - Nguyễn Văn Trỗi,"197 Nguyễn Văn Trỗi, P. 10",17,4190,2,8.95,968,0,406,50,36062,52,10.796808,106.673216
/ho-chi-minh/tra-sua-gong-cha-phan-xich-long/binh-luan,Trà Sữa Gong Cha - 貢茶 - Phan Xích Long,"240 Phan Xích Long, P. 7",17,207900,2,6.382,1638,0,445,244,52662,103,10.7979271,106.6896557
/ho-chi-minh/banh-duc-phan-dang-luu/binh-luan,Bánh Đúc Phan Đăng Lưu,"116/2/3 Phan Đăng Lưu, P. 3",17,638,2,5.654,424,0,330,1013,188875,124,10.8030101,106.6834299
/ho-chi-minh/pergola/binh-luan,Pergola - Cafe Nhà Hàng Sân Vườn,"28A Trần Cao Vân, P. 12",17,342,2,7.512,947,0,100,391,172385,68,10.792776,106.676645
/ho-chi-minh/cafe-tram/binh-luan,Trầm Cafe - Trần Huy Liệu,"100 Trần Huy Liệu, P. 15",17,1331,2,6.918,871,0,203,435,153922,115,10.796037,106.677825
/ho-chi-minh/bo-sinh-doi-phan-xich-long/binh-luan,Bò Sinh Đôi - Steak & Lẩu Bò Mỹ,"192 Phan Xích Long, P. 2",17,116541,2,7.482,1236,0,232,447,126147,65,10.797894,106.689269
/ho-chi-minh/banh-bo-thot-not-nguyen-son-giao-hang-tan-noi/binh-luan,Bánh Bò Thốt Nốt Nguyễn Sơn - Giao Hàng Tận Nơi,"6 Lê Tự Tài, P. 4",17,160457,2,2.018,605,0,834,423,125670,60,10.8048783,106.6791516
/ho-chi-minh/quan-cua-hoa/binh-luan,Quán Cua Hoa,"8A Đặng Văn Ngữ, P. 10",17,31427,2,7.142,546,0,93,308,118378,36,10.797695,106.669722
/ho-chi-minh/moon-s-kitchen-korea-bbq-coffee/binh-luan,Moon's Kitchen - Món Hàn Quốc,16 Hoa Mai,17,197711,2,7.65,1940,0,285,791,112165,63,10.797173,106.687628
/ho-chi-minh/tiem-banh-thanh-dan/binh-luan,Tiệm Bánh Thanh Đan,"46B Nguyễn Văn Trỗi, P. 15",17,22388,2,7.242,764,0,177,622,105667,153,10.7938422,106.6786671
/ho-chi-minh/flyfood-mon-ngon-giao-tan-nha/binh-luan,Flyfood - Quảng Bá Ẩm Thực Truyền Thống Việt Nam,"7/3 Hồ Biểu Chánh, P. 12",17,67391,2,6.7,482,0,120,334,105056,42,10.7933869,106.676957
/ho-chi-minh/com-tam-baby-phung-van-cung/binh-luan,Cơm Tấm BABY - Phùng Văn Cung,"26 Phùng Văn Cung, P. 7",17,1151586,2,0.0,0,0,0,0,3,0,10.7999931519469,106.6859019955938
/ho-chi-minh/yen-chou-tra-sua-tren-may-hoang-minh-giam.xjt46c/binh-luan,Yen Chou - Trà Sữa Trên Mây - Hoàng Minh Giám,"8 Hoàng Minh Giám (Cổng sau chung cư mặt Hồng Hà), P. 8",17,1000058541,2,0.0,0,0,0,0,0,0,10.808906,106.6733211
/ho-chi-minh/banh-mi-ca-phe-ong-trinh-dao-duy-anh/binh-luan,Bánh Mì & Cà Phê Ông Trình - Đào Duy Anh,"54/3 Đào Duy Anh, P. 9",17,1151573,2,0.0,0,0,0,0,5,0,10.8067431371677,106.6765819538835
/ho-chi-minh/home-cafe-phan-dang-luu/binh-luan,Home Cafe - Phan Đăng Lưu,"172 Phan Đăng Lưu, P. 3",17,1151407,2,0.0,0,0,0,0,1,0,10.800899,106.681981
/ho-chi-minh/an-vat-bao-bao-nguyen-dinh-chieu/binh-luan,Ăn Vặt Bảo Bảo - Nguyễn Đình Chiểu,"85/2A Nguyễn Đình Chiểu, P. 4",17,1151380,2,0.0,0,0,0,0,1,0,10.8041364,106.6815757
/ho-chi-minh/bob-s-toast-banh-mi-kep-thit-truong-sa/binh-luan,Bob’s Toast - Bánh Mì Kẹp Thịt - Trường Sa,"1224 Trường Sa, P. 13",17,1151331,2,0.0,0,0,0,0,5,0,10.7897843,106.6671256
/ho-chi-minh/ti-ni-tea-dang-van-ngu/binh-luan,Tí Nị Tea - Đặng Văn Ngữ,"117 Đặng Văn Ngữ, P. 13",17,1151303,2,0.0,0,0,0,0,1,0,10.7923413,106.6680421
/ho-chi-minh/bun-bo-banh-beo-52-hoa-su/binh-luan,Bún Bò & Bánh Bèo - 52 Hoa Sứ,"52 Hoa Sứ, P. 7",17,1000058390,2,0.0,0,0,0,0,1,0,10.7993392,106.6890012
/ho-chi-minh/banh-mi-q-huynh-van-banh/binh-luan,Bánh Mì Q - Huỳnh Văn Bánh,"36 Huỳnh Văn Bánh, P. 15",17,1000058340,2,0.0,0,0,0,0,2,0,10.7952803,106.6813704
/ho-chi-minh/quan-1f-com-ga-bo-bit-tet-lau-hoa-cau/binh-luan,"Quán 1F - Cơm Gà, Bò Bít Tết & Lẩu - Hoa Cau","1F Hoa Cau, P. 7",17,1151053,2,0.0,0,0,0,0,2,0,10.799517,106.68788
/ho-chi-minh/hero-cafe-nguyen-dinh-chinh/binh-luan,HERO CAFE - Nguyễn Đình Chính,"133A Nguyễn Đình Chính, P. 8",17,1150987,2,0.0,0,0,0,0,1,0,10.795586,106.677027
/ho-chi-minh/bo-kho-ale-farm-hoang-van-thu/binh-luan,Bò Kho Ale'farm - Hoàng Văn Thụ,"159/6 Hoàng Văn Thụ, P. 8",17,1150937,2,0.0,0,0,0,0,2,0,10.799425,106.674883
/ho-chi-minh/hem-tra-sua-do-an-vat/binh-luan,Hẻm - Đồ Ăn Vặt,"269/1 Phan Xích Long, P. 2",17,932710,2,10.0,33,0,3,10,428,1,10.799695,106.68493
/ho-chi-minh/pha-lau-co-diep/binh-luan,Phá Lấu Cô Điệp,60 Lê Tự Tài,17,759686,2,10.0,26,0,1,17,1369,6,10.8053249,106.6811383
/ho-chi-minh/banh-canh-79/binh-luan,Bánh Canh 79,"34 Nguyễn Lâm, P. 3",17,1077004,2,10.0,4,0,8,1,87,0,10.8018781752259,106.6920338114122
,Lang Thang Rooftop,"Sân Thượng Tầng 7, 240 Nguyễn Đình Chính, P11, Phú Nhuận, Tp Hcm",17,1079868,2,10.0,26,0,2,2,0,1,,
/ho-chi-minh/siro-sori-tea-coffee/binh-luan,Siro Sori - Tea & Coffee,"43 Hoa Sữa, P. 7",17,723804,2,10.0,3,0,2,1,179,1,10.798489,106.6914804
/ho-chi-minh/yuki-drink-and-food/binh-luan,Yuki - Drink And Food,"96/6 Nguyễn Công Hoan, P. 7",17,1054233,2,10.0,20,0,3,1,50,0,10.7990360271063,106.6904300262165
/ho-chi-minh/s1986-coffee-time-anytime/binh-luan,"S1986 - Coffee Time, Anytime","59 Trương Quốc Dung, P. 10",17,976960,2,10.0,42,0,1,1,212,1,10.795125,106.672662
/ho-chi-minh/zorro-cafe-beer/binh-luan,ZORRO Café & Beer,"54 Nguyễn Thị Huỳnh, P. 11",17,916121,2,10.0,11,14,1,1,497,3,10.794998,106.674286
/ho-chi-minh/byfilm-coffee/binh-luan,Byfilm Coffee,"525/72 Huỳnh Văn Bánh, P. 14",17,954937,2,10.0,22,0,2,3,159,0,10.790832,106.668445
/ho-chi-minh/tra-chanh-thuy-tien-da-heo-lac-mam-toi-banh-trang-bo-deo-hoa-su/binh-luan,Trà Chanh Thuỷ Tiên - Da Heo Lắc Mắm Tỏi & Bánh Tráng Bơ Dẻo - Hoa Sứ,"48 Hoa Sứ, P. 7",17,1135077,2,10.0,12,0,2,0,30,1,10.798498,106.688893
/ho-chi-minh/hien-cay-queo-banh-canh-cha-ca-phan-rang/binh-luan,Hiền Cây Quéo - Bánh Canh Chả Cá Phan Rang,"269/5 Phan Xích Long, P. 2",17,1047755,2,10.0,3,8,1,4,198,2,10.799688,106.684978
/ho-chi-minh/socola-my-ho-bieu-chanh/binh-luan,Socola Mỹ - Hồ Biểu Chánh,"55 Hồ Biểu Chánh, P. 12",17,1075820,2,10.0,87,0,3,0,83,0,10.791355,106.676182
/ho-chi-minh/biscotti-banh-hat-dinh-duong-huynh-van-banh/binh-luan,Biscotti - Bánh Hạt Dinh Dưỡng - Huỳnh Văn Bánh,"420/11 Huỳnh Văn Bánh, P. 14",17,1058719,2,9.99,6,0,610,18,1283,11,10.7921273,106.6695246
/ho-chi-minh/banh-que-ha-lan-huynh-van-banh/binh-luan,Bánh Quế Hà Lan - Huỳnh Văn Bánh,"420/11 Huỳnh Văn Bánh, P. 14",17,1053903,2,9.984,8,0,554,26,1414,14,10.792129,106.6695212
/ho-chi-minh/banh-9-sach-banh-sau-rieng-phan-dinh-phung/binh-luan,Bánh 9 Sạch - Bánh Sầu Riêng - Phan Đình Phùng,"337 Phan Đình Phùng, P. 15",17,1077197,2,9.942,7,0,439,13,1083,4,10.7983962,106.6804261
/ho-chi-minh/san-san-mi-ga-quay-hoa-lan/binh-luan,San San - Mì Gà Quay - Hoa Lan,"147 Hoa Lan, P. 2",17,182755,2,6.566,1380,0,374,561,68252,66,10.7979607,106.6880178
/ho-chi-minh/xoi-chien-nha-sushi/binh-luan,Xôi Chiên Nhà Sushi,"50/22/2 Phùng Văn Cung, P. 7",17,859973,2,8.572,171,0,105,565,7843,77,10.800838,106.686018
/ho-chi-minh/tau-hu-xe-lam/binh-luan,Tàu Hủ Xe Lam - Phùng Văn Cung,"70 Phùng Văn Cung, P. 7",17,115766,2,6.928,952,0,300,558,71663,85,10.800907,106.685257
/ho-chi-minh/haki-haki-tiem-banh-online/binh-luan,Haki Haki - Tiệm Bánh Online,"34/14B Nguyễn Đình Chiểu, P. 3",17,67766,2,7.894,1279,0,92,522,95410,34,10.803002,106.67989
/ho-chi-minh/banh-trang-cham-chung-cu-phan-xich-long/binh-luan,Bánh Tráng Chấm Cô Gánh - Chung Cư A4 Phan Xích Long,"Lô D001 Chung Cư A4 Phan xích Long, P. 7",17,729272,2,5.794,181,0,89,471,56545,17,10.7995447,106.6870026
,Mì Quảng Ông Lăng,"106 Trương Quốc Dung , Phường 10 , Quận Phú Nhuận",17,1068244,2,9.7,2,0,2,0,0,0,,
,Cafe vợt,"Số 2 Ngõ 320 Phan đình Phùng, Phường 1, Quận Phú Nhuận",17,1138082,2,7.4,8,0,1,0,0,0,,
,Bếp Nhà 56 - Sâm Mix - Phan Đình Phùng,"53 Phan Đình Phùng, Phường 17, Phú Nhuận",17,1075742,2,10.0,1,0,1,0,0,0,0.0,0.0
/ho-chi-minh/crazy-coffee-ca-phe-tra-sua-nguyen-kiem/binh-luan,Crazy Coffee - Cà Phê & Trà Sữa - Nguyễn Kiệm,"778K/3 Nguyễn Kiệm, P. 4",17,1036171,2,0.0,0,0,0,0,52,0,10.7967813,106.6504116
/ho-chi-minh/bun-moc-gio-cha-huu-nghi/binh-luan,Bún Mọc - Giò Chả Hữu Nghị,"1370A Trường Sa, P. 3",17,1071865,2,0.0,0,0,0,0,40,0,10.7920523440229,106.6628888252836
/ho-chi-minh/bun-moc-ti-ti-nguyen-trong-tuyen/binh-luan,Bún Mọc Ti Ti - Nguyễn Trọng Tuyển,"233a Nguyễn Trọng Tuyển, P. 8",17,786872,2,0.0,6,1,0,0,105,0,10.7988983225945,106.6649511829018
/ho-chi-minh/banh-trang-cuon-pham-van-hai/binh-luan,Bánh Tráng Cuốn - Phạm Văn Hai,12 Phạm Văn Hai,17,670927,2,7.4,18,0,3,7,866,2,10.798275,106.664959
/ho-chi-minh/oc-bong-truong-sa/binh-luan,Ốc Bống - Trường Sa,"1270B Trường Sa, P. 14",17,1038822,2,8.902,21,1,8,8,370,1,10.791031,106.666007
/ho-chi-minh/an-vat-so-1/binh-luan,Ăn Vặt Số 1,"1270 Lô B Trường Sa, P. 14",17,1050599,2,0.0,0,0,0,0,36,0,10.791,106.666007
/ho-chi-minh/oc-quy-sai-gon-truong-sa/binh-luan,Ốc Quý Sài Gòn - Trường Sa,"1264 Trường Sa, P. 13",17,1113474,2,0.0,0,0,0,0,55,0,10.7913033,106.6662229
/ho-chi-minh/to-go-coffee-le-van-sy/binh-luan,To Go Coffee - Lê Văn Sỹ,"331/1 Lê Văn Sỹ, P. 1",17,737104,2,0.0,4,0,0,0,52,0,10.795337,106.666497
/ho-chi-minh/com-ga-xoi-mo-142-dao-duy-anh/binh-luan,Cơm Gà Xối Mỡ 142 - Đào Duy Anh,"12/4 Đào Duy Anh, P. 9",17,1136986,2,0.0,0,2,0,0,101,0,10.8065761,106.6777614
/ho-chi-minh/phuc-long-phan-xich-long/binh-luan,Phúc Long Phan Xích Long,"95 Phan Xích Long, P. 2",17,1055535,2,4.414,97,1,29,2,2483,4,10.7971822,106.6905106
/ho-chi-minh/huong-ky-9-com-chien-18-mon/binh-luan,Hương Ký 9 - Cơm Chiên 18 Món,"110 Đặng Văn Ngữ, P. 10",17,1074415,2,4.3,1,0,2,1,241,1,10.793974,106.669106
/ho-chi-minh/tra-sua-sunday-basic-thich-quang-duc/binh-luan,Trà Sữa Sunday Basic - Thích Quảng Đức,"30A Thích Quảng Đức, P. 5",17,755411,2,7.384,437,0,30,19,10439,6,10.8044011,106.6836472
/ho-chi-minh/banh-cuon-ba-mien-phan-xich-long/binh-luan,Bánh Cuốn Ba Miền - Phan Xích Long,"188 Phan Xích Long, P. 7",17,983805,2,5.966,50,0,17,7,1296,2,10.7978134,106.6890131
/ho-chi-minh/tra-sua-gong-cha-160-phan-xich-long/binh-luan,Trà Sữa Gong Cha - 貢茶 - 160 Phan Xích Long,"160 Phan Xích Long, P. 2",17,930743,2,6.046,337,0,17,2,1133,0,10.798211,106.688199
/ho-chi-minh/koi-the-phan-xich-long/binh-luan,KOI Thé - Phan Xích Long,"137 Cù Lao (Ngã 3 Phan Xích Long và Cù Lao), P. 2",17,719463,2,6.222,86,0,26,19,4087,4,10.7987247,106.6862778
/ho-chi-minh/banh-trang-tron-top-mo-trung-cut-long-dao-an-vat-1168-truong-sa/binh-luan,Bánh Tráng Trộn Tóp Mỡ Trứng Cút Lòng Đào & Ăn Vặt - 1168 Trường Sa,"1168 Trường Sa, P. 13",17,858526,2,7.4,13,0,2,9,884,0,10.7888328,106.6690743
/ho-chi-minh/bento-delichi-com-ga-xoi-mam-toi-xoi-mo-quan-phu-nhuan/binh-luan,Bento Delichi - Cơm Gà Xối Mắm Tỏi & Xối Mỡ - Quận Phú Nhuận,"166/12L Thích Quảng Đức, P. 4",17,1012334,2,6.932,25,1,9,14,1180,1,10.808116,106.679525
/ho-chi-minh/co-loan-banh-trang-tom/binh-luan,Cô Loan - Bánh Tráng Tôm,243/2C Phan Đình Phùng,17,767553,2,7.742,99,0,46,277,13489,5,10.796322,106.681172
/ho-chi-minh/hutong-hotpot-paradise-phan-xich-long/binh-luan,Hutong - Hotpot Paradise - Phan Xích Long,"169 - 171 Phan Xích Long, P. 2",17,748592,2,8.142,504,0,158,39,13133,19,10.798124,106.688475
/ho-chi-minh/co-quyen-xu-quang-cac-mon-quang/binh-luan,Cô Quyên Xứ Quảng - Các Món Quảng - Hồ Biểu Chánh,"62 Hồ Biểu Chánh, P. 11",17,645408,2,6.01,764,0,111,222,15814,14,10.7922972973264,106.6762110225679
/ho-chi-minh/ngoc-suong-ben-thuyen-nguyen-van-troi/binh-luan,NS Bến Thuyền,"11 Nguyễn Văn Trỗi, P. 12",17,14,2,7.306,830,0,115,188,79150,51,10.7919259,106.681183
/ho-chi-minh/dim-tu-tac-nha-hang-quang-dong-tan-son-nhat-hotel/binh-luan,Dim Tu Tac - Nhà Hàng Quảng Đông - Tân Sơn Nhất Hotel,"Tầng 2, Tân Sơn Nhất Hotel, 202 Hoàng Văn Thụ",17,208817,2,7.368,543,0,40,50,12227,20,10.800124,106.670752
/ho-chi-minh/lau-de-cua-245-hoa-lan/binh-luan,Lẩu Dê & Cua 245 - Hoa Lan,186 Hoa Lan,17,152808,2,6.784,446,0,60,51,55433,18,10.79799,106.687868
/ho-chi-minh/sushi-house/binh-luan,Sushi House,"57 Trương Quốc Dung, P. 10",17,683127,2,7.808,167,0,26,44,6431,4,10.795333,106.672535
/ho-chi-minh/nha-hang-hai-san-din-ky-hong-ha/binh-luan,Nhà Hàng Hải Sản Dìn Ký - Hồng Hà,"127 Hồng Hà, P. 9",17,903960,2,7.766,24,0,6,3,2485,0,10.809795,106.672871
/ho-chi-minh/tengu-japanese-dining/binh-luan,TENGU Japanese Dining,"16 Hoa Cau, P. 7",17,941629,2,6.316,40,0,12,10,1777,2,10.7993,106.688399
/ho-chi-minh/vinh-steak-n-ale/binh-luan,Vinh Steak 'n Ale,"43 Hoa Lan, P. 2",17,932380,2,8.686,83,0,14,43,1775,0,10.796822,106.690956
/ho-chi-minh/nha-hang-gold-hai-san-ca/binh-luan,Nhà Hàng Gold One,"183-185 Phan Xích Long, P. 7",17,67606,2,6.218,361,0,40,17,47331,10,10.797956,106.689346
/ho-chi-minh/nha-hang-zoozoo-deluxy/binh-luan,Nhà Hàng ZOOZOO Deluxy,"137 Phan Đăng Lưu, P. 2",17,1027534,2,8.0,3,0,1,0,1816,0,10.8028,106.684222
/ho-chi-minh/nha-hang-hanoi-hanoi/binh-luan,Nhà Hàng Hanoi Hanoi,"191 Phan Xích Long, P. 2",17,993365,2,8.1,43,3,2,12,727,0,10.801053,106.683908
/ho-chi-minh/lon-met-thai-binh/binh-luan,Lợn Mẹt Thái Bình,"208 Hoa Lan, P. 2",17,933507,2,8.0,9,4,1,1,367,3,10.798459,106.686863
/ho-chi-minh/b-zone-bia-ha-noi-313/binh-luan,B Zone - Bia Hà Nội 313,"313 Nguyễn Trọng Tuyển, P. 10",17,950211,2,6.76,20,0,5,9,2952,1,10.79813,106.669119
/ho-chi-minh/yeebo-di-buu-nguyen-van-troi/binh-luan,"Yeebo Di Bửu - Seafood, Hot Pot & Dimsum - Nguyễn Văn Trỗi","76 Nguyễn Văn Trỗi, P. 15",17,21817,2,7.262,538,0,63,44,37567,34,10.795852,106.675569
/ho-chi-minh/chewy-chewy-phan-xich-long/binh-luan,Chewy Chewy - Phan Xích Long,"376 Phan Xích Long, P. 2",17,260979,2,7.018,323,0,64,92,7400,6,10.801123,106.68383
/ho-chi-minh/mien-dong-thao-cafe/binh-luan,Miền Đồng Thảo Cafe,"221A Nguyễn Trọng Tuyển, P. 8",17,1121,2,6.836,1192,0,227,334,96256,155,10.797403,106.6751649999999
/ho-chi-minh/haru-sushi/binh-luan,Haru Sushi - Phan Xích Long,"398 Phan Xích Long, P. 2",17,284621,2,7.97,1714,0,262,364,51976,69,10.8002213,106.6848653
/ho-chi-minh/toocha-viet-nam-phan-xich-long/binh-luan,Toocha - Trà Sữa Không Mập - Phan Xích Long,"328 - 330 Phan Xích Long, P. 7",17,706615,2,6.73,811,0,195,40,15250,23,10.7987313,106.6876765
/ho-chi-minh/suon-cay-nuong-hai-san-phan-dang-luu/binh-luan,Sườn Cây Nướng & Hải Sản - Phan Đăng Lưu,"Tầng 1, 128C Phan Đăng Lưu, P. 3",17,109096,2,7.286,906,0,123,102,73787,41,10.8023157,106.683463
/ho-chi-minh/phuc-long-pho-quang/binh-luan,Phúc Long Phổ Quang,"Lô GM Chung Cư Golden Mansion, 119C Phổ Quang, P. 9",17,933549,2,5.264,191,2,19,4,1716,2,10.808831,106.670971
/ho-chi-minh/mochi-tea-milktea/binh-luan,Mochi Tea & Milktea,"96/4 Phan Đình Phùng, P. 2",17,1064806,2,0.0,0,0,0,0,20,0,10.794719,106.684137
/ho-chi-minh/mi-y-bistro-mi-y-dut-lo-phan-xich-long/binh-luan,Mì Ý Bistro - Mì Ý Đút Lò - Phan Xích Long,"Hẻm 417 Phan Xích Long, P. 3",17,1000050071,2,0.0,2,0,0,0,36,0,10.8029657,106.6817824
/ho-chi-minh/com-tam-hem-33/binh-luan,Cơm Tấm Hẻm 33,33/16 Nguyễn Đình Chính,17,762614,2,7.584,18,0,12,57,1313,1,10.7963609,106.679965
/ho-chi-minh/tra-sua-maycha-thich-quang-duc/binh-luan,Trà Sữa Maycha - Thích Quảng Đức,"57 Thích Quảng Đức, P. 4",17,1103017,2,0.0,0,0,0,0,255,0,10.8048604536797,106.6827269263759
/ho-chi-minh/tra-sua-onus-milk-tea-king-of-drinds-tra-sua-hoang-van-thu.8r5ado/binh-luan,Trà Sữa ONUS Milk Tea King Of Drinds - Trà Sữa - Hoàng Văn Thụ,"129/1A Hoàng Văn Thụ, P. 8",17,1000033218,2,0.0,0,0,0,0,34,0,10.7992307,106.6760963
/ho-chi-minh/sasin-mi-cay-7-cap-do-han-quoc-hoa-phuong/binh-luan,SaSin - Mì Cay 7 Cấp Độ Hàn Quốc - Hoa Phượng,"15A Hoa Phượng, P. 2",17,960754,2,4.1,98,0,18,3,1425,4,10.797004,106.686813
/ho-chi-minh/thanh-xoi-chien/binh-luan,Thanh Xôi Chiên,34 Phùng Văn Cung,17,96261,2,7.236,32,0,11,52,9468,6,10.800301,106.685802
/ho-chi-minh/bep-au-viet-com-ga-sot-cay-mam-toi-suon-nuong-mat-ong-salad-hoa-dao/binh-luan,"Bếp Âu Việt - Cơm Gà Sốt Cay Mắm Tỏi, Sườn Nướng Mật Ong & Salad - Hoa Đào","148B Hoa Đào, P. 2",17,1150846,2,0.0,0,0,0,0,3,0,10.7987422,106.6842994
/ho-chi-minh/beno-mi-y-bo-my-com-bo-ham-hoa-lan/binh-luan,"Beno - Mì Ý, Bò Mỹ, Cơm Bò Hầm - Hoa Lan","76 Hoa Lan, P. 2",17,783979,2,6.468,379,0,92,75,8476,7,10.797103,106.690035
/ho-chi-minh/ca-phe-vot-ca-phe-phan-dinh-phung.xwsqsr/binh-luan,Cà Phê Vợt - Cà Phê - Phan Đình Phùng,"23 Phan Đình Phùng, P. 17",17,1000048683,2,0.0,0,1,0,0,29,0,10.79281,106.685541
/ho-chi-minh/ca-phe-ca-phao-ca-phe-niem-vui-bui-van-them/binh-luan,Cà Phê Cà Pháo - Cà Phê & Niềm Vui - Bùi Văn Thêm,"21A Bùi Văn Thêm, P. 9",17,1146082,2,0.0,0,0,0,0,3,0,10.8077439,106.6779887
/ho-chi-minh/gam-coffee-100-arabica-phan-xich-long/binh-luan,GAM Coffee - 100% Arabica - Phan Xích Long,"181 (Số Mới 262) Phan Xích Long, P. 7",17,1130310,2,0.0,0,0,0,0,67,0,10.798108,106.6893185
/ho-chi-minh/tiem-ca-phe-544-tra-ca-phe-nguyen-kiem.noagyg/binh-luan,Tiệm Cà Phê 544 - Trà & Cà Phê - Nguyễn Kiệm,"544 Nguyễn Kiệm, P. 4",17,1000025868,2,0.0,0,0,0,0,6,0,10.804383,106.678965
/ho-chi-minh/me-gau-food-banh-canh-cua-huynh-van-banh.7w1pgc/binh-luan,Mẹ Gấu Food - Bánh Canh Cua - Huỳnh Văn Bánh,"379/8F Huỳnh Văn Bánh, P. 11",17,1000045718,2,0.0,0,0,0,0,46,0,10.791391,106.673256
/ho-chi-minh/pho-kho-gia-lai-58/binh-luan,Phở Khô Gia Lai 58,"58 Hoa Sứ, P. 7",17,1000000273,2,4.2,0,3,1,1,344,0,10.7996952,106.6893959
/ho-chi-minh/banh-canh-cua-trang-phung-van-cung/binh-luan,Bánh Canh Cua Trang - Phùng Văn Cung,"30/28/30 Phùng Văn Cung, P. 7",17,1073538,2,0.0,0,0,0,0,120,0,10.800095,106.686711
/ho-chi-minh/chao-dinh-duong-doremi-nguyen-trong-tuyen/binh-luan,Cháo Dinh Dưỡng Doremi - Nguyễn Trọng Tuyển,"160 Nguyễn Trọng Tuyển, P. 8",17,1133341,2,0.0,0,1,0,0,25,0,10.7976963,106.6759786
/ho-chi-minh/kuon-banh-cuon-la-ma-quen/binh-luan,Kuốn - Bánh Cuốn Lạ Mà Quen,"98 Hoàng Văn Thụ, P. 9",17,1146043,2,0.0,0,0,0,0,22,0,10.799541,106.677625
/ho-chi-minh/nha-hang-vit-quay-phuc-lam-mon-phan-xich-long/binh-luan,Nhà Hàng Vịt Quay Phúc Lâm Môn - Phan Xích Long,"198 Phan Xích Long, P. 7",17,1138305,2,0.0,0,0,0,0,12,0,10.7978493,106.6893393
/ho-chi-minh/beefsteak-bluebird-french-restaurant-phan-xich-long/binh-luan,Beefsteak Bluebird - French Restaurant - Phan Xích Long,"65 Phan Xích Long, P. 2",17,1139850,2,9.8,10,0,2,2,51,0,10.797162,106.6912764
/ho-chi-minh/tra-dau-mr-do-le-van-sy/binh-luan,Trà Dâu Mr. Đỏ - Lê Văn Sỹ,"120 Lê Văn Sỹ, P. 10",17,1126916,2,0.0,0,0,0,0,50,0,10.7917976,106.6718237
/ho-chi-minh/banh-mi-kido-banh-mi-heo-quay-banh-mi-dac-ruot/binh-luan,Bánh Mì KIDO - Bánh Mì Heo Quay & Bánh Mì Đặc Ruột,"54 Hoa Cúc, P. 7",17,1138831,2,0.0,0,0,0,0,10,0,10.7989476,106.6888009
/ho-chi-minh/tra-sua-homy-thich-quang-duc/binh-luan,Trà Sữa Homy - Thích Quảng Đức,"58 Thích Quảng Đức, P. 5",17,1137065,2,0.0,0,0,0,0,35,0,10.8070503,106.68287
/ho-chi-minh/bun-bo-hue-hinomaru-phan-xich-long/binh-luan,Bún Bò Huế Hinomaru - Phan Xích Long,"412 Phan Xích Long, P. 2",17,1138035,2,0.0,0,0,0,0,12,0,10.800333,106.6850682
/ho-chi-minh/tra-sua-15k-phan-dang-luu/binh-luan,Trà Sữa 15K - Phan Đăng Lưu,"84A Phan Đăng Lưu, P. 5",17,1136650,2,0.0,0,0,0,0,31,0,10.8043691,106.6854363
/ho-chi-minh/tiem-tra-thang-tu-nhieu-tu/binh-luan,Tiệm Trà Tháng Tư - Nhiêu Tứ,"1 Nhiêu Tứ, P. 7",17,1136081,2,9.8,0,0,1,1,665,0,10.8020243,106.6893164
/ho-chi-minh/com-tho-cho-lon-phan-xich-long/binh-luan,Cơm Thố Chợ Lớn - Phan Xích Long,"254 (189 Cũ) Phan Xích Long, P. 7",17,1135694,2,0.0,0,5,0,2,138,0,10.7979467,106.6894068
/ho-chi-minh/mr-dee-tea-coffee-nguyen-trong-tuyen/binh-luan,Mr.Dee - Tea & Coffee - Nguyễn Trọng Tuyển,"160 Nguyễn Trọng Tuyển, P. 8",17,1135737,2,0.0,0,0,0,0,12,0,10.79782,106.675955
/ho-chi-minh/con-soi-huynh-van-banh/binh-luan,Con Sói - Huỳnh Văn Bánh,"172 Huỳnh Văn Bánh, P. 12",17,851614,2,8.56,74,0,76,79,2488,9,10.792184,106.677792
/ho-chi-minh/nuoc-ep-trai-cay-tuoi-pom-fresh-juice/binh-luan,Nước Ép Trái Cây Tươi - POM Fresh Juice,"42 Ngô Thời Nhiệm, P. 17",17,670439,2,8.658,452,0,41,47,6496,11,10.793302,106.6832963
/ho-chi-minh/xoi-chien-tran-khac-chan/binh-luan,Xôi Chiên - Trần Khắc Chân,"13 Trần Khắc Chân, P. 15",17,858636,2,8.824,64,0,35,72,1648,10,10.797603,106.679898
/ho-chi-minh/tau-hu-coc-hoa-su/binh-luan,Tàu Hủ Cóc - Hoa Sứ,"32 Hoa Sứ, P. 2",17,667807,2,7.184,114,0,47,112,8338,4,10.797281,106.688294
/ho-chi-minh/xoi-chien-tran-huu-trang-72-tran-huu-trang/binh-luan,Xôi Chiên Trần Hữu Trang - 72 Trần Hữu Trang,"72 Trần Hữu Trang, P.10",17,168765,2,7.988,149,0,31,99,5955,7,10.7942574,106.6729066
/ho-chi-minh/3-rau-ga-ran-pizza-tra-sua-phan-dinh-phung/binh-luan,"3 Râu - Gà Rán, Pizza & Trà Sữa - Phan Đình Phùng","272 Phan Đình Phùng, P. 1",17,974694,2,7.958,15,0,14,3,544,2,10.797313,106.681321
/ho-chi-minh/sinh-to-tao-dan-phan-xich-long/binh-luan,Sinh Tố Tao Đàn - Phan Xích Long,"408 Phan Xích Long, P. 2",17,700989,2,6.696,205,0,96,23,10508,27,10.8007567,106.6841972
/ho-chi-minh/den-da-cafe-tra-sua-tra-dao-le-van-sy/binh-luan,Đen Đá Cafe - Trà Sữa & Trà Đào - Lê Văn Sỹ,"110 Lê Văn Sỹ, P. 10",17,201713,2,6.954,1981,0,345,146,31614,102,10.791666,106.671986
/ho-chi-minh/sentosa-food-chao-ech-singapore-phan-tay-ho/binh-luan,Sentosa Food - Cháo Ếch Singapore - Phan Tây Hồ,"76/61 Phan Tây Hồ, P. 7",17,92825,2,6.296,844,0,236,222,86433,69,10.8016492,106.6879289
/ho-chi-minh/koi-the-220-phan-xich-long/binh-luan,KOI Thé - 220 Phan Xích Long,"220 - 222 Phan Xích Long, P. 2",17,648011,2,6.92,1079,0,304,171,47352,75,10.797421,106.69016
/ho-chi-minh/luu-gia-cafe-cafe-trung/binh-luan,Lưu Gia Cafe - Cafe Trứng,8 Hoa Cúc,17,66816,2,6.946,559,0,186,414,92843,92,10.799004,106.688021
/ho-chi-minh/vitamin-bar-i/binh-luan,Vitamin Bar I - Sinh Tố & Ăn Vặt,"174 Đặng Văn Ngữ, P.14",17,2746,2,6.452,275,0,73,91,77367,26,10.7912255,106.6670329
/ho-chi-minh/napoli/binh-luan,Napoli - Cafe & Trái Cây Tô,"120/20 Thích Quảng Đức, P. 5",17,179686,2,7.534,95,0,27,92,72972,12,10.807055,106.6802259999999
/ho-chi-minh/mi-han-quoc-nguyen-van-troi/binh-luan,Mì Hàn Quốc - Nguyễn Văn Trỗi,"96 Nguyễn Văn Trỗi, P. 8",17,22,2,7.056,315,0,69,189,72180,43,10.796767,106.673679
/ho-chi-minh/lamda-sinh-to-nuoc-ep-sinh-to-nuoc-ep-157-nguyen-dinh-chinh-p-11-q-phu-nhuan-tp-hcm.bmaze9/binh-luan,LAMDA - Sinh Tố & Nước Ép - 157 Nguyễn Đình Chính,"157 Nguyễn Đình Chính, P. 11",17,1000058214,2,0.0,0,0,0,0,2,0,10.7937178,106.6737524
/ho-chi-minh/quan-test-hoa-hong/binh-luan,Quán Test - Hoa Hồng,"10 Hoa Hồng, P. 7",17,1150892,2,0.0,0,0,0,0,0,0,10.7967415652534,106.6915742399684
/ho-chi-minh/an-vat-xu-so-panda-chan-vit-cay-tu-xuyen/binh-luan,Ăn Vặt Xứ Sở Panda - Chân Vịt Cay Tứ Xuyên,"170E/2 Phan Đăng Lưu, P. 3",17,1150840,2,0.0,0,0,0,0,4,0,10.8010881472283,106.6820851915978
/ho-chi-minh/quan-test-phan-xich-long/binh-luan,Quán Test - Phan Xích Long,"200 Phan Xích Long, P. 2",17,1150623,2,0.0,0,0,0,0,0,0,10.7978530008058,106.6893917522684
/ho-chi-minh/quan-test-hoa-tra/binh-luan,Quán Test - Hoa Trà,"10 Hoa Trà, P.7",17,1150622,2,0.0,0,0,0,0,1,0,10.7978784,106.6913857
/ho-chi-minh/quan-test-hoa-mai/binh-luan,Quán Test - Hoa Mai,"10 Hoa Mai, P. 2",17,1150621,2,0.0,0,0,0,0,0,0,10.7974689646151,106.6876297516166
/ho-chi-minh/dua-tac-chi-tu-dang-van-ngu/binh-luan,Dừa Tắc Chị Tư - Đặng Văn Ngữ,"171 Đặng Văn Ngữ, P. 14",17,1150591,2,0.0,0,0,0,0,1,0,10.791403,106.6672127
/ho-chi-minh/ca-vien-chien-anh-3-gau-ca-vien-sot-mam-bo-toi-truong-sa/binh-luan,Cá Viên Chiên Anh 3 Gấu - Cá Viên Sốt Mắm Bơ Tỏi - Trường Sa,"464/4 Trường Sa, P. 2",17,1150483,2,0.0,0,0,0,0,1,0,10.79668,106.684463
/ho-chi-minh/duyen-quan-test/binh-luan,Duyên - Quán Test,"10 Hoa Sữa, P. 7",17,1150463,2,0.0,0,0,0,0,0,0,10.7980617,106.691458
/ho-chi-minh/2n-detox-sinh-to-rau-xanh/binh-luan,2N Detox - Sinh Tố Rau Xanh,"43 Cù Lao, Phường 2, Phú Nhuận, TP. HCM",17,1150446,2,0.0,0,0,0,0,1,0,10.7973113,106.6867506
/ho-chi-minh/tra-sua-hong-tran-huy-lieu/binh-luan,Trà Sữa HONG - Trần Huy Liệu,"115 Trần Huy Liệu, P. 11",17,1150436,2,0.0,0,0,0,0,4,0,10.7938149,106.6777907
/ho-chi-minh/loki-tea-coffee/binh-luan,Loki - Tea & Coffee,"270/83 Phan Đình Phùng, P. 1",17,1046879,2,10.0,12,0,1,1,62,1,10.797993,106.683027
/ho-chi-minh/na-tra-milk-tea/binh-luan,Na Trà Milk Tea,"19Bis Trương Quốc Dung, P. 8",17,1021784,2,10.0,5,0,2,0,98,1,10.7985,106.672895
/ho-chi-minh/com-trua-bun-rieu-thich-quang-duc/binh-luan,Cơm Trưa & Bún Riêu - Thích Quảng Đức,"138 Thích Quảng Đức, P. 4",17,1035418,2,10.0,11,0,2,1,146,0,10.807374,106.679939
/ho-chi-minh/quan-tia-chop-hu-tieu-xao-com-chien/binh-luan,Quán Tia Chớp - Hủ Tiếu Xào & Cơm Chiên,"74 Cô Giang, P. 2",17,246419,2,10.0,0,0,1,6,926,3,10.79616,106.6836579999999
/ho-chi-minh/an-vat-xuka-28-15-huynh-van-banh.uynwiz/binh-luan,ĂN VẶT XUKA - 28/15 Huỳnh Văn Bánh,"28/15 Huỳnh Văn Bánh, P. 15",17,1000043870,2,10.0,15,0,1,0,32,1,10.7954509,106.6816898
/ho-chi-minh/chep-sua-tu-hat-co-bac/binh-luan,Chép - Sữa Từ Hạt - Cô Bắc,"20/13 Cô Bắc, P. 1",17,1036618,2,10.0,1,0,1,1,146,1,10.796018,106.682569
/ho-chi-minh/napoli-coffee-truong-sa/binh-luan,Napoli Coffee - Trường Sa,"420 Trường Sa, P. 2",17,203413,2,10.0,10,0,1,0,527,1,10.797046,106.685556
/ho-chi-minh/xoi-chien-23-nguyen-cong-hoan/binh-luan,Xôi Chiên - 23 Nguyễn Công Hoan,"23 Nguyễn Công Hoan, P. 7",17,1129075,2,10.0,0,0,4,1,54,0,10.8016616,106.6912308
/ho-chi-minh/tra-sua-ha-cao-xiu-mai/binh-luan,Trà Sữa & Há Cảo Xíu Mại,"003 Chung Cư A2 Phan Xích Long, Phan Xích Long, P. 2",17,717787,2,10.0,8,0,1,4,473,0,10.7991957,106.6869084
/ho-chi-minh/co-6-bun-thit-nuong/binh-luan,Cô 6 - Bún Thịt Nướng Phú Nhuận,"270/124 Phan Đình Phùng, P. 1",17,947401,2,10.0,7,0,1,3,282,0,10.7972765,106.6813162
/ho-chi-minh/com-tam-chi-cam-nguyen-dinh-chinh/binh-luan,Cơm Tấm Chị Cám - Nguyễn Đình Chính,2 Nguyễn Đình Chính,17,1040327,2,10.0,0,0,1,2,226,1,10.797119,106.67999
/ho-chi-minh/phuong-vy-hu-tieu-com-chien-pha-lau/binh-luan,"Phương Vy - Hủ Tiếu, Cơm Chiên & Phá Lấu","21A Trần Khắc Chân, P. 15",17,948265,2,10.0,10,0,1,2,154,0,10.797768,106.679547
/ho-chi-minh/bun-dau-cau-go/binh-luan,Bún Đậu Cầu Gỗ - Phan Xích Long,"444 Phan Xích Long, P. 2",17,27578,2,5.236,629,0,274,47,35790,53,10.800738,106.684463
/ho-chi-minh/an-vat-ca-vien-chien/binh-luan,Cá Viên Chiên 176 - Đặng Văn Ngữ,176 Đặng Văn Ngữ,17,72852,2,6.398,708,0,203,449,47947,78,10.790815,106.666715
/ho-chi-minh/an-quan-mi-tron-an-vat-mon-hue/binh-luan,"An Quán - Mì Trộn, Ăn Vặt & Món Huế","8 Hoàng Minh Giám, P. 9",17,982492,2,8.834,57,2,129,389,5734,52,10.8097913,106.6741318
/ho-chi-minh/mi-quang-tron-nguyen-kiem/binh-luan,Mì Quảng Trộn - Hồng Hà,"129 Hồng Hà, P. 9",17,120401,2,7.222,120,0,46,375,70146,28,10.80867,106.6769936
/ho-chi-minh/sup-cua-nha-tho-duc-ba/binh-luan,Súp Cua Nhà Thờ Đức Bà,"16/20 Lê Quý Đôn, P. 12",17,47939,2,6.684,307,0,121,353,65797,68,10.7911445,106.6795903
/ho-chi-minh/zoi-zoi-tea-hoang-sa/binh-luan,Zoi Zoi Tea - Hoàng Sa,"1163 Hoàng Sa, P. 5",17,1084603,2,0.0,0,0,0,0,13,0,10.790595,106.6663117
/ho-chi-minh/hai-hello-nuoc-ep-trai-cay-tuoi-ca-phe-truong-sa/binh-luan,Hai Hello - Nước Ép Trái Cây Tươi & Cà Phê - Trường Sa,"1256 Trường Sa, P. 14",17,1000032398,2,0.0,0,0,0,0,26,0,10.7909617,106.6663586
/ho-chi-minh/mo-mo-food-banh-mi-thuc-pham-tuoi/binh-luan,Mỡ Mỡ Food - Bánh Mì & Thực Phẩm Tươi,"184/3 Đặng Văn Ngữ, P. 14",17,1087289,2,0.0,0,1,0,1,53,0,10.7910866,106.6666515
/ho-chi-minh/cafe-nha-hang-chu/binh-luan,Cafe Nhà Hàng Chu,"33/1D Đặng Văn Ngữ, P. 10",17,636748,2,8.866,68,0,3,11,2150,2,10.790727,106.666703
/ho-chi-minh/a-e-coffee-dang-van-ngu/binh-luan,A & E Coffee - Đặng Văn Ngữ,"186 Đặng Văn Ngữ, P. 14",17,900369,2,0.0,1,0,0,0,37,0,10.790881,106.666759
/ho-chi-minh/tra-sua-tran-chau-orange/binh-luan,Trà Sữa Trân Châu Orange,"184 Đặng Văn Ngữ, P. 14",17,101675,2,7.0,5,0,2,0,516,2,10.79087,106.6668
/ho-chi-minh/ca-vien-chien-176-dang-van-ngu/binh-luan,Cá Viên Chiên 176 - Đặng Văn Ngữ,176 Đặng Văn Ngữ,17,1089195,2,0.0,0,0,0,0,25,0,10.7912961,106.666862
/ho-chi-minh/tra-sua-cafe-175/binh-luan,Trà Sữa & Cafe 175,"175 Đặng Văn Ngữ, P. 14",17,791036,2,0.0,1,0,0,0,37,0,10.790925,106.666847
/ho-chi-minh/banh-trang-nuong-176-dang-van-ngu/binh-luan,Bánh Tráng Nướng - 176 Đặng Văn Ngữ,"176/6 Đặng Văn Ngữ, P. 14",17,1032980,2,9.52,10,0,5,7,176,2,10.791332,106.666905
/ho-chi-minh/tra-thao-moc-thien-huong/binh-luan,Trà Thảo Mộc Thiên Hưởng,"180 Đặng Văn Ngữ, P. 14",17,689027,2,0.0,10,0,0,0,76,0,10.791027,106.6668941
/ho-chi-minh/bot-chien-binh-dan-dang-van-ngu/binh-luan,Bột Chiên Bình Dân - Đặng Văn Ngữ,"176/3 Đặng Văn Ngữ , P. 14",17,212697,2,7.3,8,0,4,5,710,2,10.7912199,106.66691
/ho-chi-minh/sup-cua-moc-dang-van-ngu/binh-luan,Súp Cua Mộc - Đặng Văn Ngữ,"115 Đặng Văn Ngữ, P. 14",17,1021885,2,6.712,8,0,7,3,807,0,10.792326,106.667973
/ho-chi-minh/com-tam-may-truong-quoc-dung/binh-luan,Cơm Tấm Mây - Trương Quốc Dung,"74/26 Trương Quốc Dung, P. 10",17,1041127,2,7.58,16,0,10,3,553,0,10.795001,106.672219
/ho-chi-minh/bep-xanh-com-ga-banh-hoi-nguyen-van-troi/binh-luan,Bếp Xanh - Cơm Gà & Bánh Hỏi - Nguyễn Văn Trỗi,"164A Nguyễn Văn Trỗi, P. 8",17,693831,2,5.734,86,0,52,27,6738,9,10.799217,106.670051
/ho-chi-minh/ganh-banh-trang/binh-luan,Gánh Bánh Tráng,"270/4/1 Phan Đình Phùng, P. 1",17,939113,2,5.65,27,0,20,45,4549,1,10.797473,106.682059
/ho-chi-minh/be-hai-tra-tea-coffee-togo-phung-van-cung/binh-luan,"Bé Hai Trà - Tea, Coffee & Togo - Phùng Văn Cung","121 Phùng Văn Cung, P. 2",17,972348,2,7.232,22,0,12,7,5145,3,10.803036,106.684747
/ho-chi-minh/quan-thuy-pho-bun-bo/binh-luan,Quán Thủy - Phở & Bún Bò,"20/76 Cô Bắc, P. 1",17,950209,2,0.0,0,1,0,1,475,0,10.797292,106.6833117
/ho-chi-minh/banh-trang-top-mo-sot-me-trung-them-gi-cung-co-phan-dinh-phung/binh-luan,Bánh Tráng Tóp Mỡ Sốt Me Trứng - Thèm Gì Cũng Có - Phan Đình Phùng,"327 Phan Đình Phùng, P. 15",17,1114043,2,0.0,0,55,0,16,368,0,10.7982837,106.6805309
/ho-chi-minh/quan-co-dieu-banh-canh-cua/binh-luan,Cô Diệu - Bánh Canh Cua - Nguyễn Kiệm,"712 Nguyễn Kiệm, P. 4",17,93031,2,6.62,138,0,32,33,6316,9,10.80728,106.67853
/ho-chi-minh/moc-vi-quan-mi-quang-com-dia-nong-phan-xich-long/binh-luan,Mộc Vị Quán - Mì Quảng & Cơm Dĩa Nóng - Phan Xích Long,"001 Chung Cư A2, 348 Phan Xích Long",17,713183,2,7.618,423,1,115,120,6681,8,10.799283,106.686522
/ho-chi-minh/am-thuc-239/binh-luan,Ẩm Thực 239,"239 Nguyễn Trọng Tuyển, P. 8",17,852852,2,0.0,2,2,0,0,564,0,10.797725,106.673686
/ho-chi-minh/sado-chado-am-thuc-a-au-hoa-su/binh-luan,Sado Chado - Ẩm Thực Á Âu - Hoa Sứ,"46Bis Hoa Sứ, P. 2",17,790638,2,7.8,13,0,3,3,269,0,10.797575,106.688387
/ho-chi-minh/the-pizza-company-phan-xich-long/binh-luan,The Pizza Company - Phan Xích Long,"355 Phan xích Long, P. 1",17,189749,2,7.25,1248,0,192,72,15231,59,10.8011938,106.6831597
/ho-chi-minh/chasu-sinh-to-sua-chua-nep-cam-trai-cay-tuoi/binh-luan,Chasu - Sinh Tố Sữa Chua Nếp Cẩm & Trái Cây Tươi,"95 Hồ Văn Huê, P. 9",17,945951,2,9.156,175,0,126,114,1885,15,10.8042259,106.67732
/ho-chi-minh/co-ut-sai-gon-com-chay-cha-bong/binh-luan,Cô Út Sài Gòn - Cơm Cháy Chà Bông,"62 Phan Tây Hồ, P. 7",17,1042716,2,8.384,370,0,108,194,1489,11,10.801818,106.687512
/ho-chi-minh/kem-bud-s-phan-xich-long/binh-luan,Kem BUD’S - Phan Xích Long,"176 - 178 Phan Xích Long, P. 2",17,4328,2,6.694,380,0,78,55,16947,40,10.798087,106.688651
/ho-chi-minh/an-vat-ba-tron-phan-xich-long/binh-luan,Ăn Vặt Ba Tròn - Phan Xích Long,"016 Chung Cư A3 Phan Xích Long, P. 7",17,73169,2,6.796,590,0,108,238,36485,34,10.7993169,106.6870707
/ho-chi-minh/xoi-to-go-giao-hang-tan-noi/binh-luan,Xôi To Go - Giao Hàng Tận Nơi,"71A Duy Tân, P. 15",17,80579,2,6.192,311,0,78,342,70029,47,10.795526,106.680277
/ho-chi-minh/oasis-cafe-le-van-sy/binh-luan,Oasis Cafe,"176/1B Lê Văn Sỹ, P. 10",17,628039,2,5.978,776,0,92,118,36854,22,10.792731,106.670895
/ho-chi-minh/chang-modern-thai-cuisine-phan-xich-long/binh-luan,Chang - Modern Thai Cuisine - Phan Xích Long,"347 Phan Xích Long, P. 1",17,1021093,2,8.37,821,0,81,35,4383,21,10.801259,106.683394
/ho-chi-minh/com-ga-singapore-99/binh-luan,Cơm Gà Singapore 99 - Chicken Rice - Trần Huy Liệu,140/9 Trần Huy Liệu,17,743149,2,6.89,578,0,91,93,9361,14,10.7978443,106.677696
/ho-chi-minh/isushi-buffet-nhat-ban-phan-xich-long/binh-luan,Isushi Buffet Nhật Bản - Phan Xích Long,"191 Phan Xích Long, P. 2",17,1069862,2,8.554,96,0,33,2,1306,2,10.8010641,106.683869
/ho-chi-minh/pizza-hut-phan-xich-long/binh-luan,Pizza Hut - Phan Xích Long,"93 Phan Xich Long, P. 2",17,4162,2,7.022,1736,0,198,56,25369,58,10.797212,106.690719
/ho-chi-minh/hu-tieu-so-5-phung-van-cung/binh-luan,Hủ Tiếu Số 5 Phùng Văn Cung,"5 Phùng Văn Cung, P. 3",17,1059785,2,0.0,0,0,0,0,40,0,10.799755,106.686083
/ho-chi-minh/sup-thu-thao-phung-van-cung/binh-luan,Súp Thu Thảo - Phùng Văn Cung,"108A Phùng Văn Cung, P. 3",17,948263,2,8.09,10,0,11,5,192,0,10.801872,106.684616
/ho-chi-minh/hu-tieu-bo-vien-a-kem/binh-luan,Hủ Tiếu Bò Viên A Kẽm,"474B Huỳnh Văn Bánh, P. 14",17,37322,2,6.36,16,0,5,18,3181,3,10.792154,106.668572
/ho-chi-minh/bun-rieu-canh-bun-82-truong-quoc-dung/binh-luan,Bún Riêu & Canh Bún 82 - Trương Quốc Dung,"15/2B Trương Quốc Dung, P. 8",17,1141068,2,0.0,0,0,0,0,16,0,10.79832,106.6732
/ho-chi-minh/binmi-tofu-tau-hu-lanh-tra-sua-ho-van-hue/binh-luan,Binmi Tofu - Tàu Hủ Lạnh & Trà Sữa - Hồ Văn Huê,"135 Hồ Văn Huê, P. 9",17,1133195,2,0.0,0,0,0,0,27,0,10.8052124,106.6778383
/ho-chi-minh/co-thuy-lo-banh-mi/binh-luan,Cô Thúy - Lò Bánh Mì,59 Hoa Sứ,17,285592,2,8.598,30,0,6,24,1300,3,10.799035,106.691366
/ho-chi-minh/quan-thao-bun-nuoc/binh-luan,Quán Thảo - Bún Nước,"30 Hoa Sữa, P. 7",17,221309,2,4.25,32,0,20,50,44310,3,10.798494,106.691409
/ho-chi-minh/nha-hang-thit-nuong-nhat-ban-hinomaru-phan-xich-long/binh-luan,Nhà Hàng Thịt Nướng Nhật Bản Hinomaru - Phan Xích Long,"412 Phan Xích Long, P. 3",17,1130275,2,0.0,0,0,0,0,71,0,10.8039365004704,106.6816255578722
/ho-chi-minh/banh-mi-pate-gia-lai-benri-bread-thich-quang-duc/binh-luan,Bánh Mì Pate Gia Lai Benri Bread - Thích Quảng Đức,"107 Thích Quảng Đức, P. 4",17,1146963,2,0.0,0,0,0,0,6,0,10.8057408,106.6818727
/ho-chi-minh/ngoc-anh-banh-mi-ha-noi-69-huynh-van-banh/binh-luan,Ngọc Ánh - Bánh Mì Hà Nội - 69 Huỳnh Văn Bánh,"69 Huỳnh Văn Bánh, P. 17",17,1039283,2,0.0,0,0,0,0,76,0,10.794327,106.681117
/ho-chi-minh/den-da-cafe-tra-sua-tra-dao-phan-xich-long/binh-luan,Đen Đá Cafe - Trà Sữa & Trà Đào - Phan Xích Long,"277 - 279 Phan Xích Long, P. 2",17,678296,2,6.272,754,0,181,45,14586,28,10.80028,106.684458
/ho-chi-minh/hu-tiu-mai/binh-luan,Hủ Tíu Mai,"120/29/5 Thích Quảng Đức, P. 4",17,1069327,2,0.0,0,0,0,0,50,0,10.807137,106.68021
/ho-chi-minh/thuy-duong-banh-mi-kebab-sua-tuoi/binh-luan,Thuỳ Dương - Bánh Mì Kebab & Sữa Tươi,"98 Huỳnh Văn Bánh, P. 15",17,1038268,2,0.0,0,0,0,0,43,0,10.7935592,106.6803194
/ho-chi-minh/sashimi-sushi-envy-nguyen-thuong-hien/binh-luan,Sashimi & Sushi Envy - Nguyễn Thượng Hiền,"310 Nguyễn Thượng Hiền, P. 5",17,1121927,2,0.0,0,1,0,1,64,0,10.8059636,106.6854029
/ho-chi-minh/trai-cay-chi-thao-phung-van-cung/binh-luan,Trái Cây Chị Thảo - Phùng Văn Cung,"50/12 Phùng Văn Cung, P. 7",17,1141982,2,0.0,0,0,0,0,6,0,10.8009195,106.6858107
/ho-chi-minh/co-tuyet-bun-dau-sinh-to/binh-luan,Cô Tuyết - Bún Đậu & Sinh Tố,"502 Trường Sa, P. 2",17,979470,2,9.5,2,0,2,1,159,0,10.795683,106.684455
/ho-chi-minh/an-vat-alagi-chan-ga-sa-tac-phan-xich-long/binh-luan,Ăn Vặt ALAGI - Chân Gà Sả Tắc - Phan Xích Long,"257/18 Phan Xích Long, P. 2",17,1000033435,2,0.0,0,0,0,0,33,0,10.798687,106.685302
/ho-chi-minh/xoi-ga-xa-xiu-phan-dinh-phung/binh-luan,Xôi Gà Xá Xíu - Phan Đình Phùng,266 Phan Đình Phùng,17,736750,2,7.6,21,3,6,12,1235,0,10.7950625,106.6827027
/ho-chi-minh/hue-anh-bot-chien-ha-cao/binh-luan,Huế Anh - Bột Chiên & Há Cảo,"1162/50 Trường Sa, P. 13",17,960720,2,0.0,0,1,0,1,154,1,10.789597,106.669928
/ho-chi-minh/tra-sua-gmi-house/binh-luan,Trà Sữa GMi House,"73 Nguyễn Đình Chiểu , P. 4",17,654634,2,8.16,26,0,5,8,853,1,10.803999,106.681036
/ho-chi-minh/wantacup-coffee-shop-truong-sa/binh-luan,Wantacup Coffee Shop - Trường Sa,"450 Trường Sa, P. 2",17,1129868,2,0.0,0,0,0,0,28,0,10.7969299623766,106.6846622288541
/ho-chi-minh/az-tra-sua-che-khuc-bach-thich-quang-duc/binh-luan,AZ - Trà Sữa & Chè Khúc Bạch - Thích Quảng Đức,"100A Thích Quảng Đức, P. 5",17,1129928,2,0.0,0,0,0,0,54,0,10.80653,106.68101
/ho-chi-minh/che-ngon-co-ba-phan-xich-long/binh-luan,Chè Ngon Cô Ba - Phan Xích Long,"397 Phan Xích Long, P. 3",17,1128361,2,8.0,1,0,4,0,192,0,10.8028417,106.6821274
/ho-chi-minh/banh-mi-nguyen/binh-luan,Bánh Mì Nguyễn,"60A Phan Đăng Lưu, P. 5",17,111355,2,6.312,29,0,11,19,13762,10,10.8040080960064,106.6859295423278
/ho-chi-minh/little-saigon-293e-phan-xich-long/binh-luan,Little Saigon - 293E Phan Xích Long,"293E Phan Xích Long, P. 2",17,1126706,2,0.0,0,0,0,0,29,0,10.7996655,106.684802
/ho-chi-minh/ozzie-chicken-ga-ran/binh-luan,OZZIE CHICKEN - Gà Rán,"344 Huỳnh Văn Bánh, P. 10",17,1125640,2,0.0,0,0,0,0,48,0,10.79193,106.671758
/ho-chi-minh/thit-xien-nuong-ma-nhe-bun-thit-nuong/binh-luan,Thịt Xiên Nướng Mà Nhê - Bún Thịt Nướng,"586 Trường Sa, P. 2",17,1124639,2,0.0,0,2,0,0,97,0,10.7932225,106.6858409
/ho-chi-minh/the-joint-coffee-milk-tea-hong-ha/binh-luan,The Joint Coffee & Milk Tea - Hồng Hà,"127 Hồng Hà, P. 9",17,1121522,2,0.0,0,0,0,0,51,0,10.8098532,106.6729081
/ho-chi-minh/key-food-diem-tam-com-van-phong/binh-luan,Key Food - Điểm Tâm & Cơm Văn Phòng,"86/12 Nguyễn Văn Trỗi, P. 8",17,1123023,2,0.0,0,0,0,0,63,0,10.796811,106.6745323
/ho-chi-minh/le-ble-bakery-phan-dinh-phung/binh-luan,Le Blé Bakery - Phan Đình Phùng,"248 Phan Đình Phùng, P. 1 ",17,1121685,2,0.0,0,0,0,0,38,0,10.7968658,106.6815085
/ho-chi-minh/bep-cua-kiet-phan-xich-long/binh-luan,BẾP CỦA KIỆT - PHAN XÍCH LONG,"06 Lô A3 Phan Xích Long, P. 7",17,1120991,2,0.0,0,1,0,0,42,0,10.7993885503216,106.6873096590353
/ho-chi-minh/cococake-banh-bo-thot-not-nuong-lo-banh/binh-luan,Bánh Bò Thốt Nốt COCOCake - Lò Bánh Huỳnh Văn Bánh,"65A Huỳnh Văn Bánh, P. 17",17,692640,2,8.056,111,0,52,177,13006,5,10.7945162,106.6811357
/ho-chi-minh/nhi-quan-com-van-phong-220-22-nguyen-trong-tuyen/binh-luan,Nhí Quán - Cơm Gà,"220/22 Nguyễn Trọng Tuyển, P. 8",17,1018318,2,7.4,11,1,1,0,187,0,10.798607,106.673672
/ho-chi-minh/pho-ga-trang-an/binh-luan,Tràng An - Phở Gà & Cháo Lòng,"182 Phan Xích Long, P. 7",17,212103,2,7.44,164,0,29,43,3401,4,10.797883,106.6888591
/ho-chi-minh/tra-sua-tiger-sugar-delivery-duong-nau-sua-dai-loan-phan-dang-luu/binh-luan,Trà Sữa Tiger Sugar Delivery - Đường Nâu Sữa Đài Loan - Phan Đăng Lưu,82 Phan Đăng Lưu,17,964161,2,6.75,33,0,19,4,1370,4,10.804045,106.68548
/ho-chi-minh/bep-me-nau-com-chien-com-van-phong-shop-online/binh-luan,Bếp Mẹ Nấu - Cơm Chiên & Cơm Văn Phòng - Shop Online,"58/42 Huỳnh Văn Bánh, P. 15",17,862034,2,8.26,79,0,32,73,3128,4,10.794833,106.6802619999999
/ho-chi-minh/mi-quang-thu-bon-nguyen-trong-tuyen/binh-luan,Mì Quảng Thu Bồn - Nguyễn Trọng Tuyển,"182/1 Nguyễn Trọng Tuyển, P. 8",17,44706,2,6.868,117,0,23,37,5307,6,10.797831,106.675096
/ho-chi-minh/tokyo-deli-phan-xich-long/binh-luan,Tokyo Deli Express - Sushi - Phan Xích Long,"242 - 244 Phan Xích Long, P. 7",17,35120,2,7.476,1628,0,240,98,28371,61,10.798023,106.689607
/ho-chi-minh/thai-express-mon-thai-phan-xich-long/binh-luan,Thai Express - Món Thái - Phan Xích Long,"158 Phan Xích Long, P. 2",17,78127,2,6.804,889,0,160,102,32286,38,10.7986249,106.687967
/ho-chi-minh/tra-sua-bobapop/binh-luan,Trà Sữa Bobapop - Phan Xích Long,"273 Phan Xích Long, P. 2",17,49031,2,6.438,560,0,232,157,61713,60,10.799916,106.684965
/ho-chi-minh/cong-caphe-truong-sa/binh-luan,Cộng Cà Phê - Trường Sa,336 Trường Sa,17,217378,2,7.034,1346,0,210,87,20128,47,10.79628,106.690865
/ho-chi-minh/ryucha-tra-sua-nhat-ban/binh-luan,Ryucha - Japanese Tea & Juice - Phan Xích Long,"329 Phan Xích Long, P. 1",17,708147,2,7.658,1568,0,250,63,11161,14,10.800642,106.684013
/ho-chi-minh/efruit-trai-cay-tuoi-tu-nhien-cach-mang-thang-8/binh-luan,Efruit - Trái Cây Tươi Tự Nhiên,"388 Huỳnh Văn Bánh, P. 14",17,38544,2,6.644,856,0,144,329,68656,43,10.791817,106.669992
/ho-chi-minh/huyen-bun-nuoc-hem-49/binh-luan,Huyền - Bún Nước & Mì Cay Muối Ớt,"38 Nguyễn Công Hoan, P. 7",17,121709,2,3.264,287,0,178,257,68304,48,10.801117,106.69085
/ho-chi-minh/bun-thit-nuong-anh-ba/binh-luan,Bún Thịt Nướng Anh Ba,"126 Lê Văn Sỹ, P. 10",17,1123,2,6.28,361,0,117,109,64632,35,10.792053,106.671506
/ho-chi-minh/buffet-cafe-saigon-eastin-grand-hotel-saigon/binh-luan,Buffet Cafe Saigon - Eastin Grand Hotel Saigon,253 Nguyễn Văn Trỗi ,17,26356,2,7.714,1027,0,43,88,63959,10,10.796733,106.673464
/ho-chi-minh/open-share-cafe/binh-luan,Open Share Cafe,"158/12 Trần Huy Liệu, P. 15",17,39644,2,5.456,79,0,33,63,61671,20,10.7982030878517,106.6776376962661
/ho-chi-minh/bap-rang-be-bo/binh-luan,Bắp Rang Bé Bơ,"76 Phùng Văn Cung, P. 7",17,201400,2,7.376,98,0,27,76,60965,8,10.800916,106.685284
/ho-chi-minh/bep-chi-ty-bun-dau-bun-cha-chao-long-phan-xich-long/binh-luan,"Bếp Chị Tý - Bún Đậu, Bún Chả & Cháo Lòng - Phan Xích Long","410 Phan Xích Long, P. 2",17,1150344,2,0.0,0,2,0,1,1,0,10.8007875,106.6841944
/ho-chi-minh/ga-ta-tuong-vy-com-ga-chao-goi-ga-thich-quang-duc/binh-luan,"Gà Ta Tường Vy - Cơm Gà, Cháo & Gỏi Gà - Thích Quảng Đức","32 Thích Quảng Đức, P. 5",17,1150303,2,0.0,0,0,0,0,14,0,10.8048977,106.6833796
/ho-chi-minh/cua-86-hai-san-tuoi-86-6-phan-tay-ho/binh-luan,Cua 86 - Hải Sản Tươi - 86/6 Phan Tây Hồ,"86/6 Phan Tây Hồ, P. 7",17,1000057911,2,0.0,0,0,0,0,5,0,10.801127,106.688483
/ho-chi-minh/banh-trang-tron-tra-sua-tin-tin-banh-trang-tron-tra-sua-142-5-co-giang.jzxjyb/binh-luan,Bánh Tráng Trộn Trà Sữa Tin Tin - Bánh Tráng Trộn & Trà Sữa - 142/5 Cô Giang,"142/5 Cô Giang, P. 2",17,1000057858,2,0.0,0,0,0,0,1,0,10.7968495,106.6841295
/ho-chi-minh/co-ngoc-quan-hu-tieu-muc-hu-tieu-nam-vang-43b-ho-van-hue/binh-luan,Cô Ngọc Quán - Hủ Tiếu Mực & Hủ Tiếu Nam Vang - 43B Hồ Văn Huê,"43B Hồ Văn Huê, P. 9",17,1149909,2,0.0,0,0,0,0,1,0,10.8028838,106.6768352
/ho-chi-minh/ga-ran-kfc-thich-quang-duc/binh-luan,Gà Rán KFC - Thích Quảng Đức,"87 Thích Quảng Đức, P. 4",17,1149796,2,0.0,0,0,0,0,2,0,10.8054962573378,106.68220385582
/ho-chi-minh/chang-hi-che-ngon-sang-tao-300-phan-xich-long/binh-luan,Chang Hi - Chè Ngon Sáng Tạo - 300 Phan Xích Long,"300 Phan Xích Long, P. 2",17,1149767,2,0.0,0,0,0,0,5,0,10.7972345,106.6917407
,AMIGO BEERHOUSE,32 Phùng Văn Cung Phường 7,17,1149739,2,9.4,13,0,1,0,0,1,10.800083,106.685903
/ho-chi-minh/cornerstone-cafe-ca-phe-hoa-cau.mugr92/binh-luan,CornerStone Cafe - Cà Phê - Hoa Cau,"60 Đường Hoa Cau, P. 7",17,1000057755,2,0.0,0,0,0,0,9,0,10.7993966,106.6896019
/ho-chi-minh/ma-tu-dac-san-trang-bang-huynh-van-banh/binh-luan,Má Tư - Đặc Sản Trảng Bàng - Huỳnh Văn Bánh,"65 Huỳnh Văn Bánh, P. 17",17,1149468,2,10.0,0,0,1,0,3,0,10.794417,106.681146
/ho-chi-minh/ao-ho-vietnamese-fast-food-ho-van-hue/binh-luan,Ao Hồ - Vietnamese Fast Food - Hồ Văn Huê,"77 Hồ Văn Huê, P. 9",17,1149467,2,0.0,0,0,0,0,5,0,10.803754,106.677149
/ho-chi-minh/ikigai-sushi-236-nguyen-trong-tuyen/binh-luan,Ikigai Sushi - 236 Nguyễn Trọng Tuyển,"236 Nguyễn Trọng Tuyển, P. 8",17,1000057572,2,0.0,0,0,0,0,2,0,10.7979088,106.673368
/ho-chi-minh/bep-cua-chou-nguyen-van-dau/binh-luan,Bếp Của Chou - Nguyễn Văn Đậu,"40B1 Nguyễn Văn Đậu, P. 5",17,1029958,2,10.0,0,1,1,2,106,1,10.8058002,106.6871858
/ho-chi-minh/pizza-mix-shop-online/binh-luan,Pizza Mix - Shop Online,2/26 Cô Giang P. 2,17,217572,2,10.0,7,0,1,2,317,0,10.795438,106.683281
/ho-chi-minh/nab-coffee/binh-luan,Nab Coffee,"345 Phan Xích Long, P. 1",17,953627,2,10.0,0,0,1,1,313,1,10.80126,106.683384
/ho-chi-minh/com-tam-gia-thuan/binh-luan,Cơm Tấm Gia Thuận,"72 Đào Duy Anh, P. 9",17,166219,2,10.0,0,0,1,1,1625,1,10.806749,106.6762089999999
/ho-chi-minh/coffeedy-ca-phe-tra-nuoc-ep-da-xay-phan-xich-long/binh-luan,"Coffeedy - Cà Phê, Trà, Nước Ép, Đá Xay - Phan Xích Long","301 Phan Xích Long, P. 1",17,1079037,2,10.0,2,0,1,0,62,1,10.8006619,106.6837385
/ho-chi-minh/diem-tam-sang-bun-mi/binh-luan,Điểm Tâm Sáng - Bún & Mì,"251 Thích Quảng Đức, P. 4",17,722105,2,10.0,5,0,1,2,240,0,10.8080973,106.6789141
/ho-chi-minh/an-vat-meow-tran/binh-luan,Ăn Vặt Meow Trần,"671/6A Nguyễn Kiệm, P. 9",17,1046745,2,10.0,1,0,1,0,43,1,10.808798,106.677429
/ho-chi-minh/nutrideli-healthy-f-b-phan-dinh-phung.3yen9v/binh-luan,NUTRIDELI - Healthy F&B - Phan Đình Phùng,"185/29 Phan Đình Phùng, P. 17",17,1000024323,2,10.0,2,1,2,0,76,0,10.7945896510632,106.6825281633524
/ho-chi-minh/rama-coffee-coffee-food-nguyen-van-troi.hu7jdw/binh-luan,Rama Coffee - Coffee & Food - Nguyễn Văn Trỗi,"86/12 Nguyễn Văn Trỗi, P. 8",17,1000023070,2,10.0,31,0,1,0,27,0,10.796757,106.674535
/ho-chi-minh/co-hai-banh-trang-tom/binh-luan,Cô Hải - Bánh Tráng Tôm,"243/1 Phan Đình Phùng ,P. 15",17,932969,2,10.0,3,3,1,2,92,0,10.796367,106.681191
/ho-chi-minh/xoi-xa-xiu-dem-phan-dinh-phung/binh-luan,Xôi Xá Xíu Đêm - Phan Đình Phùng,"56 Phan Đình Phùng, P. 2",17,1022056,2,10.0,1,1,1,0,110,1,10.793962,106.684377
/ho-chi-minh/amy-food-banh-mi-com-chay-cha-bong/binh-luan,Amy Food - Bánh Mì & Cơm Cháy Chà Bông,"68A Trần Khắc Chân, P. 15",17,1039637,2,10.0,18,0,1,0,113,0,10.7988511,106.6792012
/ho-chi-minh/tra-sua-comebuy-phan-xich-long-coming-soon/binh-luan,Trà Sữa Comebuy - Phan Xích Long,"137 Phan Xích Long, P. 7",17,723538,2,8.278,969,0,204,22,5876,13,10.798479,106.6881066
/ho-chi-minh/tocotoco-bubble-tea-phan-xich-long/binh-luan,TocoToco Bubble Tea - Phan Xích Long,"280 Phan Xích Long, P. 7",17,685334,2,5.728,540,0,198,23,10938,25,10.7982551,106.6889471
/ho-chi-minh/banh-trang-cuon-co-giang/binh-luan,Bánh Tráng Cuốn Cô Giang,"D004 góc chung cư Nhiêu Tứ, Hoa Cau",17,69363,2,7.258,268,0,75,321,55385,36,10.7992133,106.688991
/ho-chi-minh/pasta-food-ban-online/binh-luan,Pasta Food,"66 Cô Giang, P. 2",17,104328,2,7.216,697,0,120,317,25144,19,10.796079,106.6835119
/ho-chi-minh/ga-nuong-cai-bang/binh-luan,Gà Nướng Cái Bang - Hồ Biểu Chánh,"48/40B Hồ Biểu Chánh, P. 11",17,652330,2,6.97,380,0,170,301,23163,26,10.792835,106.675412
/ho-chi-minh/thie-macaron-bakery/binh-luan,Thie Macaron Bakery,"20/2H Cô Bắc, P. 1",17,102508,2,7.388,191,0,31,258,18126,37,10.795897,106.68274
/ho-chi-minh/hamburger-happy-bread/binh-luan,Hamburger Happy Bread,"182 Đặng Văn Ngữ, P. 14",17,872062,2,0.0,2,0,0,0,152,0,10.791077,106.666912
/ho-chi-minh/ga-kung-fu-2-ga-nuong-com-lam-ca-nuong-dang-van-ngu/binh-luan,Gà Kung Fu 2- Gà Nướng Cơm Lam & Cá Nướng - Đặng Văn Ngữ,"176 Đặng Văn Ngữ, P. 14",17,1148763,2,9.4,1,0,1,0,9,0,10.7913751,106.6669371
/ho-chi-minh/ca-vien-chien-dang-van-ngu/binh-luan,Cá Viên Chiên - Đặng Văn Ngữ,176/6 Đặng Văn Ngữ,17,114510,2,4.92,19,0,10,11,1937,2,10.791314,106.6669359999999
/ho-chi-minh/banh-trang-nuong-dang-van-ngu/binh-luan,Bánh Tráng Nướng - Đặng Văn Ngữ,175 Đặng Văn Ngữ,17,788374,2,6.8,11,2,1,0,97,1,10.7910764273024,106.6669242829084
/ho-chi-minh/andeenow-banh-mi-chao-dang-van-ngu/binh-luan,Andeenow - Bánh Mì Chảo - Đặng Văn Ngữ,"176/6 Đặng Văn Ngữ, P. 13",17,1000024232,2,0.0,0,0,0,0,58,0,10.7915984,106.666965
/ho-chi-minh/nauxi-cafe/binh-luan,Nauxi Cafe,"174/22/1 Đặng Văn Ngữ, P. 14",17,191600,2,7.0,29,0,1,0,204,0,10.791712,106.666979
/ho-chi-minh/banh-trang-co-mai-dang-van-ngu/binh-luan,Bánh Tráng Cô Mai - Đặng Văn Ngữ,"176 Đặng Văn Ngữ, P. 14",17,676000,2,8.4,3,0,1,4,429,0,10.791175,106.666956
/ho-chi-minh/ca-phe-sai-thanh-dang-van-ngu/binh-luan,Cà Phê Sài Thành - Đặng Văn Ngữ,"176 Đặng Văn Ngữ, P. 14",17,971209,2,0.0,0,0,0,0,52,0,10.7911676564756,106.6670148074627
/ho-chi-minh/sunrise-bakery-dang-van-ngu/binh-luan,Sunrise Bakery - Đặng Văn Ngữ,"175B Đặng Văn Ngữ, P. 14",17,1056111,2,0.0,0,1,0,0,246,0,10.7910653,106.667031
/ho-chi-minh/kem-chuoi-tron/binh-luan,Kem Chuối Trộn,"174 Đặng Văn Ngữ, P. 14",17,182730,2,8.1,23,0,4,4,5709,1,10.791292,106.667048
/ho-chi-minh/m-zone-coffee/binh-luan,M Zone Coffee,"184/N Đặng Văn Ngữ, P. 14",17,871422,2,9.4,8,0,1,0,89,0,10.7910369056303,106.6670339182019
/ho-chi-minh/ga-ran-va-mi-y-jollibee-hoa-su/binh-luan,Gà rán và Mì Ý - Jollibee - Hoa Sứ,"Tầng 2, Coopmart Rạch Miễu, 48 Hoa Sứ, P. 7 ",17,4385,2,5.756,112,0,41,19,5838,11,10.798593,106.688962
/ho-chi-minh/com-chay-van-duyen-762-nguyen-kiem/binh-luan,Cơm Chay Vạn Duyên - 762 Nguyễn Kiệm,"762 Nguyễn Kiệm, P.4",17,1070328,2,0.0,0,1,0,0,124,0,10.8109393,106.6785322
/ho-chi-minh/com-tam-phuc-loc-tho-nguyen-van-troi/binh-luan,Cơm Tấm Phúc Lộc Thọ - Nguyễn Văn Trỗi,"54 Nguyễn Văn Trỗi, P. 15",17,1028616,2,5.88,12,0,5,1,593,1,10.794301,106.67796
/ho-chi-minh/bun-cha-pho-co-phan-xich-long/binh-luan,Bún Chả Phố Cổ - Phan Xích Long,"225 Phan Xích Long, P. 2",17,158812,2,7.306,481,0,114,216,58508,33,10.798953,106.686638
/ho-chi-minh/xoi-chien-hem-50-phung-van-cung/binh-luan,Xôi Chiên - Hẻm 50 Phùng Văn Cung,"50/22/4 Phùng Văn Cung, P. 7",17,687373,2,7.408,88,0,23,73,2210,8,10.801141,106.685711
/ho-chi-minh/banh-trang-tron-34-le-van-sy/binh-luan,Bánh Tráng Trộn 34 - Lê Văn Sỹ,"115/2 Lê Văn Sỹ, P. 13",17,1024299,2,2.6,2,5,1,3,803,1,10.791371,106.671852
/ho-chi-minh/highlands-coffee-nguyen-trong-tuyen/binh-luan,Highlands Coffee - Nguyễn Trọng Tuyển,"129 Nguyễn Trọng Tuyển, P. 15",17,765513,2,7.326,118,0,11,4,2675,2,10.7977084,106.6778906
/ho-chi-minh/hong-tra-ngo-gia-thich-quang-duc/binh-luan,Hồng Trà Ngô Gia - Thích Quảng Đức,"30A1 Thích Quảng Đức, P. 5",17,1122053,2,0.0,0,0,0,0,55,0,10.8046714,106.6834265
/ho-chi-minh/cheese-coffee-hoa-lan/binh-luan,Cheese Coffee - Hoa Lan,"47G Hoa Lan, P. 2",17,877370,2,6.652,1123,0,89,16,9285,5,10.796884,106.690404
/ho-chi-minh/bun-bo-hue-song-huong-nguyen-trong-tuyen/binh-luan,Bún Bò Huế Sông Hương - Nguyễn Trọng Tuyển,"225 Nguyễn Trọng Tuyển, P.8",17,32220,2,6.818,44,0,11,5,3237,3,10.797644,106.674659
/ho-chi-minh/hello-pasta-beefsteak-mi-y-phan-xich-long/binh-luan,Hello Pasta - Beefsteak - Mì Ý - Phan Xích Long,"392 Phan Xích Long, P. 2",17,632298,2,7.744,567,0,152,196,8877,36,10.8009437,106.6840895
/ho-chi-minh/tung-garden-dimsum/binh-luan,Tung Garden - Dimsum & Món Hoa,"Tầng 1 Khách Sạn Eastin Grand Sài Gòn, 253 Nguyễn Văn Trỗi",17,219856,2,7.882,987,0,61,105,45745,3,10.7966327933216,106.6727574169636
/ho-chi-minh/angolo-caffe-chung-cu-phan-xich-long/binh-luan,Angolo Caffe - Chung Cư Phan Xích Long,"A2.007 Chung Cư Phan Xích Long, P. 7",17,155497,2,7.748,502,0,63,99,51704,34,10.798846,106.687126
/ho-chi-minh/noochi-mi-ga-com-ga/binh-luan,Noochi - Mì Gà & Cơm Gà - Đào Duy Anh,"19 Đào Duy Anh, P. 9",17,948080,2,7.196,185,0,121,15,1069,44,10.8057918,106.6744095
/ho-chi-minh/kem-thien-ly/binh-luan,Kem Thiên Lý - Hoa Lan,"216 Hoa Lan, P. 2",17,755,2,6.792,407,0,50,109,58827,28,10.7986108,106.6864264999999
/ho-chi-minh/banh-9-sach-banh-sau-rieng-phan-dinh-phung/binh-luan,Bánh 9 Sạch - Bánh Sầu Riêng - Phan Đình Phùng,"337 Phan Đình Phùng, P. 15",17,1077197,2,9.942,7,0,438,13,1083,4,10.7983962,106.6804261
/ho-chi-minh/hotpot-story-phan-xich-long/binh-luan,Hotpot Story Phan Xích Long,"202 Phan Xích Long, P. 2",17,663392,2,6.51,604,0,95,33,17872,23,10.797646,106.689562
/ho-chi-minh/the-burger-corner-delivery-only/binh-luan,The Burger Corner - Delivery Only,129E Nguyễn Đình Chính,17,4901,2,7.642,452,0,56,130,21712,40,10.795215,106.677504
/ho-chi-minh/diamond-place/binh-luan,Diamond Place - Tiệc Cưới & Hội Nghị,"15A Hồ Văn Huê, P. 9",17,1028,2,7.256,404,0,39,14,25500,13,10.8008485,106.6755
/ho-chi-minh/ding-tea-cu-lao/binh-luan,Ding Tea - Cù Lao,"76 Cù Lao, P. 2",17,682897,2,6.754,392,0,105,24,6592,6,10.79658,106.688062
/ho-chi-minh/holy-crab-nha-hang-hai-san-singapore/binh-luan,Holy Crab - Nhà Hàng Hải Sản Singapore - 6 Phan Xích Long,"6 Phan Xích Long, P. 1",17,738452,2,6.866,1266,0,62,55,10547,8,10.801488,106.683096
/ho-chi-minh/xa-lach-quan-com-trua-van-phong/binh-luan,Xà Lách Quán - Cơm Trưa Văn Phòng,"164A Nguyễn Văn Trỗi, P. 8",17,291359,2,5.47,79,0,17,41,4917,9,10.798915,106.670074
/ho-chi-minh/nem-nuong-ninh-hoa-me-toi-nguyen-dinh-chinh/binh-luan,Nem Nướng Ninh Hòa Mẹ Tôi - Nguyễn Đình Chính,"62/7/25 Nguyễn Đình Chính, P. 15",17,1148942,2,0.0,0,0,0,0,1,0,10.7965269,106.6785407
/ho-chi-minh/nuoc-ep-ba-ly-phan-xich-long-hoa-hong/binh-luan,Nước Ép Bà Lý Phan Xích Long - Hoa Hồng,"75 Hoa Hồng, P. 2",17,1148007,2,0.0,0,0,0,0,1,0,10.7966601,106.6897372
/ho-chi-minh/normad-coffee-dessert-ho-bieu-chanh/binh-luan,Normad Coffee Dessert - Hồ Biểu Chánh,"28 Hồ Biểu Chánh, P. 11",17,1146937,2,0.0,0,0,0,0,8,0,10.7935072,106.6765295
/ho-chi-minh/hoa-xa-tra-tea-dessert/binh-luan,Hoả Xa Trà Tea & Dessert,547 Nguyễn Kiệm,17,1000055209,2,0.0,0,0,0,0,2,0,10.804357,106.678691
/ho-chi-minh/phuc-lam-mon-vit-quay-heo-quay-phan-xich-long/binh-luan,Phúc Lâm Môn - Vịt Quay & Heo Quay - Phan Xích Long,"198 Phan Xích Long, P. 7",17,1138647,2,0.0,0,1,0,0,30,0,10.797587,106.690385
/ho-chi-minh/gio-cha-long-tron-gio-cha-nem-chua-cao-thang/binh-luan,Giò Chả Long Tròn - Giò Chả & Nem Chua - Cao Thắng,"1 Cao Thắng, P. 17",17,1132635,2,0.0,0,0,0,0,26,0,10.7948412,106.6835332
/ho-chi-minh/bun-thai-nhi-huynh-van-banh.mltbog/binh-luan,Bún Thái Nhi - Huỳnh Văn Bánh,"379/35 Huỳnh Văn Bánh, P. 11",17,1000036998,2,0.0,0,0,0,0,2,0,10.792056,106.674575
/ho-chi-minh/do-chung-chuoi-chien-sua-tuoi-nguyen-van-dau/binh-luan,Đỗ Chung - Chuối Chiên Sữa Tươi - Nguyễn Văn Đậu,"21B Nguyễn Văn Đậu, P. 5",17,1114339,2,0.0,0,0,0,0,57,0,10.804972,106.687001
/ho-chi-minh/quan-huong-nem-nuong-cho-phu-nhuan-cao-thang/binh-luan,Quán Hương - Nem Nướng Chợ Phú Nhuận - Cao Thắng,"Kios 2-3 Chợ Phú Nhuận, Cao Thắng",17,1096305,2,0.0,0,0,0,0,7,0,10.7945245,106.6834971
/ho-chi-minh/bep-nha-56-banh-mi-ca-phe/binh-luan,Bếp Nhà 56 - Bánh Mì Chảo - Phan Đình Phùng,"53 Phan Đình Phùng, P. 17",17,1034553,2,8.95,23,0,8,12,1004,0,10.7933277,106.6848981
/ho-chi-minh/ci-cha-tra-sua-hongkong-huynh-van-banh/binh-luan,Ci Cha - Trà Sữa Hongkong - Huỳnh Văn Bánh,"279/42 Huỳnh Văn Bánh, P. 11",17,788042,2,6.578,192,0,37,11,1614,196,10.7911156,106.6753429
/ho-chi-minh/an-vat-meo-meo-banh-trang-cham-huynh-van-banh/binh-luan,Ăn Vặt Meo Meo - Bánh Tráng Chấm - Huỳnh Văn Bánh,"39/4/41/2 Huỳnh Văn Bánh, P. 17",17,1103838,2,0.0,0,1,0,0,49,0,10.7939064,106.6823687
/ho-chi-minh/sushi-la-vie-en-rose-sushi-sashimi-nguyen-thuong-hien/binh-luan,Sushi La Vie en Róse - Sushi & Sashimi - Nguyễn Thượng Hiền,"312 Nguyễn Thượng Hiền, P. 5",17,1125586,2,0.0,0,0,0,0,31,0,10.8054752,106.6853341
/ho-chi-minh/uy-boong-tea-tra-sua-tra-trai-cay-huynh-van-banh/binh-luan,Uy Boong Tea - Trà Sữa & Trà Trái Cây - Huỳnh Văn Bánh,"45 Huỳnh Văn Bánh, P. 17",17,1133610,2,0.0,0,0,0,0,45,0,10.7947634,106.6813249
/ho-chi-minh/co-ba-chan-ga-huynh-van-banh/binh-luan,Cô Ba Chân Gà - Huỳnh Văn Bánh,"541/17 Huỳnh Văn Bánh, P. 14",17,1147296,2,9.86,15,0,20,0,56,0,10.7920286,106.6682254
/ho-chi-minh/sup-cua-vuong-gia-diem-tam-an-vat-truong-sa.1u08xi/binh-luan,Súp Cua Vương Gia - Điểm Tâm & Ăn Vặt - Trường Sa,688 trường sa,17,1000055152,2,0.0,0,0,0,0,10,0,10.7921698,106.6820268
/ho-chi-minh/geylang-phan-xich-long-chao-ech-singapore/binh-luan,Cháo Ếch Geylang - Phan Xích Long,"305 Phan Xích Long, P. 1",17,266726,2,5.4,32,0,12,15,2224,3,10.801112,106.683668
/ho-chi-minh/sot-banh-mi-hotdog-chien-thang/binh-luan,SOT - Bánh Mì Hotdog - Chiến Thắng,"100/13B Chiến Thắng, P. 9",17,742477,2,7.272,99,0,39,67,3201,5,10.8021294,106.6768559
/ho-chi-minh/com-tam-bun-thit-nuong-hoang-nam-hoa-sua/binh-luan,Cơm Tấm Bún Thịt Nướng Hoàng Nam - Hoa Sữa,"47 Hoa Sữa, P. 7",17,1139756,2,0.0,0,0,0,0,8,0,10.7987235,106.6913706
/ho-chi-minh/com-tam-sai-gon-hoa-sua/binh-luan,Cơm Tấm Sài Gòn - Hoa Sữa,"45 Hoa Sữa, P. 7",17,1051483,2,5.1,4,1,2,3,254,2,10.798678,106.6912905
/ho-chi-minh/muti-vo-ca-vien-chien-tra-trai-cay-an-vat-thich-quang-duc/binh-luan,"MUTI Vơ Cá Viên Chiên, Trà Trái Cây & Ăn Vặt - Thích Quảng Đức","20/13 Thích Quảng Đức, P. 5",17,1147676,2,0.0,0,0,0,0,3,0,10.8049199,106.6841495
/ho-chi-minh/banh-mi-nuong-lu-co-nau-hoa-cuc/binh-luan,Bánh Mì Nướng Lu Cô Nẫu - Hoa Cúc,"25 Hoa Cúc, P. 7",17,1120459,2,0.0,1,2,0,0,35,0,10.7990926962471,106.6880389569472
/ho-chi-minh/lasol-coffee-tea-nguyen-cong-hoan/binh-luan,LASOL Coffee & Tea - Nguyễn Công Hoan,"145/9 Nguyễn Công Hoan, P. 7",17,1118100,2,9.664,3,0,12,0,243,0,10.7977042,106.6906726
/ho-chi-minh/1988-chao-ech-singapore-nguyen-cong-hoan/binh-luan,1988 Cháo Ếch Singapore - Nguyễn Công Hoan,"103 Nguyễn Công Hoan, P. 7",17,1117884,2,0.0,0,0,0,0,28,0,10.799145647268,106.690424259407
/ho-chi-minh/banh-tuoi-moi-ngay-9grams-truong-quoc-dung/binh-luan,Bánh Tươi Mỗi Ngày 9grams - Trương Quốc Dung,"19Bis Trương Quốc Dung, P. 8",17,1114370,2,0.0,0,0,0,0,23,0,10.7987283,106.6729391
/ho-chi-minh/m-1989-coffee-cu-lao/binh-luan,M’1989 Coffee - Cù Lao,"131 Cù Lao, P. 2",17,1112861,2,0.0,0,0,0,0,20,0,10.7985912,106.6862646
/ho-chi-minh/ba-xa-vegan-nha-hang-chay-nguyen-van-troi/binh-luan,Bà Xã Vegan - Nhà Hàng Chay - Nguyễn Văn Trỗi,"21G Nguyễn Văn Trỗi, P. 11",17,1111335,2,5.25,10,0,4,1,213,0,10.7926211,106.6803712
/ho-chi-minh/fox-tea-tra-sua-an-vat-huynh-van-banh/binh-luan,FOX Tea - Trà Sữa & Ăn Vặt - Huỳnh Văn Bánh,"344 Huỳnh Văn Bánh, P. 10",17,1112466,2,7.6,2,2,1,1,133,0,10.79205,106.67178
/ho-chi-minh/b-chain-coffee-tran-huy-lieu/binh-luan,B'Chain Coffee - Trần Huy Liệu,"157 Trần Huy Liệu, P. 8",17,1110302,2,0.0,0,0,0,0,23,0,10.7967540820042,106.6782853717118
/ho-chi-minh/com-nha-me-nau/binh-luan,Cơm Nhà Mẹ Nấu,"70 Thích Quảng Đức, P. 5",17,1080714,2,0.0,0,0,0,0,26,0,10.805367457675,106.6827241680273
/ho-chi-minh/phuc-rau-ma-nguyen-trong-tuyen/binh-luan,Phúc Rau Má - Nguyễn Trọng Tuyển,"30 Nguyễn Trọng Tuyển, P. 15",17,1079433,2,9.6,20,0,1,0,69,0,10.7973994516779,106.6803557141533
/ho-chi-minh/rau-ma-mix-phan-xich-long/binh-luan,Rau Má Mix - Phan Xích Long,"172 Phan Xích Long, P. 7",17,906055,2,5.814,42,5,17,8,4335,0,10.7972653,106.690744
/ho-chi-minh/jino-banh-trang-thanh-mai-tra-sua/binh-luan,Jino - Bánh Tráng Thanh Mai & Trà Sữa,"50 Hoa Cúc, P. 7",17,733403,2,5.484,59,3,19,15,1541,1,10.7988054,106.6885962
/ho-chi-minh/an-vat-hai-con-meo-ca-vien-chien-tra-sua/binh-luan,Ăn Vặt Hai Con Mèo - Cá Viên Chiên & Trà Sữa - Lê Tự Tài,"56C Lê Tự Tài, P. 4",17,949869,2,4.344,19,1,7,3,371,0,10.805274,106.681082
/ho-chi-minh/tocotoco-bubble-tea-nguyen-trong-tuyen/binh-luan,TocoToco Bubble Tea - Nguyễn Trọng Tuyển,"91 Nguyễn Trọng Tuyển, P. 15",17,942478,2,4.616,83,0,23,0,1290,5,10.797271,106.678788
/ho-chi-minh/banh-duc-phan-dang-luu/binh-luan,Bánh Đúc Phan Đăng Lưu,"116/2/3 Phan Đăng Lưu, P. 3",17,638,2,5.654,424,0,330,1013,188876,124,10.8030101,106.6834299
/ho-chi-minh/hoang-ty-dac-san-trang-bang-truong-quoc-dung/binh-luan,Hoàng Ty Group - Đặc sản Trảng Bàng - Trương Quốc Dung,74 Trương Quốc Dung,17,4478,2,6.914,1000,0,150,105,44452,61,10.7952819,106.672468
/ho-chi-minh/biscotti-banh-hat-dinh-duong-huynh-van-banh/binh-luan,Biscotti - Bánh Hạt Dinh Dưỡng - Huỳnh Văn Bánh,"420/11 Huỳnh Văn Bánh, P. 14",17,1058719,2,9.99,6,0,609,18,1283,11,10.7921273,106.6695246
/ho-chi-minh/chuoi-nuong-nam-bo-phan-dang-luu/binh-luan,Chè Chuối Nướng Nam Bộ Út Lúa - Phan Đăng Lưu,"80 Phan Đăng Lưu, P. 5",17,20582,2,6.422,233,0,83,152,60534,18,10.8041138,106.6854954
/ho-chi-minh/kichi-kichi-lau-bang-chuyen-phan-xich-long/binh-luan,Kichi Kichi Lẩu Băng Chuyền - Phan Xích Long,"145 Phan Xích Long, P. 2",17,4248,2,7.16,1567,0,246,119,57020,64,10.797645,106.689584
/ho-chi-minh/quan-oc-luoc-huynh-van-banh/binh-luan,Quán Ốc Luộc - Huỳnh Văn Bánh,"533/59 Huỳnh Văn Bánh, P.14",17,33940,2,6.688,772,0,136,248,56281,43,10.79122,106.668034
/ho-chi-minh/com-chay-nam-map-giao-hang-tan-noi/binh-luan,Cơm Cháy Năm Mập - Giao Hàng Tận Nơi,94/14/11 Trần Khắc Chân,17,116751,2,7.474,41,0,13,88,56240,10,10.800629,106.677794
/ho-chi-minh/cha-ngu-sac-phan-dinh-phung-giao-hang-tan-noi/binh-luan,Chả Ngũ Sắc - Phan Đình Phùng - Giao Hàng Tận Nơi,"Đầu Hẻm 96 Phan Đình Phùng, P. 2",17,89823,2,7.768,55,0,13,97,52580,10,10.796195,106.683479
/ho-chi-minh/vit-ty-ba-tu-vi-91-dac-san-lang-son-tru-danh/binh-luan,Vịt Tỳ Bà Tứ Vị 91 - Đặc Sản Lạng Sơn Trứ Danh,"46B Phan Tây Hồ, P. 7",17,1000057571,2,0.0,0,0,0,0,2,0,10.8022098,106.686436
/ho-chi-minh/do-nuong-chi-hai-chan-ga-nuong-nguyen-dinh-chinh/binh-luan,Đồ Nướng Chị Hai - Chân Gà Nướng - Nguyễn Đình Chính,"226 Nguyễn Đình Chính, P. 11",17,1148866,2,0.0,0,0,0,0,2,0,10.7930071,106.6730987
/ho-chi-minh/banh-beo-nam-loc-hue-co-quyen/binh-luan,"Bánh Bèo, Nậm, Lọc Huế - Cô Quyên","279/3 Huỳnh Văn Bánh, P. 11",17,1000057494,2,0.0,0,0,0,0,5,0,10.7915383,106.6756737
/ho-chi-minh/chocoline-cafe-truong-sa/binh-luan,CHOCOLINE CAFE - Trường Sa,"526 Trường Sa, P. 2",17,1148801,2,0.0,0,0,0,0,5,0,10.7951491,106.6845233
/ho-chi-minh/papa-chicken-ga-ran-com-ga-com-van-phong-nguyen-van-dau/binh-luan,"Papa Chicken - Gà Rán, Cơm Gà & Cơm Văn Phòng - Nguyễn Văn Đậu ","21B Nguyễn Văn Đậu, P. 5 ",17,1000057466,2,0.0,0,0,0,0,11,0,10.8049898,106.6868978
/ho-chi-minh/fresh-bakery-sai-gon-pho-quang/binh-luan,FRESH BAKERY SÀI GÒN - Phổ Quang,"123 Phổ Quang, P. 9",17,1148554,2,0.0,0,0,0,0,16,0,10.8083025,106.672479
/ho-chi-minh/maison-de-boony/binh-luan,"Maison De Boony - Cà Phê, Trà Sữa & Bánh - Lê Quý Đôn","10 Lê Quý Đôn, P. 11",17,1061708,2,7.8,9,4,1,1,183,0,10.792005,106.679714
/ho-chi-minh/che-chi-ba-le-van-sy/binh-luan,CHÈ CHỊ BA - Lê Văn Sỹ,"105 Lê Văn Sỹ, P. 13",17,1148313,2,0.0,0,0,0,0,1,0,10.791324,106.672196
/ho-chi-minh/phuc-long-chung-cu-kingston/binh-luan,Phúc Long Chung Cư Kingston,"223 Hoàng Văn Thụ, P. 8",17,1148248,2,0.0,0,0,0,0,3,0,10.7998564,106.670644
/ho-chi-minh/nhi-house-banh-trang-sate-muoi-nhuyen/binh-luan,Nhi House - Bánh Tráng Sate Muối Nhuyễn,"9/27 Nguyễn Thị Huỳnh, P. 8",17,1148163,2,0.0,0,0,0,0,1,0,10.79644,106.677024
/ho-chi-minh/pull-s-coffee-cafe-pha-may-nguyen-trong-tuyen/binh-luan,Pull's Coffee - Cafe Pha Máy - Nguyễn Trọng Tuyển,"205 Nguyễn Trọng Tuyển, P. 8",17,1032856,2,10.0,14,0,1,0,47,0,10.79755,106.675696
/ho-chi-minh/sinh-to-buon-me-huynh-van-banh/binh-luan,Sinh Tố Buôn Mê - Huỳnh Văn Bánh,"489/27/15 Huỳnh Văn Bánh, P. 13",17,1070707,2,10.0,1,0,1,1,266,0,10.7909460052341,106.6701896754217
/ho-chi-minh/bb-coffee-do-an-vat-hoang-sa/binh-luan,BB Coffee & Đồ Ăn Vặt - Hoàng Sa,"187C Hoàng Sa, P. Tân Định",17,1140363,2,10.0,12,0,1,0,9,0,10.795635,106.690959
/ho-chi-minh/bigbee-fruits-shop-online/binh-luan,BigBee Fruits - Shop Online,"53 Đào Duy Anh, P. 9",17,900003,2,10.0,11,0,1,0,78,0,10.806596,106.676229
/ho-chi-minh/bun-cha-5a-bun-cha-467-phan-xich-long.chqvsj/binh-luan,Bún Chả 5A - Bún Chả - 467 Phan Xích Long,"476 Phan Xích Long, P. 3",17,1000044732,2,10.0,0,0,1,0,63,1,10.802387,106.6827177
/ho-chi-minh/nuoc-ep-sinh-to-rau-cu-qua-tuoi-29-tran-khac-chan.1kfsip/binh-luan,Nước Ép Sinh Tố Rau Củ Quả Tươi - 29 Trần Khắc Chân,"29 Trần Khắc Chân, P. 15",17,1000054836,2,10.0,8,0,1,0,26,0,10.798347,106.679268
/ho-chi-minh/siro-da-bao-tra-sua-sinh-to/binh-luan,Siro Đá Bào & Trà Sữa Sinh Tố,35 Nguyễn Đình Chiểu,17,724309,2,10.0,6,0,1,0,269,0,10.803709,106.68043
/ho-chi-minh/nguyen-sa-yen-sao-thien-nhien/binh-luan,Nguyên Sa - Chè Yến & Cháo Yến,"178 Phan Xích Long, P. 7",17,780385,2,10.0,5,2,1,0,307,0,10.797429,106.690973
/ho-chi-minh/co-ven-bun-thit-nuong-cha-gio-com-thit-xien/binh-luan,Cô Vẹn - Bún Thịt Nướng Chả Giò & Cơm Thịt Xiên,"330/5 Phan Đình Phùng, P. 1",17,990590,2,10.0,0,1,1,2,406,0,10.798616,106.681009
/ho-chi-minh/uong-la-khoai-nuoc-ep-trai-cay-tuoi/binh-luan,UỐNG LÀ KHOÁI - NƯỚC ÉP TRÁI CÂY TƯƠI,"169 Phan Đăng Lưu, P. 1",17,1075239,2,10.0,4,0,1,0,69,0,10.800444,106.681789
/ho-chi-minh/quan-chao-long-293-phan-xich-long/binh-luan,Quán Cháo Lòng 293 - Phan Xích Long,"293/16 Phan Xích Long, P. 1",17,1083876,2,10.0,0,0,1,2,97,0,10.8010611,106.6835359
/ho-chi-minh/chill-food-an-vat-online/binh-luan,Chill Food - Ăn Vặt Online,"137/12 Lê Văn Sỹ, P. 13",17,1015911,2,10.0,3,0,1,0,193,0,10.791456,106.671338
/ho-chi-minh/gm_tea-coffee-nguyen-dinh-chinh/binh-luan,GM_TEA & COFFEE - Nguyễn Đình Chính,"129D Nguyễn Đình Chính, P. 8",17,813522,2,9.63,6,0,192,0,243,0,10.795607,106.677136
/ho-chi-minh/lavida-tra-sua-ca-phe-113-phan-xich-long/binh-luan,Lavida - Trà Sữa & Cà Phê - 113 Phan Xích Long,113 Phan Xích Long,17,282443,2,6.188,689,0,163,45,10292,22,10.7987153,106.68768
/ho-chi-minh/kimbap-hoang-tu-nguyen-trong-tuyen/binh-luan,Kimbap Hoàng Tử - Món Hàn Quốc - Nguyễn Trọng Tuyển,"184A Nguyễn Trọng Tuyển, P. 8",17,736421,2,6.986,437,0,158,116,8170,14,10.797711,106.674984
/ho-chi-minh/canh-bun-me-toi/binh-luan,Canh Bún Mẹ Tôi,"115/62 Lê Văn Sỹ (Đường Ray Xe Lửa), P. 13",17,2175,2,6.93,198,0,96,216,30012,38,10.7903153,106.6712226
/ho-chi-minh/sup-cua-hoa-cuc/binh-luan,Súp Cua - Hoa Cúc,"1 Hoa Cúc, P. 7",17,85595,2,6.916,348,0,100,194,30088,18,10.799158,106.687919
/ho-chi-minh/the-dome-kaffe/binh-luan,The Dome Kaffe,"10/16 Đoàn Thị Điểm, P. 1",17,652385,2,7.76,633,0,89,193,17270,17,10.798768,106.681112
/ho-chi-minh/din-chon-mi-gia/binh-luan,Dìn Chón Mì Gia,"447 Nguyễn Kiệm, P. 9",17,5314,2,7.056,165,0,54,191,39184,31,10.8017376,106.6791625
/ho-chi-minh/hien-vy-vit-nuong-lau/binh-luan,Hiền Vy - Vịt Nướng & Lẩu,"1238A Trường Sa, P. 14",17,759212,2,0.0,21,9,0,4,446,0,10.7898922,106.6669752
/ho-chi-minh/joyful-meal-sandwich-kieu-han-dang-van-ngu.hcmxv2/binh-luan,Joyful Meal - Sandwich Kiểu Hàn - Đặng Văn Ngữ,"172/7 Đặng Văn Ngữ, P. 13",17,1000043997,2,0.0,0,0,0,0,25,0,10.791473,106.667066
/ho-chi-minh/cajon-cafe-truong-sa/binh-luan,Cajon Cafe - Trường Sa,"1238 Trường Sa, P.14",17,180121,2,6.2,1,0,1,1,163,0,10.789993,106.667007
/ho-chi-minh/phuong-lam-quan-bun-rieu-canh-bun-dang-van-ngu/binh-luan,Phương Lâm Quán - Bún Riêu & Canh Bún - Đặng Văn Ngữ," 173 Đặng Văn Ngữ, P.14",17,1147893,2,0.0,0,0,0,0,2,0,10.7914261,106.6670994
/ho-chi-minh/bun-premium/binh-luan,Bún Premium ,"171 Đặng Văn Ngữ, P. 14",17,1037626,2,6.8,3,0,5,0,360,0,10.791199,106.667088
/ho-chi-minh/dac-san-hai-phong-banh-da-cua-bun-ca-ro-dong/binh-luan,Đặc Sản Hải Phòng - Bánh Đa Cua & Bún Cá Rô Đồng,"214/4 Lê Văn Sỹ, P. 10",17,986453,2,0.0,0,3,0,1,55,2,10.7945186,106.6672797
/ho-chi-minh/we-cafeteria-cafe-smoothie-milk-tea-nguyen-van-troi/binh-luan,"We.cafèteria - Cafe, Smoothie & Milk Tea - Nguyễn Văn Trỗi","309/1 Nguyễn Văn Trỗi, P. 1",17,1136348,2,0.0,0,1,0,0,20,0,10.8004059,106.6676175
/ho-chi-minh/bun-bbq-house-dang-van-ngu/binh-luan,Bún BBQ House - Đặng Văn Ngữ,"171 Đặng Văn Ngữ, P. 14",17,1038920,2,9.76,5,0,5,3,405,0,10.791167,106.667091
/ho-chi-minh/co-muoi-quan-che-sam-bo-luong/binh-luan,Cô Muối - Quán Chè & Sâm Bổ Lượng,129A Đặng Văn Ngữ,17,788393,2,0.0,6,1,0,0,158,0,10.7913043108856,106.6671017680598
/ho-chi-minh/givi-mi-y-gia-viet-dang-van-ngu/binh-luan,"Givi - Bánh Canh Cua, Súp Cua & Mì Ý - Đặng Văn Ngữ","176 Đặng Văn Ngữ, P. 14",17,763225,2,8.3,20,0,2,4,670,0,10.7912163,106.6670989
/ho-chi-minh/sua-chua-tran-chau-the-ohan-truong-sa/binh-luan,Sữa Chua Trân Châu The Ohan - Trường Sa,"1222 Trường Sa, P. 14",17,1061554,2,0.0,0,0,0,0,44,0,10.78979,106.667022
/ho-chi-minh/noc-nha/binh-luan,Nóc Nhà,"1220 Trường Sa, P. 14",17,1079436,2,0.0,0,0,0,0,80,0,10.7898395724834,106.6670348855765
/ho-chi-minh/katinat-hoa-lan/binh-luan,Katinat - Hoa Lan,"45A Hoa Lan, P. 2",17,1135438,2,0.0,0,2,0,1,305,0,10.7982201,106.6909786
/ho-chi-minh/bao-quan-ca-vien-chien-an-vat/binh-luan,Bào Quán - Cá Viên Chiên & Ăn Vặt,"31 Nguyễn Đình Chiểu, P. 4",17,1041926,2,9.74,26,0,109,17,687,1,10.8036681,106.6800799
/ho-chi-minh/banh-bao-tho-phat-truong-sa/binh-luan,Bánh Bao Thọ Phát - Trường Sa,"338 Trường Sa, P. 2",17,1070189,2,7.8,7,0,4,2,248,3,10.79623,106.6907238
/ho-chi-minh/bun-rieu-cua-mo-bay/binh-luan,Bún Riêu Cua Mợ Bảy,"86/51 Thích Quảng Đức, P. 5",17,695215,2,6.182,23,0,23,20,2313,4,10.8049759,106.6828303
/ho-chi-minh/kfc-co-op-mart-nguyen-kiem/binh-luan,Gà Rán KFC - Co.op Mart Nguyễn Kiệm,"571 Nguyễn Kiệm, P. 9",17,36575,2,6.032,164,0,43,9,5879,10,10.8084993408623,106.678333299813
/ho-chi-minh/xoi-la-chuoi-phan-xich-long/binh-luan,Xôi Lá Chuối - Phan Xích Long,"249 Phan Xích Long, P. 7",17,164754,2,5.848,41,0,22,17,5542,3,10.7973547,106.6902374
/ho-chi-minh/a-min-quan-am-thuc-trung-hoa-cu-lao/binh-luan,A Mìn Quán - Ẩm Thực Trung Hoa - Cù Lao,"129 Cù Lao, P. 2",17,1029813,2,7.452,15,0,8,23,1436,0,10.798511,106.686241
/ho-chi-minh/com-van-phong-hu-tieu-nam-vang-so-11/binh-luan,Cơm Văn Phòng & Hủ Tiếu Nam Vang Số 11,"11 Hồ Văn Huê, P. 9",17,1044833,2,1.0,0,2,1,1,146,0,10.800556,106.675241
/ho-chi-minh/mien-ga-pho-ga-son-nga-mien-ga-pho-ga-pho-quang/binh-luan,Miến Gà & Phở Gà Sơn Nga - Miến Gà & Phở Gà - Phổ Quang,"163 Phổ Quang, P. 09",17,718452,2,8.25,20,0,4,4,364,0,10.8082545,106.673155
/ho-chi-minh/bamboo-sushi/binh-luan,Bamboo Sushi,"104 Cù Lao, P. 2",17,84532,2,7.064,395,0,53,66,46159,20,10.797076,106.687087
/ho-chi-minh/sushi-masa-le-van-sy/binh-luan,Sushi Masa - Lê Văn Sỹ,"78 Lê Văn Sỹ, P. 11",17,949229,2,7.864,750,1,54,50,6969,6,10.791098,106.672651
/ho-chi-minh/tao-pho-tofu-phan-xich-long/binh-luan,Tào Phớ ToFu - Phan Xích Long,"315 Phan Xích Long, P. 1",17,43694,2,6.852,204,0,50,132,28490,20,10.800752,106.6839
/ho-chi-minh/container-kafe/binh-luan,Container Kafe - Hoa Lan,1 Hoa Lan,17,35357,2,6.35,292,0,52,85,25423,25,10.796875,106.691925
/ho-chi-minh/yesterday-piano-cafe/binh-luan,Yesterday Piano Cafe,"28 Hồ Biểu Chánh, P. 11",17,4968,2,6.672,145,0,39,73,19067,23,10.793513,106.676538
/ho-chi-minh/sushi-hokkaido-sachi-%E5%8C%97%E6%B5%B7%E9%81%93%E3%82%B5%E3%83%81-phan-xich-long/binh-luan,Sushi Hokkaido Sachi 北海道サチ - Phan Xích Long,"163 Phan Xích Long, P. 2",17,877866,2,8.012,630,0,63,23,13303,13,10.798056,106.688668
/ho-chi-minh/wichita-tarot-cafe/binh-luan,Wichita - Tarot Cafe,"41 Hoa Hồng, P. 2",17,130296,2,7.702,103,0,67,31,12591,9,10.796435,106.69096
/ho-chi-minh/tra-sua-r-b-tea-phan-xich-long/binh-luan,R&B Pink - Phan Xích Long,"206 Phan Xích Long, P. 2",17,776796,2,6.898,393,0,44,72,13537,8,10.797611,106.689711
/ho-chi-minh/muc-nuong-dao-ngoc/binh-luan,Mực Nướng Đảo Ngọc,"61 Trần Khắc Chân, P. 9",17,788734,2,9.08,356,0,39,47,1461,5,10.800004,106.677735
/ho-chi-minh/sushi-uraetei-nguyen-van-troi/binh-luan,Sushi Uraetei - Nguyễn Văn Trỗi,"17 - 19 - 21 Nguyễn Văn Trỗi, P. 12",17,296196,2,7.914,279,0,23,48,10180,11,10.792264,106.681015
/ho-chi-minh/dai-ly-gao-danh-thao-cam-ba-thuoc/binh-luan,Đại Lý Gạo Danh Thảo - Cầm Bá Thước,"20/5 Cầm Bá Thước, P.7",17,1090563,2,0.0,0,0,0,0,14,0,10.8019357,106.685545
/ho-chi-minh/che-mua-he/binh-luan,Chè Mùa Hè,"14 Hồ Biểu Chánh, P. 11",17,1061857,2,6.2,2,2,1,0,584,1,10.7940775,106.6767565
/ho-chi-minh/hu-tieu-duc-ky-nguyen-van-troi/binh-luan,Hủ Tiếu Đức Ký - Nguyễn Văn Trỗi,"112/1 Nguyễn Văn Trỗi, P. 8",17,152805,2,5.0,76,0,5,0,670,1,10.797441,106.67279
/ho-chi-minh/tra-sua-meo-meo-soda-tra-trai-cay-an-vat/binh-luan,"Trà Sữa Meo Meo - Soda, Trà Trái Cây & Ăn Vặt","82 Hoa Đào, P. 2",17,1082490,2,0.0,0,0,0,0,27,0,10.7985416,106.685498
/ho-chi-minh/oc-88-co-giang/binh-luan,Ốc 88 - Cô Giang,"88 Cô Giang, P. 2",17,219763,2,7.732,42,0,12,42,5011,1,10.796366,106.683722
/ho-chi-minh/tra-sua-puritea/binh-luan,Trà Sữa Puritea,"26 Nguyễn Văn Đậu, P. 5",17,942219,2,8.824,37,0,46,43,1792,4,10.805013,106.6871
/ho-chi-minh/shinsekai-sushi-hoa-phuong/binh-luan,Shinsekai Sushi – Hoa Phượng,"11 Hoa Phượng, P. 2",17,1069627,2,6.404,131,0,7,2,758,0,10.7970806,106.6868074
/ho-chi-minh/bami-co-bong-banh-mi-chao-pate-chien-279-42a-huynh-van-banh/binh-luan,Bami Cô Bống - Bánh Mì Chảo & Pate Chiên - 279/42A Huỳnh Văn Bánh,"279/42A Huỳnh Văn Bánh, P. 11",17,1125041,2,0.0,0,0,0,0,31,0,10.7908531,106.675187
/ho-chi-minh/ga-u-muoi-do-chien-an-vat-special-nguyen-trong-tuyen/binh-luan,Gà Ủ Muối Đồ Chiên & Ăn Vặt SPECIAL - Nguyễn Trọng Tuyển,"220/19 Nguyễn Trọng Tuyển, P. 8",17,1133952,2,0.0,0,0,0,0,25,0,10.7987297,106.6737689
/ho-chi-minh/an-vat-ai-linh-ca-vien-chien-hot-vit-lon-co-giang/binh-luan,Ăn Vặt Ái Linh - Cá Viên Chiên & Hột Vịt Lộn - Cô Giang,"142C/26 Cô Giang, P. 2",17,1136750,2,0.0,0,0,0,0,30,0,10.7956618,106.6831252
/ho-chi-minh/ha-cao-chi-thao/binh-luan,Há Cảo Chị Thảo,"50/12 Phùng Văn Cung, P. 7",17,967777,2,0.0,0,0,0,0,119,0,10.8006873,106.6858226
/ho-chi-minh/an-vat-cau-vang-chan-ga-rut-xuong-sa-tac-tai-heo-sot-thai-cn-2/binh-luan,Ăn Vặt Cậu Vàng - Chân Gà Rút Xương Sả Tắc & Tai Heo Sốt Thái - CN 2,"115/10  Phan Đăng Lưu, P. 7",17,1000050019,2,9.826,1,0,110,2,319,1,10.803444,106.6856233
/ho-chi-minh/tra-trai-cay-lady-hoa-su/binh-luan,TRÀ TRÁI CÂY LADY - HOA SỨ,"43 Hoa Sứ, P. 7",17,1076013,2,9.468,1,25,65,7,172,0,10.7995612,106.6888804
/ho-chi-minh/oc-co-chi-nguyen-cong-hoan/binh-luan,Ốc Cô Chi - Nguyễn Công Hoan,"86/7 Nguyễn Công Hoan, P. 7",17,970851,2,7.668,9,0,3,6,481,0,10.799541,106.6903554
/ho-chi-minh/chao-long-144/binh-luan,Cháo Lòng 144,"144 Phan Đăng Lưu, P. 3",17,15097,2,6.154,210,0,68,176,41215,46,10.801618,106.682782
/ho-chi-minh/chao-ech-mi-y-cao-nguyen-kiem/binh-luan,Cháo Ếch & Mì Ý Cao - Nguyễn Kiệm,"440/21 Nguyễn Kiệm, P. 3",17,1000051054,2,0.0,0,0,0,0,29,0,10.8024657,106.6798601
/ho-chi-minh/quy-an-mi-xao-bun-bo-hue/binh-luan,Quý An - Mì Xào & Bún Bò Huế,"57 Hoa Sứ, P. 7",17,1079297,2,0.0,0,0,0,0,30,0,10.8000770071025,106.6888455968625
/ho-chi-minh/tiem-chay-ngu-sac-phan-xich-long/binh-luan,TIỆM CHAY NGŨ SẮC - PHAN XÍCH LONG,"544/2 Phan Xích Long, P.3",17,1078680,2,0.0,0,0,0,0,42,0,10.803622,106.681484
/ho-chi-minh/cocoboba-nuoc-dua-tran-chau-dua-phung-van-cung/binh-luan,Cocoboba - Nước Dừa Trân Châu Dừa - Phùng Văn Cung,"87B Phùng Văn Cung, P. 2",17,1077558,2,0.0,0,1,0,1,152,0,10.8012031,106.6850713
/ho-chi-minh/xo-hai-san-sot-cajun-le-van-sy/binh-luan,Xô - Hải Sản Sốt Cajun - Lê Văn Sỹ,"133 Lê Văn Sỹ, P.13",17,1076913,2,0.0,0,8,0,3,282,0,10.7918523,106.6715639
/ho-chi-minh/kem-bo-trai-cay-to-251-hoa-dao/binh-luan,Kem Bơ - Trái Cây Tô 251 - Hoa Đào,"92 Hoa Đào, P. 2",17,1074939,2,8.0,0,0,1,1,223,0,10.798594,106.685285
/ho-chi-minh/moc-tra-tra-sua-nha-lam-nguyen-dinh-chinh/binh-luan,Mộc Trà - Trà Sữa Nhà Làm - Nguyễn Đình Chính,"25 Nguyễn Đình Chính, P. 15",17,1071833,2,0.0,0,0,0,0,140,0,10.7971299,106.6799531
/ho-chi-minh/bo-nuong-tho-ho-van-hue/binh-luan,Bò Nướng Thố - Hồ Văn Huê,"208/10 Hồ Văn Huê, P. 9",17,1063915,2,0.0,0,0,0,0,107,0,10.8043049561423,106.6779972588127
/ho-chi-minh/ona-milk-tea/binh-luan,ONa Milk Tea,"205/1B Hoàng Văn Thụ, P. 8",17,705950,2,5.066,49,0,3,1,643,0,10.79938,106.671753
/ho-chi-minh/next-station/binh-luan,Next Station,"13 Hoa Phượng, P. 2",17,1064422,2,0.0,0,0,0,0,75,0,10.796996,106.686787
/ho-chi-minh/banh-hoi-long-heo-dac-san-phu-yen-phan-xich-long.0qnthy/binh-luan,Bánh Hỏi Lòng Heo - Đặc Sản Phú Yên - Phan Xích Long,"269/4 Phan Xích Long, P. 2",17,1000011856,2,0.0,0,20,0,7,264,0,10.7996104,106.6849493
/ho-chi-minh/highlands-coffee-phan-xich-long/binh-luan,Highlands Coffee - Phan Xích Long,"193 Phan Xích Long, P. 2",17,230066,2,6.78,676,0,112,30,14825,30,10.798531,106.687581
/ho-chi-minh/passio-coffee-nguyen-trong-tuyen/binh-luan,Passio Coffee - 331 Nguyễn Trọng Tuyển,"331 Nguyễn Trọng Tuyển, P. 10",17,280748,2,7.154,53,0,13,4,3327,6,10.797964,106.6685591
/ho-chi-minh/sua-chua-tran-chau-ha-long-phan-xich-long/binh-luan,Sữa Chua Trân Châu Hạ Long - Phan Xích Long,"240 Phan Xích Long, P. 7",17,984897,2,7.076,74,1,16,14,5328,0,10.7979,106.68963
/ho-chi-minh/be-an-banh-hue-banh-bot-loc/binh-luan,Bé An - Bánh Huế & Bánh Bột Lọc,"129/5/14 Hoàng Văn Thụ, P. 8",17,1139302,2,10.0,0,0,1,0,23,0,10.798588,106.676115
/ho-chi-minh/tra-sua-ma-tam/binh-luan,Trà Sữa Má Tám,"671 Nguyễn Kiệm, P. 4",17,951264,2,6.388,45,9,16,35,2543,2,10.8091834,106.678317
/ho-chi-minh/kohaku-delivery-phan-xich-long/binh-luan,Kohaku Delivery - Phan Xích Long,"246 Phan Xích Long, P. 7",17,300203,2,7.538,553,0,143,46,7538,42,10.7982307,106.6899896
/ho-chi-minh/bun-cha-pho-co-phan-xich-long/binh-luan,Bún Chả Phố Cổ - Phan Xích Long,"225 Phan Xích Long, P. 2",17,158812,2,7.306,481,0,114,216,58509,33,10.798953,106.686638
/ho-chi-minh/che-75/binh-luan,Chè 75 Trần Huy Liệu,"75 Trần Huy Liệu, P. 12",17,1723,2,6.346,587,0,124,156,36993,42,10.7925397,106.6778804
/ho-chi-minh/ghe-dau-cafe/binh-luan,Ghế Đẩu Cafe - Hoa Mai,28 Hoa Mai,17,31824,2,7.168,458,0,126,92,32443,40,10.797397,106.687074
/ho-chi-minh/roji-coffee/binh-luan,Roji Coffee,"2A Phan Tây Hồ, P. 7",17,273836,2,8.154,767,0,106,77,12478,30,10.802851,106.686081
/ho-chi-minh/chasu-tea-tra-sua-sach-trai-cay-tuoi/binh-luan,Chasu Tea - Trà Sữa Sạch Trái Cây Tươi,"95 Hồ Văn Huê, P. 9",17,903251,2,8.784,134,0,133,91,4456,31,10.8042239,106.67732
/ho-chi-minh/caribe-coffee-pub/binh-luan,Caribe Coffee & Pub,140/15 Trần Huy Liệu,17,109299,2,7.184,138,0,12,157,51540,24,10.797644,106.678112
/ho-chi-minh/pizza-inn-nguyen-trong-tuyen/binh-luan,Pizza Inn - Nguyễn Trọng Tuyển,"58 Nguyễn Trọng Tuyển, P. 15",17,4338,2,7.312,224,0,56,34,48484,38,10.7971646,106.6798087
/ho-chi-minh/sindat-thai-truong-sa/binh-luan,Sindat Thai - Trường Sa,"446 Trường Sa, P. 2",17,128382,2,7.336,515,0,65,90,47902,9,10.797011,106.684844
/ho-chi-minh/huong-viet-bakery/binh-luan,Hương Việt Bakery,"282 Huỳnh Văn Bánh, P. 11",17,11569,2,6.614,231,0,41,36,46902,6,10.791848,106.674231
/ho-chi-minh/banh-trang-tron-chu-tho-thich-quang-duc/binh-luan,Bánh Tráng Trộn Chú Thọ - Thích Quảng Đức,"3 Thích Quảng Đức, P. 3",17,1148127,2,9.65,16,0,4,1,6,3,10.8038041,106.6840174
/ho-chi-minh/chao-thap-cam-thuy-phuc-phan-dinh-phung/binh-luan,Cháo Thập Cẩm Thuỷ Phúc - Phan Đình Phùng,"179 Phan Đình Phùng, P. 17",17,1147882,2,0.0,0,0,0,0,1,0,10.7954872,106.6824175
/ho-chi-minh/v3-cot-lau-hadilao-bo-vien-nhung-lau/binh-luan,V3 Cốt Lẩu Hadilao - Bò Viên Nhúng Lẩu,"112 Huỳnh Văn Bánh, P. 12",17,1147861,2,0.0,0,0,0,0,3,0,10.7926877,106.6796485
/ho-chi-minh/ca-vien-chien-xi-gon-phung-van-cung/binh-luan,Cá Viên Chiên Xì Gòn - Phùng Văn Cung,"25 Phùng Văn Cung, P. 2",17,1147746,2,0.0,0,0,0,0,2,0,10.8002023,106.6857429
/ho-chi-minh/banh-trang-tay-ninh-an-vat-tam-tam-19-ho-van-hue-shop-online/binh-luan,Bánh Tráng Tây Ninh Ăn Vặt Tâm Tâm - 19 Hồ Văn Huê - Shop Online,"19 Hồ Văn Huê, P. 9",17,1000057037,2,0.0,0,0,0,0,2,0,10.8019676606686,106.6758513120046
/ho-chi-minh/nem-nuong-gia-viet-96-1b-duy-tan/binh-luan,Nem Nướng Gia Việt - 96/1B Duy Tân,"96/1B Duy Tân, P. 15",17,1147573,2,0.0,0,0,0,0,1,0,10.7949834,106.6793894
/ho-chi-minh/bun-thit-nuong-me-tho-phan-tay-ho/binh-luan,Bún Thịt Nướng Mẹ Thỏ - Phan Tây Hồ,"63/25 Phan Tây Hồ, P. 7",17,1147468,2,0.0,0,0,0,0,2,0,10.802345,106.687001
/ho-chi-minh/bun-ca-chau-doc-hoang-map-cam-ba-thuoc/binh-luan,Bún Cá Châu Đốc Hoàng Mập - Cầm Bá Thước,"20E Cầm Bá Thước, P. 7",17,1147443,2,0.0,0,0,0,0,1,0,10.802573,106.685503
/ho-chi-minh/kho-ga-kho-heo-heo-mi-525-54-huynh-van-banh/binh-luan,Khô Gà & Khô Heo Heo Mi - 525/54 Huỳnh Văn Bánh,"525/54 Huỳnh Văn Bánh, P. 13",17,1086822,2,10.0,6,0,1,0,52,0,10.791214,106.6686377
/ho-chi-minh/fruit-crush-trai-cay-tuoi-an-vat-thich-quang-duc/binh-luan,Fruit Crush - Trái Cây Tươi & Ăn Vặt - Thích Quảng Đức,"35 Thích Quảng Đức, P. 4",17,1081794,2,10.0,2,0,1,0,65,0,10.8046632,106.6831405
/ho-chi-minh/bun-moc-mai/binh-luan,Bún Mọc Mai,"12/22 Đào Duy Anh, P. 9",17,1082278,2,10.0,2,0,1,0,73,0,10.8060023,106.6774068
/ho-chi-minh/pho-thuan-huynh-van-banh/binh-luan,Phở Thuận,"Hẻm 491 Huỳnh Văn Bánh, P. 13",17,702713,2,10.0,0,0,1,1,62,0,10.7895541804795,106.6683753579854
/ho-chi-minh/banh-hue-shop-online-nguyen-van-troi/binh-luan,Bánh Lọc Huế - Shop Online - Nguyễn Văn Trỗi,"21K Nguyễn Văn Trỗi, P. 12",17,855313,2,10.0,2,0,1,0,231,0,10.792715,106.680244
/ho-chi-minh/co-ba-lua-bo-la-lot-bo-mo-chai-nguyen-trong-tuyen-shop-online.elh29h/binh-luan,Cô Ba Lúa - Bò Lá Lốt & Bò Mỡ Chài - Nguyễn Trọng Tuyển - Shop Online,"140A Nguyễn Trọng Tuyển, P. 8",17,1000052051,2,10.0,0,1,1,1,19,0,10.7976751,106.6766378
/ho-chi-minh/cu-bin-banh-canh-ca-loc/binh-luan,Cu Bin - Bánh Canh Cá Lóc,"474A Huỳnh Văn Bánh, P. 14",17,1032499,2,10.0,1,0,1,0,54,0,10.792279,106.668575
/ho-chi-minh/paras-tea-tra-chuan-vi-nha-lam/binh-luan,PARAS TEA - Trà Chuẩn vị Nhà Làm,"448 Trường Sa, P. 2",17,1041462,2,10.0,1,0,1,0,37,0,10.7970349,106.6848273
/ho-chi-minh/goi-delivery-take-away-com-chien-tra-sua/binh-luan,"Gọi Delivery - Take Away & Cơm Chiên, Trà Sữa","210 Nguyễn Đình Chính, P. 11",17,1056171,2,10.0,1,0,1,0,48,0,10.7935791,106.6734555
/ho-chi-minh/hanya-milktea/binh-luan,Hanya Milktea,"68/12 Thích Quảng Đức, P. 5",17,1046702,2,10.0,1,0,1,0,31,0,10.805285,106.68301
/ho-chi-minh/chi-toi-tiem-com-va-nuoc-giai-khat/binh-luan,Chị Tôi - Tiệm Cơm & Nước Giải Khát,"55/2 Phan Đình Phùng, P. 17",17,1031300,2,10.0,2,0,1,0,27,0,10.793252,106.684728
/ho-chi-minh/the-alley-tra-sua-dai-loan-phan-xich-long/binh-luan,The Alley - Trà Sữa Đài Loan - Phan Xích Long,"206 Phan Xích Long, P. 2",17,733017,2,6.66,861,0,140,49,14257,16,10.7975592,106.6895544
/ho-chi-minh/cimi-nha-may-trai-cay-truong-sa/binh-luan,Cimi Fruit - Trường Sa,"468 Trường Sa, P. 2",17,299947,2,6.854,542,0,126,115,12195,23,10.796586,106.684559
/ho-chi-minh/tra-sua-yucha-tran-huy-lieu/binh-luan,Trà Sữa Yucha - Trần Huy Liệu,"71 Trần Huy Liệu, P. 12",17,276651,2,8.664,624,0,126,32,3918,20,10.792357,106.677886
/ho-chi-minh/banh-mi-bit-tet-le-hong/binh-luan,Bánh Mì Beefsteak Lệ Hồng,489/29/20 Huỳnh Văn Bánh,17,2551,2,7.072,240,0,82,175,38458,37,10.790499,106.670251
/ho-chi-minh/lam-ti-food-beer/binh-luan,Làm Tí - Food & Beer,"436 Trường Sa, P. 2",17,699742,2,7.566,319,0,60,175,38028,7,10.7972591,106.6851005
/ho-chi-minh/ritaki-khoai-lang-mat-huynh-van-banh/binh-luan,Ritaki - Khoai Lang Mật - Huỳnh Văn Bánh,"420/11 Huỳnh Văn Bánh, P. 14",17,763012,2,9.41,33,0,95,173,5944,21,10.7923114,106.6695006
/ho-chi-minh/bun-dau-muot-dang-van-ngu/binh-luan,Bún Đậu Mướt - Đặng Văn Ngữ,"173 Đặng Văn Ngữ, P. 14",17,1053512,2,9.348,10,0,12,4,314,0,10.791147,106.66711
/ho-chi-minh/coffee-nhan-truong-sa/binh-luan,Coffee Nhân - Trường Sa,"1232 Trường Sa, P. 14",17,900372,2,0.0,1,0,0,0,23,0,10.790013,106.667051
/ho-chi-minh/coc-cafe-truong-sa/binh-luan,Cóc Cafe - Trường Sa,1226 Trường Sa,17,103797,2,7.7,13,0,2,0,720,2,10.7898927,106.667066
/ho-chi-minh/cua-ca-mau-guan-truong-sa/binh-luan,Cua Cà Mau Guan - Trường Sa,"1222 Trường Sa, P. 14",17,984304,2,0.0,0,1,0,0,104,0,10.789747,106.667061
/ho-chi-minh/am-thuc-1222-hai-san-phu-quoc/binh-luan,Ẩm Thực 1222 - Hải Sản Phú Quốc,"1222 Trường Sa, P. 14",17,905355,2,0.0,3,0,0,0,140,0,10.78974,106.667063
/ho-chi-minh/tt-l-coffee/binh-luan,TT - L Coffee,"1222 Trường Sa, P. 14",17,1082319,2,0.0,0,0,0,0,17,0,10.7899214,106.6670739
/ho-chi-minh/mi-mi-tea-coffee/binh-luan,Mi Mi - Tea & Coffee,177 Đặng Văn Ngữ,17,647265,2,0.0,3,1,0,0,37,1,10.7908274406817,106.6671277955174
/ho-chi-minh/loc-nguyen-banh-trang-chien-dang-van-ngu/binh-luan,Lộc Nguyễn - Bánh Tráng Chiên - Đặng Văn Ngữ,"174/2 Đặng Văn Ngữ, P. 14",17,1068191,2,7.0,15,0,1,0,93,0,10.79155,106.66719
/ho-chi-minh/che-buoi-dang-van-ngu/binh-luan,Chè Bưởi - Đặng Văn Ngữ,"163 Đặng Văn Ngữ, P. 14",17,971656,2,0.0,0,0,0,0,58,0,10.791329,106.66718
/ho-chi-minh/top-tea/binh-luan,Top Tea,"173 Đặng Văn Ngữ, P. 14",17,1018238,2,8.2,0,0,1,0,66,1,10.791178,106.66718
/ho-chi-minh/fezi-coffee-tra-trai-cay/binh-luan,FEZI - Coffee & Trà Trái Cây,"1222 Trường Sa, P. 14",17,952996,2,0.0,0,0,0,0,43,0,10.789707,106.667113
/ho-chi-minh/chuk-tra-ca-phe-238-phan-xich-long/binh-luan,Chuk Trà & Cà Phê - 238 Phan Xích Long,"236 - 238 Phan Xích Long, P. 2",17,1115158,2,8.0,22,1,1,0,648,0,10.7974415,106.6903213
/ho-chi-minh/bun-rieu-canh-bun-30-nguyen-trong-tuyen/binh-luan,Bún Riêu & Canh Bún 30 - Nguyễn Trọng Tuyển,"220/19 Nguyễn Trọng Tuyển, P. 8",17,1058748,2,0.0,0,2,0,2,262,0,10.7987186,106.6738211
/ho-chi-minh/com-ga-quay-zeus/binh-luan,Cơm Gà Quay Zeus,"122/29 Đặng Văn Ngữ, P. 14",17,1046982,2,8.35,8,1,4,5,761,0,10.793702,106.668233
/ho-chi-minh/keiteishimai-banh-bach-tuoc-nhat/binh-luan,Keiteishimai - Bánh Mì & Bánh Bạch Tuộc Nhật,"431 Nguyễn Kiệm, P. 9",17,732348,2,8.142,10,0,7,13,986,1,10.8012609,106.6792733
/ho-chi-minh/chao-khuya-0h00/binh-luan,Cháo Khuya 0h00 - Phan Đăng Lưu,"97/1A Phan Đăng Lưu, P. 7",17,906551,2,8.298,4,2,6,10,657,0,10.8038962,106.6871749
/ho-chi-minh/bun-cha-ha-noi-1982-doan-thi-diem/binh-luan,Bún Chả Hà Nội 1982 - Đoàn Thị Điểm,"12 Đoàn Thị Điểm, P. 1",17,768243,2,6.984,61,0,38,23,4540,3,10.799081,106.681545
/ho-chi-minh/song-sanh-milk-tea-phung-van-cung/binh-luan,Sóng Sánh Milk Tea - Phùng Văn Cung,"94A2 Phùng Văn Cung, P. 2",17,636138,2,6.696,54,0,23,34,6077,7,10.801709,106.684779
/ho-chi-minh/hu-tieu-muc-ong-gia-cali-phan-xich-long/binh-luan,Hủ Tiếu Mực Ông Già Cali - Phan Xích Long,"001 Chung Cư A3 Phan Xích Long, P. 7",17,91887,2,6.646,425,0,112,125,31067,46,10.798927,106.687405
/ho-chi-minh/cafe-vot-phan-dinh-phung/binh-luan,Cafe Vợt - Phan Đình Phùng,330 Phan Đình Phùng,17,149816,2,6.96,141,0,35,87,35626,17,10.798501,106.680758
/ho-chi-minh/quan-an-chay-thuyen-vien-nguyen-van-dau/binh-luan,Quán Ăn Chay Thuyền Viên - Nguyễn Văn Đậu,"11 - 13 Nguyễn Văn Đậu, P. 5",17,1422,2,5.418,159,0,52,34,20736,18,10.804433,106.686944
/ho-chi-minh/sai-gon-givral-bakery-nguyen-van-troi/binh-luan,Sài Gòn Givral Bakery - Nguyễn Văn Trỗi," 98 Nguyễn Văn Trỗi, P. 8",17,4224,2,7.336,277,0,25,27,42133,8,10.796301,106.674022
/ho-chi-minh/k-pub-nuong-phong-cach-pub-han-quoc-phan-xich-long/binh-luan,K-Pub - Nướng Phong Cách Pub Hàn Quốc - Phan Xích Long,"133 Phan Xích Long, P. 2",17,1044517,2,8.464,90,0,50,12,4789,7,10.798575,106.688144
/ho-chi-minh/tra-sua-high-tea-tran-huy-lieu/binh-luan,Trà Sữa High Tea - Trần Huy Liệu,76 Trần Huy Liệu,17,21829,2,6.824,109,0,39,22,16339,21,10.7938885,106.6779787
/ho-chi-minh/nha-nam-thu-quan-cafe-sach/binh-luan,Nhã Nam Thư Quán - Cafe Sách,"Nhà 15 Lô B, Chung Cư 43 Hồ Văn Huê, Hồ Văn Huê, P. 9",17,93115,2,7.548,150,0,27,72,22938,11,10.8035194,106.676325
/ho-chi-minh/oc-nguyen-phan-xich-long/binh-luan,Ốc Nguyên 1 - Phan Xích Long,"2.9 Phan Xích Long , P. 3",17,34745,2,4.978,327,0,45,13,25696,16,10.797035,106.693338
/ho-chi-minh/ngoc-nu-che-duong-nhan/binh-luan,Ngọc Nữ - Chè Dưỡng Nhan,"28/27/11B Phan Tây Hồ, Phường 7",17,1035538,2,9.964,6,4,53,6,256,37,10.801386,106.686827
/ho-chi-minh/geek-hub-workspace-cafeteria-huynh-van-banh/binh-luan,Geek Hub - Workspace & Cafeteria - Huỳnh Văn Bánh,"244/31 Huỳnh Văn Bánh, P. 11",17,720562,2,8.518,125,0,34,31,5023,5,10.791774,106.675388
/ho-chi-minh/tan-son-nhat/binh-luan,Tân Sơn Nhất - Tiệc Cưới & Hội Nghị,"200 Hoàng Văn Thụ, P. 9",17,4669,2,6.976,277,0,31,4,13269,10,10.800005,106.670262
/ho-chi-minh/an-vat-be-nhi-banh-trang-tron-tra-chanh-59-phan-dang-luu.13djab/binh-luan,Ăn Vặt Bé Nhi - Bánh Tráng Trộn & Trà Chanh - 59 Phan Đăng Lưu,"59/15 Phan Đăng Lưu, P. 7",17,1000046437,2,0.0,0,0,0,0,22,0,10.8029502,106.6887059
/ho-chi-minh/quon-bo-kho-phan-dang-luu.hvvowo/binh-luan,Quởn - Bò Kho - Phan Đăng Lưu,"59/4B Phan Đăng Lưu, P. 7",17,1000044075,2,0.0,0,0,0,0,20,0,10.80326,106.6885719
/ho-chi-minh/mi-quang-bo-kho-dang-van-ngu/binh-luan,Mì Quảng & Bò Kho - Đặng Văn Ngữ,"67 Đặng Văn Ngữ, P.14",17,876713,2,0.0,0,1,0,0,72,0,10.793156,106.668601
/ho-chi-minh/alo-bo-kho-shop-online/binh-luan,Alo Bò Khô - Shop Online,"82 Trần Huy Liệu, P. 15",17,627114,2,0.0,0,2,0,1,52,0,10.794933,106.677911
/ho-chi-minh/hu-tieu-mien-tay-com-ga-xoi-mo-truong-sa/binh-luan,Hủ Tiếu Miền Tây - Bò Kho & Cơm Gà Xối Mỡ - Trường Sa,"458 Trường Sa, P. 2",17,982715,2,0.0,0,0,0,0,76,0,10.796729,106.684596
/ho-chi-minh/guta-cafe-273-nguyen-trong-tuyen/binh-luan,GUTA CAFE - Nguyễn Trọng Tuyển," 271B Nguyễn Trọng Tuyển, Phường 10",17,668102,2,6.712,52,0,9,2,2456,4,10.797996,106.670386
/ho-chi-minh/pizzago-pizza-my-y-salad-phan-dinh-phung/binh-luan,PizzaGo - Pizza - Mỳ Ý & Salad - Phan Đình Phùng,"272 Phan Đình Phùng, P. 1",17,1133667,2,0.0,0,0,0,0,21,0,10.7975147,106.6813674
/ho-chi-minh/me-ti-bun-thit-nuong-banh-trang-tron/binh-luan,Mẹ Ti - Bún Thịt Nướng & Bánh Tráng Trộn,"100/82 Thích Quảng Đức, P. 5",17,1039841,2,8.2,10,0,5,2,144,0,10.807702,106.682894
/ho-chi-minh/che-co-map-che-lanh-rau-cau-tran-huu-trang/binh-luan,Chè Cô Mập - Chè Lạnh & Rau Câu - Trần Hữu Trang,"73 Trần Hữu Trang, P. 10",17,1000046899,2,0.0,0,0,0,0,81,0,10.7939868,106.6733809
/ho-chi-minh/sun-pizza-pizza-tuoi-279-42-huynh-van-banh/binh-luan,Sun Pizza - Pizza Tươi - 279/42 Huỳnh Văn Bánh,"279/42 Huỳnh Văn Bánh, P. 11",17,1059812,2,0.0,0,0,0,0,53,0,10.7915584,106.6756791
/ho-chi-minh/bun-dau-mam-tom-1975-cam-ba-thuoc/binh-luan,Bún Đậu Mắm Tôm 1975 - Cầm Bá Thước,"20 Cầm Bá Thước, P. 7",17,1136945,2,0.0,0,0,0,0,28,0,10.8021637,106.6857875
/ho-chi-minh/bun-bo-hue-91/binh-luan,Bún Bò Huế 91,"91 Phan Đình Phùng, P. 17",17,971093,2,8.85,21,0,4,11,495,0,10.794176,106.683956
/ho-chi-minh/yummy-xien-que-nui-xao-bo/binh-luan,Yummy - Xiên Que & Nui Xào Bò,"4 Trần Khắc Chân, P. 15",17,1071123,2,9.916,23,0,17,18,171,3,10.797383,106.680174
/ho-chi-minh/banh-xeo-ba-hai-nguyen-trong-tuyen/binh-luan,Bánh Xèo Bà Hai - Nguyễn Trọng Tuyển,"49 Nguyễn Trọng Tuyển,  P. 15",17,4796,2,6.342,268,0,79,76,39655,36,10.797202,106.679853
/ho-chi-minh/thu-thu-food-banh-trang-do-an-vat/binh-luan,Thư Thư Food - Bánh Tráng & Đồ Ăn Vặt,"175 Phùng Văn Cung, P. 4",17,960254,2,7.42,9,0,11,8,424,0,10.8049369,106.6825693
/ho-chi-minh/bun-bo-dong-ba-gia-hoi-nguyen-kiem/binh-luan,Bún Bò Đông Ba Gia Hội - Nguyễn Kiệm,"776 Nguyễn Kiệm, P. 4",17,1030560,2,0.0,0,4,0,2,335,0,10.811049,106.678665
/ho-chi-minh/tiem-an-anh-nam-chao-hau-mi-xao-hau-dac-san-hau/binh-luan,"Tiệm Ăn Anh Năm - Cháo Hàu, Mì Xào Hàu & Đặc Sản Hàu","264 Nguyễn Thượng Hiền, P. 5",17,854618,2,7.924,49,0,11,13,736,0,10.80689,106.6837568
/ho-chi-minh/rau-cau-tuoi-palm-jelly-huynh-van-banh/binh-luan,Rau Câu Tươi Palm Jelly - Huỳnh Văn Bánh,"279/22 Huỳnh Văn Bánh, P.11",17,1063604,2,8.6,4,0,1,2,89,0,10.791686,106.675623
/ho-chi-minh/az-tea-tra-trai-cay-hoang-hoa-tham/binh-luan,AZ Tea - Trà Trái Cây - Hoàng Hoa Thám,"211/21 Hoàng Hoa Thám, P. 5",17,1063462,2,0.0,0,0,0,0,64,0,10.8094565,106.683606
/ho-chi-minh/laha-coffee-phan-xich-long/binh-luan,Laha Coffee - Phan Xích Long,"259 Phan Xích Long, P. 2",17,752562,2,7.54,29,0,10,4,3346,2,10.7994733,106.6852669
/ho-chi-minh/pooh-milk-tea-tra-sua-tui/binh-luan,Pooh Milk Tea - Trà Sữa Túi,"150/7 Huỳnh Văn Bánh, P. 12",17,735460,2,1.0,5,3,1,1,374,2,10.792591,106.678418
/ho-chi-minh/che-buoi-vinh-long-2/binh-luan,Chè Bưởi Vĩnh Long - Trường Sa,"414 Trường Sa, P. 2",17,49229,2,5.66,334,0,99,71,31422,23,10.796959,106.686415
/ho-chi-minh/com-ga-chi-tu-bui-van-them/binh-luan,Cơm Gà Chị Tư - Bùi Văn Thêm,"72 Bùi Văn Thêm, P. 9",17,900733,2,8.242,54,0,14,35,1238,2,10.808773,106.677125
/ho-chi-minh/huacha-tra-tra-sua-phan-dang-luu/binh-luan,Huacha - Trà & Trà Sữa - Phan Đăng Lưu,"121/1 ( Đối Diện 133 Phùng Văn Cung) Phan Đăng Lưu, P. 7",17,1052596,2,9.776,16,1,34,4,1133,3,10.803313,106.684814
/ho-chi-minh/gogo-tra-sua-nhat-ban-thich-quang-duc/binh-luan,Trà Sữa Hi Gogo - Thích Quảng Đức,"106 Thích Quảng Đức, P. 5",17,915926,2,8.732,43,1,3,5,933,2,10.806821,106.680539
/ho-chi-minh/quan-chay-phuc-an-cu-sen-rau-cu-qua-nguyen-dinh-chinh/binh-luan,Quán Chay Phúc An - Củ Sen & Rau Củ Quả - Nguyễn Đình Chính,"117D Nguyễn Đình Chính, P. 15",17,1102731,2,9.934,25,0,3,1,74,0,10.7950139,106.6782677
/ho-chi-minh/an-vat-cau-vang-chan-ga-rut-xuong-sa-tac-tai-heo-sot-thai-cn-1/binh-luan,Ăn Vặt Cậu Vàng - Chân Gà Rút Xương Sả Tắc & Tai Heo Sốt Thái - CN 1,"115/25 Phan Đăng Lưu, P. 7",17,1000045314,2,9.874,0,0,11,2,87,0,10.8034412,106.6857284
/ho-chi-minh/chao-ech-singapore-ok-lah-food-truck/binh-luan,Cháo Ếch Singapore - Ok Lah Food truck,"133 Nguyễn Văn Trỗi, P. 11",17,1125485,2,9.866,0,0,31,1,159,0,10.7941898,106.6775485
/ho-chi-minh/hau-nhat-nuong-oyster-box-phung-van-cung/binh-luan,Hàu Nhật Nướng - Oyster Box - Phùng Văn Cung,"34 Phùng Văn Cung, P. 7",17,1073000,2,9.6,2,3,1,3,247,0,10.8003493,106.6860063
/ho-chi-minh/nekome-tra-nhat/binh-luan,Nekome - Trà Nhật,"74/3/2 Phan Đăng Lưu, P. 5",17,67703,2,6.566,189,0,23,62,45592,12,10.804665,106.685483
/ho-chi-minh/vit-quay-tran-gia-phan-dang-luu/binh-luan,Vịt Quay Trần Gia - Phan Đăng Lưu,"50 Phan Đăng Lưu, P. 5",17,220926,2,5.48,9,0,5,14,45095,1,10.8040061146982,106.6866865889549
/ho-chi-minh/quan-an-vat-mimi/binh-luan,Quán Ăn Vặt Mimi,"175/4 Huỳnh Văn Bánh, P. 12",17,168909,2,8.076,83,0,8,77,45048,10,10.7919903,106.6786164999999
/ho-chi-minh/nha-ma-rau-ma-dau-nguyen-trong-tuyen/binh-luan,Nhà Má - Rau Má Đậu - Nguyễn Trọng Tuyển,"263 Nguyễn Trọng Tuyển, P. 10",17,115349,2,7.622,37,0,19,19,44947,2,10.798258,106.670311
/ho-chi-minh/oc-dao-truong-sa/binh-luan,Ốc Đào - Trường Sa,"320 Trương Sa, P. 2",17,41110,2,6.796,522,0,103,93,44681,18,10.796111,106.69122
/ho-chi-minh/quan-nho-banh-canh-gia-lai/binh-luan,Quán Nhớ Gia Lai - Đặc Sản Gia Lai - Hoa Hồng,2 Hoa Hồng,17,222749,2,5.876,128,0,61,67,44624,6,10.7964439,106.6919075
/ho-chi-minh/van-s-coffee-acoustic-tran-huy-lieu/binh-luan,Văn's Coffee Acoustic - Trần Huy Liệu,"172 Trần Huy Liệu, P. 15",17,132578,2,7.346,41,0,15,39,44432,14,10.798429,106.677713
/ho-chi-minh/397-catering-banh-mi-xiu-mai-phan-thiet/binh-luan,397 Catering - Bánh Mì Xíu Mại Phan Thiết,"397 Phan Xích Long, P. 3",17,155289,2,7.352,124,0,25,115,44419,8,10.8023501,106.6822001
/ho-chi-minh/chuong-gio-cafe-nguyen-dinh-chinh/binh-luan,Chuông Gió Cafe - Nguyễn Đình Chính,"221 Nguyễn Đình Chính, P. 11",17,68023,2,7.0,161,0,16,24,43275,9,10.79218,106.672912
/ho-chi-minh/bong-lan-cuon-ngoc-oanh/binh-luan,Bông Lan Cuộn Ngọc Oanh - Shop Online,"90 Trương Quốc Dung, P. 10",17,176581,2,7.412,71,0,15,39,42851,7,10.79521,106.672393
/ho-chi-minh/dinh-1989-ca-phe-pha-phin/binh-luan,DINH. 1989 - Cà Phê Pha Phin,"5 Hẻm 29, Đoàn Thị Điểm, P.1",17,1000056801,2,8.028,13,1,7,3,38,1,10.7988568,106.6821779
/ho-chi-minh/ghien-ca-vien-chien-nuoc-mam-nguyen-kiem.8euogj/binh-luan,Ghiền - Cá Viên Chiên Nước Mắm - Nguyễn Kiệm,"440/12/13 Nguyễn Kiệm, P. 3",17,1000056771,2,0.0,0,0,0,0,3,0,10.801994,106.679772
/ho-chi-minh/mr-troc-tra-sua-an-vat-nguyen-trong-tuyen/binh-luan,Mr. Trọc - Trà Sữa & Ăn Vặt - Nguyễn Trọng Tuyển,"68 Nguyễn Trọng Tuyển, P. 15",17,1147251,2,0.0,0,0,0,0,3,0,10.7973706,106.6795394
/ho-chi-minh/ma-bu-com-tam-bun-thit-nuong-nguyen-dinh-chinh/binh-luan,Ma Bư – Cơm Tấm & Bún Thịt Nướng - Nguyễn Đình Chính,"117B Nguyễn Đình Chính, P. 15",17,1147229,2,0.0,0,0,0,0,1,0,10.79507,106.6784446
/ho-chi-minh/quan-nha-mo-com-chien-mi-xao-bo-luc-lac/binh-luan,"Quán Nhà Mơ - Cơm Chiên, Mì Xào & Bò Lúc Lắc","B001 Chung Cư Trần Kế Xương, P. 7",17,1147191,2,0.0,0,0,0,0,2,0,10.8021664,106.6908784
/ho-chi-minh/tiem-ca-phe-den-duong-68-ca-phe-nuoc-ep-sinh-to-68-nguyen-trong-tuyen/binh-luan,"Tiệm Cà Phê Đèn Đường 68 - Cà Phê, Nước Ép & Sinh Tố - 68 Nguyễn Trọng Tuyển","68 Nguyễn Trọng Tuyển, P. 15",17,1147157,2,0.0,0,0,0,0,2,0,10.7973706,106.6795394
/ho-chi-minh/k-coffee-phan-xich-long/binh-luan,K Coffee - Phan Xích Long,"223 Phan Xích Long, P. 2",17,1147120,2,0.0,0,0,0,0,16,0,10.8010915,106.6838746
/ho-chi-minh/meo-quan-tra-sua-tra-dao-phan-xich-long/binh-luan,Mèo Quán - Trà Sữa & Trà Đào - Phan Xích Long,"343/105 Phan Xích Long, P. 1",17,1147103,2,0.0,0,0,0,0,1,0,10.8006755,106.6833624
/ho-chi-minh/nuoc-ep-nguyen-chat-hoa-qua-tuoi-sach-210-hong-ha.dpy205/binh-luan,Nước Ép Nguyên Chất & Hoa Quả Tươi Sạch - 210 Hồng Hà,"210-212 Hồng Hà, P. 9",17,1000056594,2,0.0,0,0,0,0,4,0,10.8078923,106.6764321
/ho-chi-minh/ulatroi-an-vat-thich-quang-duc.rrlr0s/binh-luan,ULATROI - Ăn Vặt - Thích Quảng Đức,"138 Thích Quảng Đức, P. 4",17,1000056557,2,0.0,0,0,0,0,2,0,10.807354,106.679925
/ho-chi-minh/gia-han-coffee-dang-van-ngu/binh-luan,Gia Hân Coffee - Đặng Văn Ngữ,"142 Đặng Văn Ngữ, P. 14",17,1147046,2,0.0,0,0,0,0,4,0,10.79276,106.66824
/ho-chi-minh/moc-coffee-o-long-la-vang-da-me-298-truong-sa/binh-luan,Mộc Coffee - Ô Long Lá Vàng & Đá Me - 298 Trường Sa,"298 Trường Sa, P. 2",17,1147022,2,0.0,0,0,0,0,5,0,10.7961251,106.6916443
/ho-chi-minh/an-vat-chi-3-ca-vien-chien-ha-cao-phan-xich-long/binh-luan,Ăn Vặt Chị 3 - Cá Viên Chiên & Há Cảo - Phan Xích Long,"450/3 Phan Xích Long, P. 2",17,1122814,2,10.0,1,0,1,0,43,0,10.8008264,106.6842347
/ho-chi-minh/fisico-juices-nuoc-ep-sinh-to-thich-quang-duc/binh-luan,Fisico Juices - Nước Ép & Sinh Tố - Thích Quảng Đức,"211 Thích Quảng Đức, P. 4",17,1000023963,2,10.0,0,0,1,0,45,0,10.807138,106.679788
/ho-chi-minh/lau-bo-de-hem-294-chung-cu-phan-xich-long/binh-luan,Lẩu Bò Dê Hẻm 294 - Chung Cư Phan Xích Long,"Căn Hộ 0.01 Lô B2, Chung Cư A2, Phan Xích Long, P. 7",17,1062556,2,10.0,0,1,1,0,82,0,10.7992343,106.6866099
/ho-chi-minh/lovi-cafe-15-phung-van-cung/binh-luan,Lovi Cafe - 15 Phùng Văn Cung,"15 Phùng Văn Cung, P. 2",17,1034749,2,10.0,0,0,1,0,63,0,10.800013,106.685913
/ho-chi-minh/quan-xoi-chien-20-nguyen-cong-hoan/binh-luan,Quán Xôi Chiên - 20 Nguyễn Công Hoan,"20 Nguyễn Công Hoan, P. 7",17,1111472,2,10.0,0,0,1,0,19,0,10.801659601165,106.690733784605
/ho-chi-minh/chan-ga-nuong-an-vat-ngoc-nu-28-27-11b-phan-tay-ho.c7qd15/binh-luan,Chân Gà Nướng & Ăn Vặt Ngoc Nu - 28/27/11B Phan Tây Hồ,"28/27/11 Phan Tây Hồ, P. 7",17,1000046323,2,10.0,0,0,1,0,10,0,10.801294,106.686884
/ho-chi-minh/bep-nha-lau-mi-com-pha-lau-heo-nguyen-dinh-chinh/binh-luan,"Bếp Nhà Lấu - Mì, Cơm & Phá Lấu Heo - Nguyễn Đình Chính","124 Nguyễn Đình Chính, P. 15",17,1072314,2,10.0,0,0,1,0,59,0,10.7958611,106.6781957
/ho-chi-minh/thuy-nuoc-ep-trai-cay-to-tra-kem/binh-luan,"Thủy - Nước Ép, Trái Cây Tô, Trà & Kem","36 Hoa Lan, P. 2",17,1035529,2,9.98,98,0,10,0,70,10,10.796895,106.69117
/ho-chi-minh/banh-mi-hap-cho-co-giang/binh-luan,Bánh Mì 83 - Cô Giang,"83 Cô Giang, P. 1",17,45273,2,7.73,94,0,29,152,13480,15,10.795995,106.683215
/ho-chi-minh/miss-dac-che-khong-ngot-phan-xich-long/binh-luan,Miss Đác - Chè Không Ngọt - Phan Xích Long,"343 Phan Xích Long, P. 1",17,896019,2,6.49,294,11,43,151,23712,3,10.8012042,106.6834606
/ho-chi-minh/banh-sau-rieng-em-crepe-nhieu-tu/binh-luan,Bánh Sầu Riêng Em Crepe - Nhiêu Tứ,"45/2A Nhiêu Tứ, P. 7",17,701312,2,7.186,142,0,79,150,5705,3,10.8004535,106.6893915
/ho-chi-minh/banh-duc-thich-quang-duc/binh-luan,Bánh Đúc - Thích Quảng Đức,"100/14 Thích Quảng Đức, P. 5",17,90873,2,7.048,96,0,30,144,13421,6,10.806255,106.681843
/ho-chi-minh/bun-rieu-co-phuong-dang-van-ngu/binh-luan,Bún Riêu Cô Phượng - Đặng Văn Ngữ,156/7 Đặng Văn Ngữ,17,133082,2,7.018,43,0,11,138,7034,1,10.792375,106.6677243
/ho-chi-minh/hu-tieu-bo-vien-doan-thi-diem/binh-luan,Hủ Tiếu Bò Viên - Đoàn Thị Điểm,1 Đoàn Thị Điểm,17,67756,2,6.64,82,0,42,128,17946,18,10.799711,106.68097
/ho-chi-minh/beer-music-ts-1224-truong-sa/binh-luan,Beer Music TS 1224 - Trường Sa,"1224 Trường Sa, P. 13",17,1138302,2,0.0,0,0,0,0,11,0,10.7897952314744,106.6671275842295
/ho-chi-minh/noc-nha-hai-san-sot-thai-thit-nuong-bbq-truong-sa/binh-luan,Nóc Nhà - Hải Sản Sốt Thái & Thịt Nướng BBQ - Trường Sa,"1220 Trường Sa, P. 13",17,1114482,2,0.0,0,1,0,0,113,0,10.7896984,106.6671423
