ReviewUrl,name,Address,districtid,RestaurantId,RestaurantStatus,avgrating,TotalPictures,TotalSaves,TotalReviews,TotalFavourites,TotalViews,TotalCheckIns,Latitude,Longitude
/ho-chi-minh/morico-modern-japanese-restaurant-cafe-crescent-mall/binh-luan,Morico - Contemporary Japanese Lifestyle - Crescent Mall,"Tầng 2 Crescent Mall, 101 Tôn Dật Tiên, P. Tân Phú",9,2600,2,7.872,3627,0,375,282,42005,132,10.727857,106.718174
/ho-chi-minh/papa-s-chicken/binh-luan,Papas' Chicken - Phú Mỹ Hưng,"S37-1 Hưng Vượng 2, Bùi Bằng Đoàn, P. Tân Phong",9,2892,2,7.012,2760,0,524,770,199904,162,10.7307219,106.7086755
/ho-chi-minh/koi-the-viet-nam-sc-vivocity/binh-luan,KOI Thé - SC VivoCity,"Tầng 1 - 01 - 16, Khu F SC VivoCity, 1058 Nguyễn Văn Linh, KP. 1, P. Tân Phong",9,166498,2,7.196,1984,0,466,286,91624,180,10.7299087,106.7034179
/ho-chi-minh/gogi-house-quan-nuong-han-quoc-vivocity/binh-luan,Gogi House - Quán Nướng Hàn Quốc - SC VivoCity,"Tầng 4 - 12A SC VivoCity, 1058 Nguyễn Văn Linh, KP. 1, P. Tân Phong",9,131676,2,8.468,1584,0,409,85,35717,46,10.730089,106.703522
/ho-chi-minh/phuc-long-crescent-mall/binh-luan,Phúc Long Crescent Mall,"Tầng G Crescent Mall, 101 Tôn Dật Tiên, P. Tân Phú",9,6644,2,7.174,2165,0,401,201,63948,183,10.729155,106.718531
/ho-chi-minh/sumo-bbq-buffet-nuong-lau-sc-vivocity/binh-luan,Sumo BBQ - SC VivoCity - Buffet Nướng & Lẩu,"Tầng 2 Lô 02 - 39 SC Vivo City, 1058 Nguyễn Văn Linh, KP. 1, P. Tân Phong",9,135897,2,8.378,1991,0,293,58,40060,78,10.7300774463277,106.7036148905754
/ho-chi-minh/pizza-hut-lotte-mart-nam-sai-gon/binh-luan,Pizza Hut - Lotte Mart Nam Sài Gòn,"Tầng Trệt Lotte Mart Nguyễn Hữu Thọ, 469 Nguyễn Hữu Thọ, P. Tân Hưng",9,4184,2,7.344,924,0,146,55,19187,69,10.74113,106.701375
/ho-chi-minh/mrbbq/binh-luan,Mr.BBQ - Ẩm Thực Hàn Quốc,"137 Tôn Dật Tiên, P. Tân Phú",9,1087,2,7.224,972,0,194,107,40166,308,10.723737,106.716117
/ho-chi-minh/sushi88-nguyen-thi-thap/binh-luan,Sushi88 - Nguyễn Thị Thập,"44 - 46 Đường Số 14, KDC Him Lam, P. Tân Hưng",9,96511,2,7.02,1817,0,274,390,77263,69,10.740173,106.698467
/ho-chi-minh/pizza-4p-s-pizza-kieu-nhat-nguyen-van-linh/binh-luan,Pizza 4P’s - Pizza Kiểu Nhật - Nguyễn Văn Linh,"Lô MD2, Nguyễn Văn Linh, P Tân Phú",9,205431,2,8.106,1741,0,179,168,43127,62,10.731467,106.715654
/ho-chi-minh/bingsu-sua-bao-tuyet-hoa-seol-hwa/binh-luan,Seol Hwa - Bingsu Sữa Bào Tuyết Hoa - Sky Graden,"28/1 Phạm Văn Nghị, Khu Phố Sky Garden 1, P. Tân Phong",9,121579,2,7.856,788,0,182,401,76949,50,10.7292306,106.7067192
/ho-chi-minh/tokyo-deli-park-view-phu-my-hung/binh-luan,Tokyo Deli Express - Sushi - Park View Phú Mỹ Hưng,"SC6-1, Nguyễn Đức Cảnh, P. Tân Phong",9,4501,2,7.324,976,0,129,57,24977,57,10.726029,106.708971
/ho-chi-minh/tajmasago-buffet-lau-dai-trang/binh-luan,TajmaSago - Hotel & Resort,"6 Phan Văn Chương, Phú Mỹ Hưng",9,14970,2,7.528,858,0,86,258,101914,40,10.724886,106.719797
/ho-chi-minh/ngoc-trinh-banh-canh-cua/binh-luan,Bánh Canh Cua Ngọc Trinh - Trần Xuân Soạn,"867 Trần Xuân Soạn, P. Tân Hưng",9,104587,2,7.25,566,0,143,346,99154,54,10.751666,106.696684
/ho-chi-minh/galbi-brothers/binh-luan,Galbi Brothers - Nhà Hàng Hàn Quốc,"R1 - 25 Hưng Phước 4, Phạm Văn Nghị, P. Tân Phong",9,42149,2,6.944,1381,0,195,237,85435,62,10.729853,106.706771
/ho-chi-minh/mon-la-lau-cua-dong/binh-luan,Món Lạ - Lẩu Cua Đồng,"14 Đường Số 10, P. Tân Quy",9,61438,2,6.844,366,0,94,356,84075,34,10.740399,106.709919
/ho-chi-minh/kem-xoi-dua-bu-bu-duong-so-10/binh-luan,Kem Xôi Dừa Bu Bu - Đường Số 10,"14 Đường Số 10, P. Tân Quy",9,89627,2,7.218,798,0,157,329,83887,87,10.7426298,106.7102166
/ho-chi-minh/hu-tieu-nam-vang-tai-anh-nguyen-thi-thap/binh-luan,Hủ Tiếu Nam Vang Tài Anh - Nguyễn Thị Thập,"494 Nguyễn Thị Thập, P. Tân Quy",9,50659,2,7.448,216,0,86,205,77351,45,10.739667,106.70505
/ho-chi-minh/shabu-ya-buffet-lau-nhat-sc-vivocity/binh-luan,Shabu Ya - SC VivoCity,"Tầng 4 - SC VivoCity, 1058 Nguyễn Văn Linh, KP. 1, P. Tân Phong",9,144694,2,7.546,1719,0,192,192,74632,27,10.730089,106.703522
/ho-chi-minh/crescent-mall/binh-luan,Crescent Mall Shopping Center,"101 Tôn Dật Tiên, P. Tân Phú",9,101341,2,8.214,1841,0,70,62,73596,29,10.727812,106.718289
/ho-chi-minh/nho-coffee-diem-tam-com-nieu/binh-luan,Nhớ Coffee - Điểm Tâm & Cơm Niêu,"37 Đường Số 39, P. Bình Thuận",9,1151616,2,0.0,0,0,0,0,1,0,10.743885,106.716176
/ho-chi-minh/bun-bo-hue-co-map-duong-so-17/binh-luan,Bún Bò Huế Cô Mập - Đường Số 17,"95/8 Đường Số 17, P. Tân Thuận Tây",9,1151609,2,0.0,0,0,0,0,3,0,10.747575,106.717864
/ho-chi-minh/tra-sua-bobapop-tan-quy/binh-luan,Trà Sữa Bobapop - Tân Quy,"131 Đường Số 17, P. Tân Quy",9,1151605,2,0.0,0,0,0,0,2,0,10.74515112553,106.7078428711648
/ho-chi-minh/de-tuoi-5-xi-lam-van-ben/binh-luan,Dê Tươi 5 Xị - Lâm Văn Bền,"5 Lâm Văn Bền, P. Tân Thuận Tây",9,1151584,2,0.0,0,0,0,0,1,0,10.7504286697701,106.7155686955417
/ho-chi-minh/hoa-vy-che-thai-tau-hu/binh-luan,Hoa Vy - Chè Thái & Tàu Hũ,"2 Lâm Văn Bền, P. Tân Kiểng",9,1151581,2,0.0,0,0,0,0,1,0,10.7516288393558,106.7157497017418
/ho-chi-minh/a-chu-quan-pho-ga-ta-bun-thang-gia-truyen-ha-noi-le-van-luong/binh-luan,A Chử Quán - Phở Gà Ta & Bún Thang Gia Truyền Hà Nội - Lê Văn Lương,"452 Lê Văn Lương, P. Tân Phong",9,1151560,2,0.0,0,0,0,0,0,0,10.736338,106.702873
/ho-chi-minh/tau-hu-tre-vang-tau-hu-rau-cau-pho-mai-bui-van-ba/binh-luan,Tàu Hủ Tre Vàng - Tàu Hủ Rau Câu Phô Mai - Bùi Văn Ba,"136 Bùi Văn Ba, P. Tân Thuận Đông",9,1151547,2,0.0,0,0,0,0,2,0,10.7503462,106.7330738
/ho-chi-minh/thuy-hanh-bun-rieu-duong-so-2.egd4vc/binh-luan,Thúy Hạnh - Bún Riêu - Đường Số 2,"31 Đường Số 2, P. Phú Mỹ (Gần Khách Sạn Belleza)",9,1000058512,2,0.0,0,0,0,0,1,0,10.7053599,106.7280789
/ho-chi-minh/huyen-tran-quan-bun-thai-banh-canh-cua/binh-luan,Huyền Trân Quán - Bún Thái & Bánh Canh Cua,"162 Bùi Văn Ba, P. Tân Thuận Đông",9,1000058511,2,0.0,0,0,0,0,1,0,10.7503574,106.7336406
/ho-chi-minh/nha-hang-sushi-one-duong-so-2/binh-luan,Nhà Hàng Sushi One - Đường Số 2,"R4-52 Đường Số 2, Khu Phố Hưng Gia 5, P. Tân Phong",9,1000058465,2,0.0,0,0,0,0,1,0,10.7339194,106.7088444
/ho-chi-minh/young-young-mon-an-han-quoc-tokbokki-kimbap-pham-van-nghi/binh-luan,Young Young Món Ăn Hàn Quốc - Tokbokki & Kimbap - Phạm Văn Nghị,"S57-1 SkyGarden 2 Phạm Văn Nghị, P. Tân Phong",9,1151436,2,0.0,0,0,0,0,1,0,10.730852,106.705857
/ho-chi-minh/coolabah-saigon-happy-valley/binh-luan,Coolabah - Bistro - Nguyễn Văn Linh ,"Block L Happy Valley Nguyễn Văn Linh, P. Tân Phong",9,1144332,2,0.0,0,0,0,0,5,0,10.7314612,106.7125814
/ho-chi-minh/an-vat-loc-thao-shop-online/binh-luan,Ăn Vặt Lộc Thảo - Shop Online,"1135/15/11 Huỳnh Tấn Phát, P. Phú Thuận",9,1048170,2,10.0,6,0,7,1,117,1,10.723876,106.736431
/ho-chi-minh/the-ali-coffee-tea/binh-luan,The Ali - Coffee & Tea,"167 Đường Số 15, P. Tân Kiểng",9,780741,2,10.0,59,0,2,1,312,1,10.7449023351818,106.7046951595246
/ho-chi-minh/tiem-mi-gia-long-ky/binh-luan,Tiệm Mì Gia Long Ký,"793/58/28 Trần Xuân Soạn, P. Tân Hưng",9,863906,2,10.0,1,0,3,7,425,1,10.749104,106.698905
/ho-chi-minh/rock-king-coffee/binh-luan,Rock-King Coffee Q7,"25 Đường Số 4, Khu Dân Cư Belleza, P. Phú Mỹ",9,979206,2,10.0,25,0,3,0,220,1,10.707026,106.729907
/ho-chi-minh/bo-kho-chao-long-chung-cu-tan-quy/binh-luan,Bò Kho & Cháo Lòng - Chung Cư Tân Quy,"10 Chung Cư Tân Quy, Đường Số 15, P. Tân Quy",9,958090,2,10.0,1,0,2,5,327,2,10.745086,106.705449
/ho-chi-minh/sudo-bap-xao-trung-muoi-an-vat-xien-que/binh-luan,Sudo - Bắp Xào Trứng Muối & Ăn Vặt Xiên Que,"435/47/12C Huỳnh Tấn Phát, P. Tân Thuận Đông",9,1023892,2,10.0,52,0,3,1,273,0,10.747363,106.730194
/ho-chi-minh/ong-map-tia-to-korean-cuisine/binh-luan,Ông Mập Tía Tô Korean Cuisine,"161 Tôn Dật Tiên, P. Tân Phong",9,1021401,2,10.0,8,0,1,8,748,2,10.722506,106.714129
/ho-chi-minh/song-bistro-cafe/binh-luan,Sống - Bistro & Cafe,"B01 - 03 Sunrise City View, 33 Nguyễn Hữu Thọ, P. Tân Hưng",9,1040477,2,10.0,18,0,1,2,210,3,10.745681,106.701458
/ho-chi-minh/ga-nuong-333/binh-luan,Gà Nướng 333,"KA7/7C Trần Xuân Soạn, P. Tân Thuận Tây",9,1046345,2,10.0,2,0,2,2,132,1,10.75453,106.720912
/ho-chi-minh/pate-sunny-pate-tuoi-lam-van-ben/binh-luan,Pate Sunny - Pate Tươi - Lâm Văn Bền,"60/78/10 Lâm Văn Bền, P. Tân Kiểng",9,1000023297,2,10.0,10,0,6,0,74,0,10.7486153,106.7145227
/ho-chi-minh/tra-sua-gin-s/binh-luan,Trà Sữa Gin's,"486 Huỳnh Tấn Phát, P. Bình Thuận",9,1053522,2,10.0,2,0,3,0,128,2,10.743496,106.729427
/ho-chi-minh/chi-thao-banh-mi-pha-lau/binh-luan,Chị Thảo - Bánh Mì Phá Lấu,"118 Đường Số 15, P. Tân Kiểng",9,741909,2,10.0,11,0,2,11,660,0,10.745516,106.706234
/ho-chi-minh/tra-sua-gong-cha-phu-my-hung/binh-luan,Trà Sữa Gong Cha - 貢茶 - Phú Mỹ Hưng,"SB-02, 201 Tôn Dật Tiên, P. Tân Phong",9,154729,2,6.606,1044,0,207,139,36268,52,10.7217,106.712981
/ho-chi-minh/the-alley-tra-sua-dai-loan-nguyen-duc-canh/binh-luan,The Alley - Trà Sữa Đài Loan - Nguyễn Đức Cảnh,"137 Nguyễn Đức Cảnh, P. Tân Phong",9,755376,2,1.644,122,0,196,15,4388,5,10.7241552,106.7089385
/ho-chi-minh/vanie-nguyen-bakery-banh-pho-mai-mi-spaghetti-cua-riviera-point/binh-luan,Vanie Nguyen Bakery - Bánh Phô Mai & Mì Spaghetti Cua - Riviera Point,"Tháp 5, Chung cư Riviera Point, Nguyễn Văn Tưởng, P. Tân Phú",9,231269,2,6.708,331,0,68,341,10216,16,10.7319481,106.7292002
/ho-chi-minh/bachutha-banh-chuoi-thai/binh-luan,Bachutha - Bánh Chuối Thái - Đường Số 10,"54 Đường Số 10, P. Tân Quy",9,258977,2,6.264,157,0,64,268,17945,6,10.7427682,106.7100902
/ho-chi-minh/cafe-so-8-duong-75-cafe-soda-nuoc-ep-duong-so-75.kbasdk/binh-luan,Cafe Số 8 Đường 75 - Cafe  Soda Nước Ép - Đường Số 75,"8 Đường Số 75, P. Tân Phong",9,1000026796,2,0.0,0,0,0,0,6,0,10.7392297,6.7050699
/ho-chi-minh/sup-cua-sup-tom/binh-luan,Súp Cua & Súp Tôm,"160 Nguyễn Văn Quỳ, P. Phú Thuận",9,911698,2,0.0,0,0,0,0,22,0,10.823099,106.629664
/ho-chi-minh/mon-cafe-sinh-to-nuoc-ep-duong-so-9/binh-luan,Mon - Cà Phê & Sinh Tố - Đường Số 9,"28 Đường Số 9, P. Tân Phú",9,1036243,2,0.0,0,0,0,0,33,0,10.7967813,106.6504116
/ho-chi-minh/viet-my-coffee-cong-nghe-rang-xay-sieu-sach/binh-luan,Việt Mỹ Coffee - Công Nghệ Rang Xay Siêu Sạch,"74 Đường Số 11, Khu Dân Cư Trung Sơn",9,36786,2,7.18,54,0,10,3,2870,7,10.729228,106.688324
/ho-chi-minh/sushi-one/binh-luan,Sushi One,"42 Hoàng Trọng Mậu, P. Tân Hưng",9,975815,2,8.05,83,1,4,9,653,4,10.7339388112785,106.688806079328
/ho-chi-minh/cherry-shop-lau-tran-xuan-soan.t5f4kr/binh-luan,Cherry Shop - Lẩu - Trần Xuân Soạn,"1041/109Bis Trần Xuân Soạn, P. Tân Hưng",9,1000033162,2,0.0,0,0,0,0,1,0,10.7513221,106.6907752
/ho-chi-minh/com-tam-minh-long-nguyen-thi-thap/binh-luan,Cơm Tấm Minh Long - Nguyễn Thị Thập,"607 Nguyễn Thị Thập, P. Tân Hưng",9,171903,2,6.274,99,0,46,54,11526,3,10.73988,106.70281
/ho-chi-minh/tra-sua-maycha-duong-so-17/binh-luan,Trà Sữa MayCha - Đường Số 17,"181 - 183 Đường Số 17, P. Tân Quy",9,1131546,2,1.88,8,0,5,0,498,0,10.7448729,106.7105521
/ho-chi-minh/bun-bo-vy-da-xua/binh-luan,Bún Bò Vỹ Dạ Xưa,"2 Lê Văn Thiêm, Phú Mỹ Hưng, P. Tân Phong",9,776115,2,6.4,22,0,10,40,3956,0,10.731141,106.710316
/ho-chi-minh/ga-ran-popeyes-nguyen-thi-thap/binh-luan,Gà Rán Popeyes - Nguyễn Thị Thập,"332 Nguyễn Thị Thập, P. Tân Quy",9,188435,2,6.79,647,0,100,43,8983,19,10.738599,106.712883
/ho-chi-minh/com-ga-xoi-mo-vi-anh-le-van-luong/binh-luan,Cơm Gà Xối Mỡ Vi Anh - Lê Văn Lương,"190 Lê Văn Lương, P. Tân Hưng",9,98797,2,7.62,50,0,22,31,6137,15,10.7467107,106.7044789
/ho-chi-minh/sup-cua-moc-le-van-luong/binh-luan,Súp Cua Mộc - Lê Văn Lương,"504 Lê Văn Lương, P. Tân Phong",9,935622,2,7.234,83,1,17,22,1548,3,10.7349588,106.7019473
/ho-chi-minh/banh-uot-long-ga-da-lat-chinh-goc/binh-luan,Bánh Ướt Lòng Gà Đà Lạt - Chính Gốc,"137 Đường Số 39, P. Tân Quy",9,977734,2,7.468,13,1,12,32,1329,2,10.7440442890949,106.7119913966602
/ho-chi-minh/like-food-drink-shop-online/binh-luan,Like Food & Drink,"465/2A Trần Xuân Soạn, P. Tân Kiểng",9,870447,2,7.782,228,0,36,116,2515,1,10.751446,106.707531
/ho-chi-minh/nobita-tra-sua/binh-luan,Nobita - Trà Sữa,"179 Đường Số 17, P. Tân Quy",9,174408,2,5.976,148,0,68,35,15207,25,10.7449312,106.710815
/ho-chi-minh/korean-grill-buzza-bbq-buffet-nguyen-thi-thap/binh-luan,Korean Grill - Buzza BBQ Buffet - Nguyễn Thị Thập,"Tầng 3, 51 - 53 Nguyễn Thị Thập, P. Tân Hưng",9,281578,2,8.088,572,0,124,136,19144,12,10.740871,106.6983734
/ho-chi-minh/jangwon-korean-bbq-buffet-nuong-ban-da-lau-han-quoc/binh-luan,Jangwon Korean BBQ - Buffet Nướng Bàn Đá & Lẩu Hàn Quốc,"414 Nguyễn Thị Thập, P. Tân Quy",9,801373,2,7.002,359,0,29,97,10554,29,10.739088,106.709431
/ho-chi-minh/mars-venus-restaurant-nguyen-duc-canh/binh-luan,Mars & Venus Restaurant - Nguyễn Đức Cảnh,"88 Nguyễn Đức Cảnh, P. Tân Phong",9,1037415,2,9.25,21,2,4,27,1935,2,10.720629,106.715255
/ho-chi-minh/tokori-bbq-nha-hang-nuong-nhat-ban-nguyen-thi-thap/binh-luan,Tokori BBQ - Nhà Hàng Nướng Nhật Bản - Nguyễn Thị Thập,"577 Nguyễn Thị Thập, P. Tân Phong",9,867027,2,8.268,148,0,41,27,5134,3,10.739291,106.706658
/ho-chi-minh/nha-hang-kingscross-phu-my-hung/binh-luan,Kingscross - Món Ăn Á Âu - Phú Mỹ Hưng,"CR1 -11&12 Crescent Mall, 103 Tôn Dật Tiên, P. Tân Phú",9,701091,2,7.616,175,0,14,36,5927,3,10.727813,106.718785
/ho-chi-minh/am-thuc-san-vuon-mai-la/binh-luan,Ẩm Thực Sân Vườn Mái Lá - Đường Số 36,"1D Đường Số 36, P. Tân Quy",9,725373,2,5.95,172,0,12,12,14012,4,10.7414627,106.708843
/ho-chi-minh/yeebo-ho-ban-nguyet/binh-luan,"Yeebo Di Bửu - Seafood, Hot Pot & Dimsum - Hồ Bán Nguyệt","109 Tôn Dật Tiên, P. Tân Phú",9,4527,2,7.566,523,0,58,69,31934,21,10.725291,106.720125
/ho-chi-minh/com-nuong-hotto-lotte-mart-nam-sai-gon/binh-luan,Hotto - Món Ngon Trên Đĩa Nóng - Lotte Mart Nam Sài Gòn,"Tầng 3 Lotte Mart Nam Sài Gòn, 469 Nguyễn Hữu Thọ, P. Tân Hưng",9,113461,2,5.97,574,0,61,25,8593,7,10.7409218,106.701775
/ho-chi-minh/ngo-mon-viet-crescent-mall/binh-luan,Ngõ - Món Việt - Crescent Mall,"Gian Hàng 3F-55, Tầng 3, Trung Tâm Thương Mại Crescent Mall, 101 Tôn Dật Tiên, P. Tân Phú",9,1012175,2,8.468,245,0,3,1,549,0,10.729087,106.7188773
/ho-chi-minh/maneki-neko-deli-am-thuc-nhat-ban-sc-vivocity/binh-luan,Maneki Neko Deli - Ẩm Thực Nhật Bản - SC VivoCity,"12C Tầng 4 SC VivoCity, 1058 Nguyễn Văn Linh, KP. 1, P. Tân Phong",9,788054,2,3.212,10,0,14,1,598,1,10.730089,106.703522
/ho-chi-minh/nha-hang-las-vegas/binh-luan,Nhà Hàng Las Vegas,"188 - 190 - 192 Nguyễn Văn Linh, P. Tân Thuận Tây",9,1015404,2,7.732,33,7,3,9,2305,1,10.75141,106.7233
/ho-chi-minh/waraku-japanese-restaurant/binh-luan,Waraku - Japanese Restaurant,"Số 2 Đường C, P. Tân Phú",9,1068101,2,0.0,0,3,0,1,163,0,10.7303988,106.723599
/ho-chi-minh/ga-ran-chicken-plus-39-nguyen-thi-thap/binh-luan,Gà Rán Chicken Plus - 39 Nguyễn Thị Thập,"39 Nguyễn Thị Thập, P. Tân Phú",9,1057465,2,7.7,61,0,2,0,308,0,10.7376819,106.7289648
/ho-chi-minh/nathalie-s-thai/binh-luan,Nathalie’s Thái,"23 Bùi Bằng Đoàn, P. Tân Phong",9,2804,2,7.212,411,0,54,62,23347,12,10.731844,106.7085152
/ho-chi-minh/jin-guk-am-thuc-han-quoc/binh-luan,Jin Guk - Ẩm Thực Hàn Quốc,"76 Phan Khiêm Ích, P. Tân Phong",9,1035311,2,8.4,16,0,1,8,752,0,10.7329,106.707388
/ho-chi-minh/kitaya-vietnam-japanese-deli-cafe-bar/binh-luan,"Kitaya Vietnam - Japanese Deli, Cafe & Bar","5C, Tầng 5 Crescent Mall, 101 Tôn Dật Tiên, P. Tân Phú",9,999884,2,8.8,38,0,2,0,329,0,10.72901,106.718722
/ho-chi-minh/raw-cocktail-lounge-dinner/binh-luan,Raw - Cocktail Lounge & Dinner,"76 Đường C, KP. Nam Phúc, P. Phú Mỹ",9,1032223,2,9.4,13,0,1,1,400,0,10.720128,106.729948
/ho-chi-minh/pizza-tonda-vietnam-duong-17/binh-luan,Pizza Tonda Vietnam - Đường 17,"53 Đường 17, Khu Phố Mỹ Thái 2, P. Tân Phú",9,984616,2,7.15,111,0,8,2,352,2,10.7215923,106.727441
/ho-chi-minh/mr-map-seafood-garden/binh-luan,Mr.Mập - Seafood Garden,"142 Nguyễn Thị Thập, P. Bình Thuận",9,1028609,2,9.5,15,0,2,0,198,0,10.738224,106.719648
/ho-chi-minh/wrap-roll-sc-vivocity/binh-luan,Wrap&Roll - SC VivoCity,"Tầng 4 - SC VivoCity, 1058 Nguyễn Văn Linh, KP. 1, P. Tân Phong",9,191295,2,6.384,216,0,27,4,2021,17,10.729793,106.70318
/ho-chi-minh/d-maris-buffet-cao-cap-lotte-mart-nam-sai-gon/binh-luan,D'Maris - Buffet Cao Cấp - Lotte Mart Nam Sài Gòn,"Lầu 3 Lotte Mart Nam Sài Gòn, 469 Nguyễn Hữu Thọ, P. Tân Hưng",9,707963,2,7.642,1209,0,116,217,44184,62,10.741117,106.702195
/ho-chi-minh/phuc-long-coffee-tea-house-sc-vivocity/binh-luan,Phúc Long Coffee & Tea - SC VivoCity,"Tầng 1 - 41A - 41B SC VivoCity, 1058 Nguyễn Văn Linh, KP. 1, P. Tân Phong",9,131716,2,7.372,1176,0,214,41,13340,86,10.7296716,106.7031452
/ho-chi-minh/remnant-cafe-nguyen-thi-thap/binh-luan,Remnant Cafe - Nguyễn Thị Thập,"28 Nguyễn Thị Thập, P. Tân Hưng",9,109057,2,6.958,767,0,125,185,61663,62,10.7403682,106.7009993
/ho-chi-minh/king-bbq-buffet-sc-vivocity/binh-luan,King BBQ - Vua Nướng Hàn Quốc - SC VivoCity,"04-05B SC VivoCity, 1058 Nguyễn Văn Linh, KP. 1, P. Tân Phong",9,131355,2,7.322,782,0,123,51,30916,25,10.7297032319179,106.7022174596786
/ho-chi-minh/mi-cay-nam-han/binh-luan,Mì Cay Nam Hàn,101 Nguyễn Thị Thập,9,251765,2,8.4,12,0,1,6,1026,1,10.7378936780388,106.7231708765029
/ho-chi-minh/chao-long-ha-noi/binh-luan,Cháo Lòng Hà Nội,"268 Nguyễn Thị Thập, P. Tân Quy",9,629529,2,6.534,25,0,6,19,1759,2,10.73846,106.715155
/ho-chi-minh/chi-lan-khoai-mo-khoai-lang-chien/binh-luan,Chị Lan - Khoai Mỡ & Khoai Lang Chiên,"659 Trần Xuân Soạn, P. Tân Hưng",9,907302,2,5.6,8,14,1,6,690,0,10.751708,106.703227
/ho-chi-minh/banh-trang-thim-huong-phu-thuan/binh-luan,Bánh Tráng Thím Hương - Phú Thuận ,"32/3 Phú Thuận, P. Phú Thuận ",9,1000057857,2,0.0,0,0,0,0,5,0,10.73113,106.73375
/ho-chi-minh/bun-ga-nuong-q7-phu-thuan/binh-luan,Bún Gà Nướng Q7 - Phú Thuận,"10 Phú Thuận, P. Phú Thuận",9,1147838,2,0.0,0,0,0,0,2,0,10.7306886,106.731242
/ho-chi-minh/highlands-coffee-l16-him-lam/binh-luan,Highlands Coffee - L16 Him Lam,"139 Nguyễn Thị Thập, P. Tân Hưng",9,912479,2,5.856,67,3,7,3,1106,1,10.740902,106.695915
/ho-chi-minh/hello-chym-cut-cut-chien-bo/binh-luan,Hello ChYm Cút  - Cút Chiên Bơ,"B98 Đường Số 3, P. Tân Hưng",9,1001302,2,8.5,2,2,2,4,213,0,10.73454,106.701652
/ho-chi-minh/banh-trang-tron-long-an-tran-xuan-soan/binh-luan,Bánh Tráng Trộn Long An,"Đầu hẻm 903 Trần Xuân Soạn, P. Tân Hưng",9,281341,2,7.2,2,0,1,1,851,2,10.751574,106.695565
/ho-chi-minh/pho-xich/binh-luan,Phở Xích - Phú Mỹ Hưng,4 -1A Đường P,9,286026,2,7.88,61,0,20,38,2551,1,10.727138,106.714045
/ho-chi-minh/mingo-coffee-duong-79.h8hqzd/binh-luan,MINGO Coffee - Đường 79,"136 Đường 79, P. Tân Quy",9,1000046110,2,0.0,0,0,0,0,27,0,10.7406905,106.7065813
/ho-chi-minh/phap-uyen-2/binh-luan,Pháp Uyển 2 - Ẩm Thực Chay,"72/1B Lâm Văn Bền, P. Tân Thuận Tây",9,20869,2,5.742,153,0,27,20,20421,11,10.74738,106.715956
/ho-chi-minh/huong-trinh-banh-canh-cua-duong-14-17.qn2qqp/binh-luan,Hương Trinh - Bánh Canh Cua - Đường 14/17,"112 Đường Số 14/17, P. Tân Kiểng",9,1000055518,2,0.0,0,1,0,0,0,0,10.7450342,106.7117271
/ho-chi-minh/ngoc-bich-banh-uot-banh-cuon-huynh-tan-phat.vrkzhj/binh-luan,Ngọc Bích - Bánh Ướt & Bánh Cuốn - Huỳnh Tấn Phát,"1641 Huỳnh Tấn Phát, P. Phú Mỹ",9,1000037141,2,0.0,0,0,0,0,2,0,10.7042714,106.7380077
/ho-chi-minh/mai-anh-bo-kho-cari-ga-duong-so-30/binh-luan,Mai Anh - Bò Kho & Cari Gà - Đường Số 30,"Số 8 Lô E3 Đường Số 30, P. Tân Phong",9,1000029633,2,0.0,0,0,0,0,92,0,10.7381086,106.7080522
/ho-chi-minh/di-thanh-sua-dau-nanh-41-sua-dau-nanh-duong-so-41.tevdme/binh-luan,Dì Thanh Sữa Đậu Nành 41 - Sữa Đậu Nành - Đường Số 41,"96 Đường Số 41, P. Tân Quy",9,1000030128,2,0.0,0,0,0,0,30,0,10.7434638,106.7128627
/ho-chi-minh/pho-ong-gia-ha-huy-tap/binh-luan,Phở Ông Già - Hà Huy Tập,"126 Hà Huy Tập, P. Tân Phong",9,1118766,2,0.0,0,0,0,0,14,0,10.7266494,106.7096084
/ho-chi-minh/pho-sang-pho-bo-pho-ga-tan-quy.b0obst/binh-luan,Phở Sang - Phở Bò & Phở Gà - Tân Quy,"179 Đường 79, P. Tân Quy",9,1000051014,2,0.0,0,0,0,0,9,0,10.7407245,106.7050566
/ho-chi-minh/com-tam-alin/binh-luan,Cơm Tấm ALìn,"55 Đường Số 25, P. Tân Quy",9,1071467,2,0.0,0,0,0,0,17,0,10.74326,106.710256
/ho-chi-minh/bo-kho-tuyet-lan-lam-van-ben/binh-luan,Bò Kho Tuyết Lan - Lâm Văn Bền,"108 Lâm Văn Bền, P. Tân Kiểng",9,1075382,2,0.0,0,1,0,0,40,0,10.7458347,106.7157387
/ho-chi-minh/ropresso-beefsteak-com-tam-bo-kho/binh-luan,Ropresso Beefsteak - Cơm Tấm & Bò Kho,"22 Lê Văn Thiêm, P. Tân Phong",9,1150817,2,0.0,0,0,0,0,1,0,10.7309942,106.7082575
/ho-chi-minh/tra-sua-laxy-huynh-tan-phat/binh-luan,Trà Sữa Laxy - Huỳnh Tấn Phát,"1316 Huỳnh Tấn Phát, P. Phú Mỹ",9,1149535,2,0.0,0,0,0,0,6,0,10.7180278,106.7367817
/ho-chi-minh/com-tam-long-chi-nhanh-2-nguyen-thi-thap/binh-luan,Cơm Tấm Long Chi Nhánh 2 - Nguyễn Thị Thập,"38A Nguyễn Thị Thập, KP. 3, P. Bình Thuận",9,1146969,2,10.0,20,0,1,2,7,0,10.7379068,106.7286326
/ho-chi-minh/com-thai-khapi-pham-huu-lau/binh-luan,Cơm Thái KhaPi - Phạm Hữu Lầu,"68 Phạm Hữu Lầu, P. Phú Mỹ",9,1144799,2,10.0,8,0,1,1,39,0,10.7048035,106.732798
/ho-chi-minh/mabu-kkochi-mon-cay-han-quoc-chung-cu-mid-town/binh-luan,Mabu - Kkochi & Món Cay Hàn Quốc - Chung Cư Mid Town,"Block D, Toà M7 Chung Cư Midtown, P. Tân Phú",9,1143484,2,0.0,0,1,0,0,4,0,10.7229948,106.7270716
/ho-chi-minh/moc-quan-bo-bit-tet-le-van-luong/binh-luan,Mộc Quán - Bò Bít Tết - Lê Văn Lương,"576 Lê Văn Lương, P. Tân Hưng",9,1142481,2,0.0,0,0,0,0,12,0,10.7318094,106.7008326
/ho-chi-minh/ba-nhi-bun-dau-mam-tom-huynh-tan-phat/binh-luan,Bà Nhi - Bún Đậu Mắm Tôm - Huỳnh Tấn Phát,"1701 Huỳnh Tấn Phát, P. Phú Mỹ",9,1139660,2,0.0,0,0,0,0,3,0,10.706162,106.7376695
/ho-chi-minh/che-thai-tran-lien-le-van-luong/binh-luan,Chè Thái Trần Liên - Lê Văn Lương,"516 Lê Văn Lương, P. Tân Phong",9,1138809,2,1.0,1,1,1,0,33,0,10.7340933334628,106.7018430389881
/ho-chi-minh/com-tam-ba-trang-duong-so-2/binh-luan,Cơm Tấm Ba Trang - Đường Số 2,"25 Đường Số 2, Khu Phố 2, P. Phú Mỹ",9,1137619,2,0.0,0,0,0,0,16,0,10.7052065,106.7279554
/ho-chi-minh/tra-dau-mr-do-221-lam-van-ben/binh-luan,Trà Dâu Mr. Đỏ - 221 Lâm Văn Bền,"221 Lâm Văn Bền, P. Tân Quy",9,1135688,2,0.0,0,0,0,0,21,0,10.741718,106.715928
/ho-chi-minh/tra-sua-lok-lok-cha-le-van-luong/binh-luan,Trà Sữa Lok Lok Cha - Lê Văn Lương,"529A Lê Văn Lương, P. Tân Phong",9,1137928,2,0.0,0,1,0,0,36,0,10.735002,106.7024701
/ho-chi-minh/binh-ky-com-hu-tieu-mi-xao/binh-luan,"Bình Ký - Cơm, Hủ Tiếu & Mì Xào","1041/62/128 Trần Xuân Soạn, P. Tân Hưng",9,997805,2,9.6,6,0,5,7,301,1,10.743547,106.69353
/ho-chi-minh/myla-tra-sua-an-vat/binh-luan,MyLa Bubble Tea - Đường Số 17,"163 Đường Số 17, P. Tân Quy",9,81927,2,7.058,308,0,54,78,16293,20,10.744713,106.710872
/ho-chi-minh/tocotoco-bubble-tea-553c-huynh-tan-phat/binh-luan,TocoToco Bubble Tea - 553C Huỳnh Tấn Phát,"553C Huỳnh Tấn Phát, P. Tân Thuận Đông",9,961176,2,7.754,51,0,13,3,1621,5,10.74303,106.729685
/ho-chi-minh/bun-dau-xua/binh-luan,Bún Đậu Xưa - Đường Số 79,"111B Đường Số 79, P. Tân Quy",9,682939,2,6.844,151,0,29,23,4109,17,10.740287,106.708401
/ho-chi-minh/lac-tra-nguyen-thi-thap/binh-luan,Lạc Trà - Nguyễn Thị Thập,"452B Nguyễn Thị Thập, P. Tân Quy",9,937578,2,7.32,56,1,18,10,2320,2,10.7396329,106.7075413
/ho-chi-minh/texas-chicken-pham-thai-buong/binh-luan,Texas Chicken - Phạm Thái Bường,"228 Phạm Thái Bường, Phú Mỹ Hưng",9,19974,2,7.304,678,0,139,109,54605,72,10.7265928,106.7088684
/ho-chi-minh/buzza-pizza-nguyen-thi-thap/binh-luan,Buzza Pizza - Nguyễn Thị Thập,"Tầng 1, 51 - 53 Nguyễn Thị Thập, P. Tân Hưng",9,272978,2,8.014,652,0,136,110,22479,33,10.740871,106.6983734
/ho-chi-minh/starbucks-coffee-sc-vivocity/binh-luan,Starbucks Coffee - SC VivoCity,"Tầng 1 - SC VivoCity, 1058 Nguyễn Văn Linh, KP. 1, P. Tân Phong",9,95733,2,7.358,569,0,99,26,8770,34,10.729952,106.703237
/ho-chi-minh/marukame-udon-sc-vivocity/binh-luan,Marukame Udon - SC VivoCity,"Tầng 2 - SC VivoCity, 1058 Nguyễn Văn Linh, KP. 1, P. Tân Phong",9,132296,2,7.364,1073,0,182,89,20356,52,10.7302092,106.7037088
/ho-chi-minh/the-coffee-bean-tea-leaf-crescent-mall/binh-luan,The Coffee Bean & Tea Leaf - Crescent Mall,"101 Nguyễn Khắc Viện, P. Tân Phú",9,4627,2,7.762,542,0,78,44,9889,35,10.727827,106.718102
/ho-chi-minh/popeyes-phu-my-hung/binh-luan,Gà Rán Popeyes - Phú Mỹ Hưng,"62 Nguyễn Đức Cảnh, P. Tân Phong",9,1019,2,7.078,701,0,132,71,20079,49,10.726562,106.708531
/ho-chi-minh/tra-sua-bean-bean/binh-luan,Cẩm Tú Cafe,"4 Lý Phục Mang, P. Bình Thuận",9,118823,2,6.156,314,0,56,121,61658,28,10.7429104,106.7245575
/ho-chi-minh/xien-nuong-khoi/binh-luan,Khói BBQ - Nguyễn Văn Linh,"110 Nguyễn Văn Linh, P. Tân Thuận Tây",9,143199,2,7.192,288,0,33,34,60623,25,10.75264,106.726122
/ho-chi-minh/xien-nuong-xe-ko-duong-so-17/binh-luan,Xiên Nướng Xê Kô - Đường Số 17,"229 Đường Số 17, P. Tân Kiểng",9,111408,2,6.264,205,0,31,69,52513,21,10.7450878,106.7087366
/ho-chi-minh/bong-lan-xa-xiu/binh-luan,Bông Lan Xá Xíu,122B Nguyễn Văn Linh,9,49935,2,6.848,219,0,63,209,52175,36,10.752139,106.725043
/ho-chi-minh/ty-muoi-quan-nguyen-thi-thap/binh-luan,Tỷ Muội Quán,"261 Lê Văn Lương, P. Tân Quy",9,140341,2,7.506,209,0,28,54,52151,10,10.744242,106.704489
/ho-chi-minh/air-lounge-coffee/binh-luan,Air Lounge Coffee,"147 Tôn Dật Tiên, P. Tân Phong",9,67098,2,8.008,308,0,34,142,51448,27,10.723203,106.715371
/ho-chi-minh/huy-hoang-bun-dau-mam-tom/binh-luan,Huy Hoàng - Bún Đậu Mắm Tôm - Đường Số 32,"4 Đường Số 32, P. Tân Quy",9,179105,2,6.59,198,0,43,41,50721,8,10.7404775,106.7069717
/ho-chi-minh/lau-tu-chon-hong-kong/binh-luan,Lẩu Tự Chọn Hồng Kông,"561 Nguyễn Thị Thập, P. Tân Phong",9,77428,2,6.95,113,0,28,54,50680,8,10.7395146,106.705596
/ho-chi-minh/shabu-kichoo-crescent-plaza/binh-luan,Shabu Kichoo - Lẩu & Nướng Nhật - Hồ Bán Nguyệt,"Lầu 1, 107 Tôn Dật Tiên, P. Tân Phú",9,31834,2,6.248,284,0,29,24,50552,17,10.726533,106.720288
/ho-chi-minh/quan-ga-vit-nuong-muoi-nguyen-331-nguyen-thi-thap/binh-luan,Quán Gà Vịt Nướng Mười Nguyên - 331 Nguyễn Thị Thập,"331 Nguyễn Thị Thập, P. Tân Phong",9,1151369,2,0.0,0,0,0,0,1,0,10.7383477,106.7146778
/ho-chi-minh/tra-sua-halisan-sua-tuoi-tran-chau-duong-den-duong-so-17/binh-luan,Trà Sữa HALISAN - Sữa Tươi Trân Châu Đường Đen - Đường Số 17,"86 Đường Số 17, P. Tân Kiểng",9,1151298,2,0.0,0,0,0,0,1,0,10.7453203,106.7123995
/ho-chi-minh/bun-thai-ga-hap-gia-han-huynh-tan-phat/binh-luan,Bún Thái & Gà Hấp Gia Hân - Huỳnh Tấn Phát,"376/7 Huỳnh Tấn Phát, P. Bình Thuận",9,1151189,2,0.0,0,0,0,0,2,0,10.7474004,106.7279539
/ho-chi-minh/banamo-tra-sua-an-vat-chuyen-dung-9.1x3rd7/binh-luan,Banamo - Trà Sữa & Ăn Vặt - Chuyên Dùng 9,"97/13A Chuyên Dùng 9, P. Phú Mỹ",9,1000058348,2,0.0,0,0,0,0,1,0,10.7052212,106.7382204
/ho-chi-minh/nha-hang-bang-huu-quan-huynh-tan-phat/binh-luan,Nhà Hàng Bằng Hữu Quán - Huỳnh Tấn Phát,"1539A Huỳnh Tấn Phát, P. Phú Mỹ",9,1151112,2,0.0,0,0,0,0,1,0,10.7102111,106.7372549
/ho-chi-minh/vinfat-tra-sua-an-vat-nguyen-van-quy/binh-luan,VINFAT Trà Sữa & Ăn Vặt - Nguyễn Văn Quỳ,"240/20 Nguyễn Văn Quỳ, P. Phú Thuận",9,1000058317,2,0.0,0,0,0,0,4,0,10.7400858,106.7342786
/ho-chi-minh/bun-mam-co-2-nguyen-thi-thap/binh-luan,Bún Mắm Cô 2 - Nguyễn Thị Thập,"176/35A Nguyễn Thị Thập, P. Bình Thuận",9,1151001,2,0.0,0,0,0,0,2,0,10.7401165,106.7178802
/ho-chi-minh/an-vat-nha-min-chan-ga-sot-thai-sua-tuoi-thot-not-rim-huynh-tan-phat/binh-luan,Ăn Vặt Nhà Min - Chân Gà Sốt Thái & Sữa Tươi Thốt Nốt Rim - Huỳnh Tấn Phát,"502/26i Huỳnh Tấn Phát, P. Bình Thuận",9,1150970,2,0.0,0,0,0,0,2,0,10.748208,106.7275479
/ho-chi-minh/quan-ngon-com-ga-xoi-mo-bun-bo-hue-duong-so-9/binh-luan,Quán Ngon - Cơm Gà Xối Mỡ & Bún Bò Huế - Đường Số 9,"206 Đường 9, P. Tân Phú",9,1150967,2,0.0,0,0,0,0,2,0,10.7364571,106.715094
/ho-chi-minh/rio-coffee-duong-so-1/binh-luan,Rio Coffee - Đường Số 1,"17 Đường Số 1, P. Phú Mỹ",9,1150891,2,0.0,0,0,0,0,1,0,10.7014716378626,106.7301090323495
/ho-chi-minh/bun-bo-co-thuy-duong-so-15/binh-luan,Bún Bò Cô Thuý - Đường Số 15,"40 Đường Số 15, P. Tân Kiểng",9,1150881,2,0.0,0,0,0,0,2,0,10.745797,106.7088832
/ho-chi-minh/tiem-cua-oanh-ca-hoi-nauy-tom-cua-ngam-tuong/binh-luan,"Tiệm Của Oanh - Cá Hồi Nauy, Tôm & Cua Ngâm Tương","10 Đường Số 11, P. Tân Phú",9,1150876,2,0.0,0,0,0,0,3,0,10.73664,106.715281
/ho-chi-minh/cua-bau-hien-cua-le-van-luong.yfinpx/binh-luan,Cua Bầu Hiển - Cua - Lê Văn Lương,"174C Lê Văn Lương, P. Tân Hưng",9,1000026163,2,10.0,2,0,2,1,81,1,10.7472846,106.7044995
/ho-chi-minh/donguri-sushi-mon-an-nhat-ban/binh-luan,Donguri Sushi - Món Ăn Nhật Bản,"Lầu 2, S59 - 2 Sky Garden 3, Phạm Văn Nghị , P. Tân Phong",9,1055033,2,10.0,19,1,5,0,257,0,10.733726,106.705447
/ho-chi-minh/oc-dua-uyenuyenn-truong/binh-luan,Ốc Dừa UyênUyênn Trương - Shop Online,"4 Đường số 2, P. Tân Quy",9,945880,2,10.0,10,3,1,5,365,1,10.7435159,106.7056951
/ho-chi-minh/sinh-to-an-vat-nguyen-thi-thap/binh-luan,Sinh Tố & Ăn Vặt - Nguyễn Thị Thập,"512 Nguyễn Thị Thập, P. Tân Quy",9,741583,2,10.0,46,1,1,1,272,1,10.73992,106.704041
/ho-chi-minh/ngon-bakery-banh-mi-banh-ngot/binh-luan,Ngon Bakery - Bánh Mì & Bánh Ngọt,"34 Tân Mỹ, P. Tân Phú",9,749366,2,10.0,8,0,2,10,553,0,10.737164,106.718068
/ho-chi-minh/trung-nguyen-coffee-tan-thuan/binh-luan,Trung Nguyên Coffee - Tân Thuận,B1-06 Khu Chế Xuất Tân Thuận,9,947146,2,10.0,16,0,2,0,194,1,10.752704,106.731162
/ho-chi-minh/tan-my-1-khoai-lang-lac-banh-gao-lac/binh-luan,Tân Mỹ 1 - Khoai Lang Lắc & Bánh Gạo Lắc,"49 Chung Cư Tân Quy, Tổ 19, Khu Phố 2, P. Tân Quy",9,933688,2,10.0,11,0,1,3,241,2,10.7452562906421,106.7059344480154
/ho-chi-minh/quan-tra-my-bun-moc-hu-tieu-nam-vang/binh-luan,Quán Trà My - Bún Mọc & Hủ Tiếu Nam Vang,120 Đường Số 79,9,713200,2,10.0,24,0,1,1,253,1,10.7401445,106.7097525
/ho-chi-minh/green-coffee-duong-so-81/binh-luan,Green Coffee,"68 Đường Số 81, P. Tân Quy",9,690531,2,10.0,18,0,1,1,116,1,10.740306,106.705244
/ho-chi-minh/bun-cha-ca-chay-map/binh-luan,Bún Chả Cá Chẩy Mập,"793/49 Trần Xuân Soạn, P. Tân Hưng",9,736028,2,10.0,3,0,1,2,285,3,10.7482150895631,106.6999982669949
/ho-chi-minh/nhi-tea-house/binh-luan,Nhi Tea House,1340 Huỳnh Tấn Phát,9,742496,2,10.0,8,0,2,0,217,1,10.7187699,106.7367651
/ho-chi-minh/tra-sua-va-ga-ran-tina-express/binh-luan,Trà Sữa Và Gà Rán - Tina Express,"675/26 Trần Xuân Soạn, P. Tân Hưng",9,868727,2,10.0,6,1,1,2,216,1,10.7516945,106.7028553
/ho-chi-minh/tra-sua-xien-que-hot-cold-nguyen-thi-thap/binh-luan,Trà Sữa Xiên Que Hot & Cold - Nguyễn Thị Thập,"390A Nguyễn Thị Thập, P. Tân Phong",9,41647,2,7.102,813,0,173,54,24216,38,10.738937,106.710162
/ho-chi-minh/kem-dairy-queen-sc-vivocity/binh-luan,Kem Dairy Queen - SC VivoCity,"Tầng 4 SC VivoCity, 1058 Nguyễn Văn Linh, P. Tân Phong",9,315786,2,7.164,759,0,139,82,1816,57,10.729976,106.703297
/ho-chi-minh/sinjeon-tokbokki-am-thuc-han-quoc-pham-van-nghi/binh-luan,Sinjeon Tokbokki - Ẩm Thực Hàn Quốc - Đường Số 28,"92 Đường Số 28, P. Tân Phong",9,300495,2,7.42,448,0,77,207,13520,8,10.7381119,106.7100283
/ho-chi-minh/bach-tuoc-nuong-thuong/binh-luan,Bạch Tuộc Nướng Thương,"90 Đường 17, P. Tân Kiểng",9,23859,2,6.396,207,0,41,162,45029,21,10.744935,106.712115
/ho-chi-minh/sung-won-house-am-thuc-han-quoc/binh-luan,Sung Won House - Ẩm Thực Hàn Quốc,"137 Đường Số 17, P. Tân Quy",9,311684,2,6.496,358,0,82,160,13364,9,10.7449,106.711972
/ho-chi-minh/bo-la-lot-quan-7/binh-luan,Bò Lá Lốt - Tân Quy,"47/20 Đường Số 2, P. Tân Quy",9,11639,2,5.736,238,0,118,154,34211,55,10.744857,106.705223
/ho-chi-minh/champong-king-nha-hang-han-quoc/binh-luan,Mr Champong King - Nhà Hàng Hàn Quốc,"42 Hưng Gia 4, P. Tân Phong",9,681495,2,7.808,364,0,25,146,9243,3,10.732468,106.708132
/ho-chi-minh/tam-long-quan-quan-an-gia-dinh/binh-luan,Tam Long Quán - Quán Ăn Gia Đình,"414/13 Trần Xuân Soạn, P. Tân Hưng",9,721372,2,8.4,10,0,1,2,813,0,10.750883,106.690906
/ho-chi-minh/long-vien-coffee/binh-luan,Long Viên Coffee,"1041 Trần Xuân Soạn, P. Tân Hưng",9,992465,2,7.6,20,1,1,0,113,0,10.750796,106.691354
/ho-chi-minh/bun-ca-ut-lien-tran-xuan-soan/binh-luan,Bún Cá Út Liên - Trần Xuân Soạn,"1041/62/110 Trần Xuân Soạn, KP. 5, P. Tân Hưng",9,1038556,2,0.0,0,0,0,0,28,0,10.750903,106.691492
/ho-chi-minh/bep-co-duong-com-ga-van-phong-shop-online-tran-xuan-soan/binh-luan,Bếp Cô Dương - Cơm Gà Văn Phòng - Shop Online - Trần Xuân Soạn,1041/36 Trần Xuân Soạn,9,915063,2,5.76,34,3,5,1,334,0,10.750714,106.691576
/ho-chi-minh/hung-ky-com-ga-xoi-mo-tran-xuan-soan/binh-luan,Hùng Ký - Cơm Gà Xối Mỡ - Trần Xuân Soạn,"1041/49 Trần Xuân Soạn, P. Tân Hưng",9,1045135,2,0.0,0,0,0,0,25,0,10.750267,106.691566
/ho-chi-minh/ti-na-quan-nui-xao-bo-mi-xao-bo/binh-luan,Ti Na Quán - Nui Xào Bò & Mì Xào Bò,"470C/15 Trần Xuân Soạn, P. Tân Hưng",9,1047973,2,0.0,0,0,0,0,43,0,10.7490858,106.691595
/ho-chi-minh/banh-mi-quang-dai/binh-luan,Bánh Mì Quang Đại,"1039 Trần Xuân Soạn, P. Tân Hưng",9,779747,2,0.0,0,0,0,0,75,0,10.751201,106.692048
/ho-chi-minh/tu-xe-quan-bun-nguyen-thi-thap/binh-luan,Tư Xe - Quán Bún - Nguyễn Thị Thập,Nguyễn Thị Thập,9,121879,2,4.6,8,0,2,4,586,1,10.7709723996227,106.69317740947
/ho-chi-minh/pho-bun-rieu-hu-tieu/binh-luan,"Phở, Bún Riêu & Hủ Tiếu","1019C Trần Xuân Soạn, P. Tân Hưng",9,874692,2,0.0,1,0,0,0,26,1,10.7512926525697,106.6921460140236
/ho-chi-minh/mot-juice-nuoc-ep-trai-cay-tuoi-nguyen-chat/binh-luan,Một Juice - Nước Ép Trái Cây Tươi Nguyên Chất,"1041/17B Trần Xuân Soạn, P. Tân Hưng",9,1077199,2,0.0,0,0,0,0,28,0,10.7498509,106.6921998
/ho-chi-minh/an-la-ghien-banh-mi/binh-luan,Ăn Là Ghiền - Bánh Mì,"1031 Trần Xuân Soạn, P. Tân Hưng",9,269564,2,0.0,10,4,0,1,138,0,10.751296,106.692287
/ho-chi-minh/tra-sua-hem-675-14-tra-sua-tran-xuan-soan.brmkr0/binh-luan,Trà Sữa Hẻm 675/14 - Trà Sữa - Trần Xuân Soạn,"675/14 Trần Xuân Soạn, P. Tân Hưng",9,1000035113,2,6.0,0,0,1,0,2,2,10.7512673,106.6923263
/ho-chi-minh/tra-sua-sunday-basic-quan-7/binh-luan,Trà Sữa Sunday Basic - Quận 7,"189 Đường Số 17, P. Tân Quy",9,1077413,2,10.0,2,0,2,1,844,0,10.7449455,106.7102503
/ho-chi-minh/mcdonald-s-sc-vivocity/binh-luan,McDonald's Vivo,"Tầng 1 - SC VivoCity, 1058 Nguyễn Văn Linh, KP. 1, P. Tân Phong",9,133342,2,7.086,776,0,70,33,7281,30,10.729806,106.703429
/ho-chi-minh/a-min-quan-am-thuc-trung-hoa-phu-my-hung/binh-luan,A Mìn Quán - Ẩm Thực Trung Hoa - Phú Mỹ Hưng,"8 Đường Số 6, Khu Phố Hưng Vượng 2, P. Tân Phong",9,764983,2,7.0,30,0,6,20,1667,0,10.7301785,106.7098577
/ho-chi-minh/koi-the-lotte-mart-nam-sai-gon/binh-luan,KOI Thé - Lotte Mart Nam Sài Gòn,"Tầng Trệt, Lotte Mart Nguyễn Hữu Thọ, 469 Nguyễn Hữu Thọ, P. Tân Hưng",9,630198,2,7.596,297,0,68,45,11540,31,10.7411718,106.7012142
/ho-chi-minh/pho-dinh-3-nguyen-cao/binh-luan,Phở Định 3 - Nguyễn Cao,3/1A Nguyễn Cao,9,195121,2,6.478,52,0,23,44,4745,9,10.7274063,106.712249
/ho-chi-minh/chao-long-mien-tay-le-van-luong/binh-luan,Cháo Lòng Miền Tây - Lê Văn Lương,"121 Lê Văn Lương, P. Tân Kiểng",9,749873,2,6.706,61,0,19,42,2421,10,10.749611,106.70499
/ho-chi-minh/com-tam-saigon-huynh-tan-phat/binh-luan,Cơm Tấm Saigon - Huỳnh Tấn Phát,"873 Huỳnh Tấn Phát, P. Phú Thuận",9,1000000511,2,6.432,14,7,6,4,430,0,10.732069,106.73164
/ho-chi-minh/a-tai-bun-thit-nuong-duong-so-12/binh-luan,A Tài - Bún Thịt Nướng - Đường Số 12,"40 Đường Số 12, P. Tân Quy",9,912510,2,5.5,20,0,10,3,968,2,10.744657,106.711315
/ho-chi-minh/com-ga-ghien-huynh-tan-phat/binh-luan,Cơm Gà Ghiền - Huỳnh Tấn Phát,"435/47/27 Huỳnh Tấn Phát, P. Tân Thuận Đông",9,924956,2,8.2,16,1,1,1,599,0,10.747129,106.730839
/ho-chi-minh/bun-thai-hai-san-van-truong/binh-luan,Bún Thái Hải Sản - Vân Trường,"701/18/2 Trần Xuân Soạn, P. Tân Hưng",9,1061340,2,0.0,0,3,0,0,199,0,10.750684,106.701376
/ho-chi-minh/com-chien-anh-tu-le-van-luong/binh-luan,Cơm Chiên Anh Tư - Lê Văn Lương,"380/29 Lê Văn Lương, P. Tân Hưng",9,957814,2,5.4,2,0,5,2,575,1,10.739602,106.702751
/ho-chi-minh/yoogane-chicken-galbi-phu-my-hung/binh-luan,Yoogane Chicken Galbi - Phú Mỹ Hưng,"S36 - 1 Phạm Văn Nghị, Khu Phố Sky Garden 1, P. Tân Phong",9,786449,2,7.4,229,0,7,38,2337,1,10.730077,106.706734
/ho-chi-minh/vietheritage/binh-luan,Vietheritage,"99/24 Nhánh Cầu Tân Thuận 2, Nguyễn Văn Linh, P. Tân Thuận Tây",9,4555,2,7.932,156,0,9,18,41135,7,10.752459,106.721424
/ho-chi-minh/nha-hang-han-quoc-bbq-song-wol/binh-luan,BBQ Song Wol - Ẩm Thực Hàn Quốc ,340 Đặng Đức Thuật,9,102845,2,7.778,35,0,8,10,6759,0,10.725426,106.707412
/ho-chi-minh/kichi-kichi-lau-bang-chuyen-phu-my-hung/binh-luan,Kichi Kichi Lẩu Băng Chuyền - Phú Mỹ Hưng,"153 Nguyễn Đức Cảnh, P. Tân Phong ",9,4230,2,7.312,529,0,105,32,29760,37,10.7229067,106.7102129
/ho-chi-minh/boomarang-bistro-saigon/binh-luan,Boomerang Bistro Saigon,"107 Tôn Dật Tiên, Tân Phong",9,1779,2,7.696,219,0,50,63,27119,21,10.726243,106.720383
/ho-chi-minh/hotpot-story-vivocity/binh-luan,Hotpot Story SC VivoCity,"Lô 04 - 05A, Tầng 4, SC VivoCity, 1058 Nguyễn Văn Linh, KP. 1, P. Tân Phong",9,131365,2,7.06,831,0,80,49,24141,27,10.730089,106.703522
/ho-chi-minh/nha-hang-chay-doa-sen-vang/binh-luan,Nhà Hàng Chay Đóa Sen Vàng,"45 Đường C, Khu Nam Viên, Phú Mỹ Hưng",9,672656,2,6.57,829,0,106,35,14077,36,10.721053446686,106.7298818770829
/ho-chi-minh/sushi-uraetei-crescent-mall/binh-luan,Sushi Uraetei - Crescent Mall,"GF - 15B Tầng Trệt, Crescent Mall, 101 Tôn Dật Tiên, P. Tân Phú",9,191796,2,7.162,1034,0,58,48,47702,21,10.72957,106.718898
/ho-chi-minh/angel-in-us-coffee-lotte-mart-nam-sai-gon/binh-luan,Angel In Us Coffee - Lotte Mart Nam Sài Gòn,"Tầng Trệt, Lotte Mart Nam Sài Gòn, 469 Nguyễn Hữu Thọ, P. Tân Hưng",9,1957,2,7.444,319,0,70,27,9574,30,10.742811,106.702598
/ho-chi-minh/friends-by-pontian-mi-singapore-nguyen-van-linh/binh-luan,Friends By Pontian - Mì Singapore - SC VivoCity,"24A SC VivoCity, 1058 Nguyễn Văn Linh, KP. 1, P. Tân Phong",9,131340,2,6.198,457,0,89,82,15761,27,10.7301038,106.7022282
/ho-chi-minh/golden-jade-restaurant-sc-vivo-city/binh-luan,Golden Jade Restaurant - SC VivoCity,"Tầng 1 - SC VivoCity, 1058 Nguyễn Văn Linh, KP. 1, P. Tân Phong",9,175291,2,7.072,661,0,79,72,23438,19,10.7294749477239,106.7041090875864
/ho-chi-minh/quan-so-10-bun-rieu-canh-bun-tra-dao/binh-luan,"Bún Riêu, Canh Bún - Đường Số 17","10 Đường Số 17, P. Tân Kiểng",9,930519,2,0.0,6,1,0,0,84,0,10.744768,106.71308
/ho-chi-minh/chingu-bunsik-mon-an-han-quoc-hoang-quoc-viet/binh-luan,Chingu Bunsik - Món Ăn Hàn Quốc - Hoàng Quốc Việt,"51 Hoàng Quốc Việt, P. Phú Thuận",9,1150576,2,0.0,0,0,0,0,3,0,10.714316,106.739387
/ho-chi-minh/com-tam-thuc-gia-hoang-quoc-viet/binh-luan,Cơm Tấm Thức Gia - Hoàng Quốc Việt,"A15 Khu Dân Cư Lacasa, Đường Hoàng Quốc Việt, P. Phú Nhuận",9,1150339,2,0.0,0,0,0,0,2,0,10.7160873370435,106.7402232093752
/ho-chi-minh/quan-oanh-com-ga-xoi-mo-bun-rieu-cua-nguyen-huu-tho/binh-luan,Quán Oanh - Cơm Gà Xối Mỡ & Bún Riêu Cua – Nguyễn Hữu Thọ,"334 Nguyễn Hữu Thọ, P. Tân Phong",9,1149441,2,0.0,0,0,0,0,7,0,10.7329237,106.7002246
/ho-chi-minh/tra-sua-an-vat-na-ni-le-van-luong/binh-luan,Trà Sữa Ăn Vặt NÀ NÍ - Lê Văn Lương,"357 Lê Văn Lương, P. Tân Quy",9,1147527,2,0.0,0,0,0,0,1,0,10.7405299,106.703776
/ho-chi-minh/tybo-tea-duong-so-17/binh-luan,TYBO Tea - Đường Số 17,"95/10 Đường Số 17, P. Tân Thuận Tây",9,1147118,2,0.0,0,0,0,0,4,0,10.7476015,106.7179213
/ho-chi-minh/ca-phe-pha-may-186-nuoc-mia-rau-ma/binh-luan,Cà Phê Pha Máy 186 - Nước Mía & Rau Má,"2 Tân Mỹ, P. Tân Phú",9,1147075,2,0.0,0,0,0,0,1,0,10.7379406220683,106.7180947777286
/ho-chi-minh/bac-2-voi-ga-u-muoi-lam-van-ben/binh-luan,Bác 2 Voi - Gà Ủ Muối - Lâm Văn Bền,"202 Lâm Văn Bền, P. Tân Quy",9,1146787,2,0.0,0,1,0,0,6,0,10.7392625,106.7158196
/ho-chi-minh/quan-cay-bang-3-bo-la-lot-huynh-tan-phat/binh-luan,Quán Cây Bàng 3 - Bò Lá Lốt - Huỳnh Tấn Phát,"478 Huỳnh Tấn Phát, P. Bình Thuận",9,1146553,2,0.0,0,0,0,0,2,0,10.743658,106.7293554
/ho-chi-minh/mr-shin-banh-ran-mat-ong-han-quoc/binh-luan,Mr.Shin - Bánh Rán Mật Ong Hàn Quốc,"98 Cao Triều Phát, P. Tân Phong",9,1048905,2,8.2,9,0,6,62,1386,3,10.7320265,106.7067528
/ho-chi-minh/chao-long-mien-tay-425-le-van-luong/binh-luan,Cháo Lòng Miền Tây - 425 Lê Văn Lương,"425 Lê Văn Lương, P. Tân Phong",9,1072442,2,0.0,0,1,0,1,54,0,10.7386,106.70336
/ho-chi-minh/xoi-ong-loc-ly-phuc-man/binh-luan,Xôi Ông Lộc - Lý Phục Man,"84 Lý Phục Man, P. Bình Thuận",9,1079407,2,0.0,0,0,0,0,55,0,10.7432639,106.725519
/ho-chi-minh/mr-nghiem-saigon-chao-ech-chao-cua-singapore-38-15-nguyen-huu-tho/binh-luan,Mr Nghiem Saigon - Cháo Ếch & Cháo Cua Singapore - 38/15 Nguyễn Hữu Thọ,"38/15 Nguyễn Hữu Thọ, P. Tân Hưng",9,1061937,2,3.4,1,2,1,1,33,0,10.747647,106.702338
/ho-chi-minh/com-tam-ngon-653-le-van-luong/binh-luan,Cơm Tấm NGON - 653 Lê Văn Lương,"653 Lê Văn Lương, Khu Phố 1, P. Tân Phong",9,1135281,2,0.0,0,0,0,0,39,0,10.729365,106.6999598
/ho-chi-minh/minh-quan-hu-tieu-nam-vang/binh-luan,Minh Quán - Hủ Tiếu Nam Vang,"77 Hà Huy Tập, P. Tân Phong",9,913440,2,5.934,15,1,3,6,376,0,10.726334,106.709718
/ho-chi-minh/banh-canh-cua-duong-so-10/binh-luan,Bánh Canh Cua - Đường Số 10,"56 Đường Số 10, P. Tân Quy",9,1038868,2,10.0,3,1,1,2,185,0,10.744479,106.710157
/ho-chi-minh/lo-banh-mi-loc-ky/binh-luan,Lò Bánh Mì Lộc Ký,"745 Huỳnh Tấn Phát, P. Phú Thuận",9,1072856,2,0.0,0,0,0,0,39,0,10.735121,106.730855
/ho-chi-minh/ohzee-banh-beo-banh-bot-loc/binh-luan,Ohzee - Bánh Bèo & Bánh Bột Lọc,"130 Lâm Văn Bền, P. Tân Quy",9,779549,2,8.46,51,0,10,29,2050,3,10.7438776,106.7158914
/ho-chi-minh/hamburger-co-dung/binh-luan,Hamburger Cô Dung,"387/14 Trần Xuân Soạn, P. Tân Kiểng",9,949421,2,4.9,1,2,2,4,150,2,10.751161,106.710342
/ho-chi-minh/thao-ly-bun-mam-hu-tieu-my-tho/binh-luan,Thảo Ly - Bún Mắm & Hủ Tiếu Mỹ Tho,"Quầy 351, Chợ Tân Mỹ, P. Tân Phú",9,1136107,2,0.0,0,0,0,0,14,0,10.7367179,106.7186265
/ho-chi-minh/banh-mi-heo-quay-dai-phat-433-huynh-tan-phat/binh-luan,Bánh Mì & Heo Quay Đại Phát - 433 Hùynh Tấn Phát,"433 Huỳnh Tấn Phát, P. Tân Thuận Đông",9,1117217,2,0.0,0,0,0,0,23,0,10.7473888,106.7291338
/ho-chi-minh/the-cozy-bistro-kids-playhouse-duong-so-16/binh-luan,The Cozy Bistro - Kids Playhouse - Đường Số 16,"29 Đường Số 16, P. Tân Phú",9,1137682,2,9.0,10,0,1,0,83,0,10.7246417,106.7291039
/ho-chi-minh/rau-nam-deli-manmuro-rau-cu-nam-chien-gion-duong-17/binh-luan,Rau Nấm Deli Manmuro - Rau Củ & Nấm Chiên Giòn - Đường 17,"128 Đường Số 17, P. Tân Quy",9,1136925,2,0.0,0,0,0,0,19,0,10.7451876,106.7101568
/ho-chi-minh/crazy-crab-hai-san-sot-cajun/binh-luan,Crazy Crab - Hải Sản Sốt Cajun,"315-317 Trần Xuân Soạn, P. Tân Kiểng",9,1135876,2,0.0,0,0,0,0,30,0,10.7516898,106.7130995
/ho-chi-minh/tra-sua-mr-bean-da-xay-cookies/binh-luan,Trà Sữa Mr. Bean - Đá Xay & Cookies,"65 Phạm Hữu Lầu, P. Phú Mỹ",9,1129861,2,0.0,0,0,0,0,35,0,10.7047431,106.7330527
/ho-chi-minh/sarah-smothie-sinh-to-nuoc-ep.iiap3t/binh-luan,Sarah Smothie - Sinh Tố & Nước Ép,"33 Đường Số 15, P. Phú Mỹ",9,1000050814,2,0.0,0,0,0,0,25,0,10.703286,106.7324201
/ho-chi-minh/pho-yen-327-le-van-luong/binh-luan,Phở Yên - 327 Lê Văn Lương,"327 Lê Văn Lương, P. Tân Quy",9,670370,2,7.2,27,0,4,5,508,3,10.7405054,106.7036815
/ho-chi-minh/nha-hang-hoa-viet-hung-vuong-2.9b65ss/binh-luan,Nhà Hàng Hoa Việt - Hưng Vượng 2,"S2-1 Hưng Vượng 2, Đường Số 6, P. Tân Phong",9,1000050498,2,0.0,0,3,0,1,15,0,10.7302632,106.7092595
/ho-chi-minh/pho-ly-quoc-su-ha-huy-tap/binh-luan,Phở Lý Quốc Sư - Hà Huy Tập,"25 Hà Huy Tập, P. Tân Phong",9,935205,2,5.0,0,0,1,2,361,0,10.726339,106.711454
/ho-chi-minh/pho-ngoc-nguyen-thi-thap/binh-luan,Phở Ngọc - Nguyễn Thị Thập,"339 Nguyễn Thị Thập, P. Tân Phong",9,34665,2,6.54,25,0,10,3,2018,2,10.7383663,106.7144878
/ho-chi-minh/chay-moc-hoa-duong-so-5/binh-luan,Chay Mộc Hoa - Đường Số 5,"C25 Đường Số 5, P. Phú Mỹ",9,1129621,2,8.6,3,0,1,0,35,0,10.7047466,106.7289577
/ho-chi-minh/lotus-tea-coffee-mon-ngon-ha-noi-duong-so-5/binh-luan,Lotus Tea Coffee & Món ngon Hà Nội - Đường Số 5,"1 Đường Số 5, P. Phú Mỹ",9,986555,2,0.0,0,0,0,0,35,0,10.704527,106.728925
/ho-chi-minh/say-coffee-nguyen-thi-thap/binh-luan,Say Coffee 24h - Nguyễn Thị Thập,"453 Nguyễn Thị Thập, P. Tân Phong",9,899987,2,7.598,814,0,117,18,7303,17,10.738718,106.710475
/ho-chi-minh/vinh-tam-com-xa-xiu/binh-luan,Vĩnh Tâm - Cơm Xá Xíu,649 Trần Xuân Soạn ,9,732158,2,7.578,30,0,17,39,2400,2,10.750699,106.703576
/ho-chi-minh/my-y-4b/binh-luan,Mỳ Ý 4B,"4B Đường Số 15, P. Tân Kiểng",9,683290,2,7.256,65,0,18,28,2215,2,10.7454553,106.7098418
/ho-chi-minh/tra-sua-r-b-tea-canh-vien/binh-luan,Trà Sữa R&B Tea - Cảnh Viên,"17 Phố Tiểu Nam, Cảnh Viên 1, Phú Mỹ Hưng, P. Tân Phú",9,749454,2,6.588,174,0,37,9,3575,4,10.722074,106.729643
/ho-chi-minh/koi-the-nguyen-duc-canh/binh-luan,KOI Thé - Nguyễn Đức Cảnh,"157 Khu Grand View, Nguyễn Đức Cảnh, P. Tân Phong",9,648010,2,7.594,194,0,36,35,8793,9,10.722125,106.7111767
/ho-chi-minh/com-tam-truc-thuy/binh-luan,Cơm Tấm Trúc Thủy,"333 Nguyễn Hữu Thọ, P. Tân Hưng",9,757143,2,6.334,5,0,3,0,734,0,10.73276,106.700088
/ho-chi-minh/highlands-coffee-lotte-mart-nam-sai-gon/binh-luan,Highlands Coffee - Lotte Mart Nam Sài Gòn,"Tầng Trệt, Lotte Mart Nam Sài Gòn, 469 Nguyễn Hữu Thọ, P. Tân Hưng",9,4104,2,7.12,420,0,79,24,8614,29,10.741003,106.701339
/ho-chi-minh/osaka-ramen-mi-nhat-phu-my-hung/binh-luan,Osaka Ramen Mì Nhật - Phú Mỹ Hưng,"SD-04H, 29-2 Mỹ Phát, 133 Nguyễn Đức Cảnh",9,4999,2,7.528,436,0,72,121,30958,35,10.723832,106.708885
/ho-chi-minh/domino-s-pizza-phu-my-hung/binh-luan,Domino’s Pizza - Phú Mỹ Hưng,"117 Nguyễn Đức Cảnh, P. Tân Phong",9,4073,2,7.798,322,0,78,44,21590,59,10.725165,106.708928
/ho-chi-minh/q7-idol-karaoke/binh-luan,Q7 Idol Karaoke,"82 Tân Mỹ, P. Tân Phú",9,115889,2,6.482,191,0,12,23,50327,12,10.7361694,106.7181679
/ho-chi-minh/street-sushi-nguyen-thi-thap/binh-luan,Street Sushi - Nguyễn Thị Thập,"521/3 Nguyễn Thị Thập, P. Tân Phong",9,76912,2,6.63,478,0,28,76,48731,15,10.739331,106.706449
/ho-chi-minh/trang-bang-xua-nay-dac-san-trang-bang-nguyen-thi-thap/binh-luan,Trảng Bàng Xưa & Nay - Đặc Sản Trảng Bàng - Nguyễn Thi Thập,"62K Nguyễn Thị Thập, P. Bình Thuận",9,33655,2,7.832,404,0,33,49,48205,29,10.7378787,106.724998
/ho-chi-minh/thai-express-mon-thai-crescent-plaza/binh-luan,Thai Express - Món Thái - Crescent Plaza,"105 Tôn Dật Tiên, P. Tân Phú",9,4641,2,7.242,407,0,63,27,47396,19,10.727387,106.719897
/ho-chi-minh/frugos-yogurt-crescent-mall/binh-luan,Frugos Yogurt - Crescent Mall,"Tầng G Crescent Mall, 101 Tôn Dật Tiên, P. Tân Phú",9,88636,2,7.874,213,0,32,70,47264,19,10.7293765,106.7185514
/ho-chi-minh/enza-nha-hang-nuong/binh-luan,Enza - Nhà Hàng Nướng Nhật Bản,"Parkview Phú Mỹ Hưng, 138 Hà Huy Tập",9,22396,2,7.266,355,0,15,66,45943,10,10.726657,106.709282
/ho-chi-minh/hoang-trieu-entertainment-beer-club/binh-luan,Hoàng Triều Entertainment & Beer Club,R1 - 49 Bùi Bằng Đoàn,9,101939,2,7.922,144,0,13,22,45612,17,10.732603,106.708575
/ho-chi-minh/hang-duong-quan/binh-luan,Hàng Dương Quán - Quận 7,"132 Đường Số 65,  P. Tân Phong",9,93,2,7.342,308,0,31,53,44421,27,10.735554,106.706193
/ho-chi-minh/nha-hang-han-quoc-shin-po-cha/binh-luan,Shin Po Cha - Ẩm Thực Hàn Quốc ,"15 Phạm Văn Nghị, P. Tân Phong",9,29970,2,7.084,92,0,12,26,44326,7,10.731465,106.706729
/ho-chi-minh/chan-ga-ngon-dinh-tran-xuan-soan/binh-luan,Chân Gà Ngon Đỉnh - Trần Xuân Soạn,"1041/62/59/30 Trần Xuân Soạn, P. Tân Hưng",9,1150783,2,0.0,0,0,0,0,1,0,10.7475735,106.694563
/ho-chi-minh/bep-cua-me-an-vat-chan-ga-banh-trang-15b-nguyen-luong-bang.q9fhqx/binh-luan,"Bếp Của Mẹ - Ăn Vặt, Chân Gà & Bánh Tráng - 15B Nguyễn Lương Bằng","Tòa Nhà Era Town 15b Nguyễn Lương Bằng, P. Phú Mỹ",9,1000058138,2,0.0,0,0,0,0,2,0,10.7006558,106.733731
/ho-chi-minh/tra-sua-yoshi-ly-phuc-man/binh-luan,Trà Sữa YOSHI - Lý Phục Man,"34/4 Lý Phục Man, P. Bình Thuận",9,1150746,2,0.0,0,0,0,0,3,0,10.743671,106.727605
/ho-chi-minh/bun-bo-com-nguoi-duong-so-8/binh-luan,Bún Bò Cơm Nguội - Đường Số 8,"120 Đường Số 8, P. Tân Thuận Đông",9,1150521,2,0.0,0,0,0,0,2,0,10.7450077,106.7321812
/ho-chi-minh/tieu-gia-ky-huynh-tan-phat/binh-luan,TIÊU GIA KÝ - Huỳnh Tấn Phát,"487/47B/40 Huỳnh Tấn Phát, P. Tân Thuận Đông",9,1000058008,2,0.0,0,0,0,0,4,0,10.7450723,106.7322551
/ho-chi-minh/nha-hang-hai-son-lau-de-hai-san-tuoi-song-le-van-thiem/binh-luan,Nhà Hàng Hải Sơn - Lẩu Dê & Hải Sản Tươi Sống - Lê Văn Thiêm,"15/1 Lê Văn Thiêm, P. Tân Phong",9,1150477,2,0.0,0,0,0,0,1,0,10.730974,106.710228
/ho-chi-minh/oishii-sushi-huynh-tan-phat/binh-luan,Oishii Sushi - Huỳnh Tấn Phát,"317 Huỳnh Tấn Phát, P. Tân Thuận Đông",9,1150427,2,0.0,0,0,0,0,1,0,10.751149,106.728691
/ho-chi-minh/tra-sua-hongkong-baley-duong-so-9/binh-luan,Trà Sữa Hongkong BALEY - Đường Số 9,"110 Đường Số 9, P. Tân Phú",9,1150425,2,0.0,0,0,0,0,5,0,10.7360909,106.7174079
/ho-chi-minh/koze-rooftop-duong-53/binh-luan,KOZE Rooftop - Đường 53,"Số 20 Đường 53, P. Bình Thuận",9,1150408,2,0.0,0,0,0,0,4,0,10.7408184,106.7167045
/ho-chi-minh/ghien-chien-14a-vien-chien-xuc-xich-pho-mai-que/binh-luan,"Ghiền Chiên 14A - Viên Chiên, Xúc Xích & Phô mai Que","7A Đường 14A, P. Tân Thuận Tây",9,1150405,2,0.0,0,0,0,0,3,0,10.7505267,106.7181227
/ho-chi-minh/nhu-y-am-thuc-chay/binh-luan,Như Ý - Ẩm Thực Chay,"44 Hưng Phước 4, P. Tân Phong",9,780487,2,10.0,128,0,1,4,582,0,10.7297077,106.7070082
/ho-chi-minh/bong-lai-garden-cafe-diem-tam-com-trua-van-phong/binh-luan,"Bồng Lai Garden - Cafe, Điểm Tâm & Cơm Trưa Văn Phòng","G11 - G12 Đường Số 3A, P. Tân Hưng",9,782709,2,10.0,10,0,2,2,312,0,10.743986,106.699667
/ho-chi-minh/nha-dua-cafe-tea/binh-luan,Nhà Dứa - Cafe & Tea,"53G Đường Số 17, P. Tân Kiểng",9,784136,2,10.0,27,0,1,0,119,3,10.744975,106.713573
/ho-chi-minh/tocotoco-bubble-tea-duong-so-17/binh-luan,TocoToco Bubble Tea - Đường Số 17,"103 Đường số 17, P, Tân Kiểng",9,1004557,2,10.0,3,0,2,0,142,1,10.7449735,106.7128367
/ho-chi-minh/ong-thang-loi-lau-bo-thuoc-bac-gia-truyen/binh-luan,Ông Thắng Lợi - Lẩu Bò Thuốc Bắc Gia Truyền,"996 Huỳnh Tấn Phát, P. Tân Phú",9,1033938,2,10.0,7,0,2,2,248,0,10.724798,106.734434
/ho-chi-minh/banh-flan-sinh-to-nuoc-sam/binh-luan,"Bánh Flan, Sinh Tố & Nước Sâm","38 Đường Số 11, P. Tân Kiểng",9,683545,2,10.0,10,4,2,1,274,0,10.74644,106.708661
/ho-chi-minh/ga-ta-tam-ky-quan-duc-huy-79-ga-ta/binh-luan,Gà Ta Tam Kỳ Quán Đức Huy 79 - Gà Ta,"97 Đường Số 79, P. Tân Quy",9,740145,2,10.0,26,0,1,7,341,0,10.7401346,106.709119
/ho-chi-minh/conzbiz-coffee-food-beer/binh-luan,"Conzbiz - Coffee, Food & Beer","45 Đường Số 23, P. Tân Quy",9,1001496,2,10.0,26,0,1,0,145,1,10.743852,106.710411
/ho-chi-minh/tocotoco-bubble-tea-164-lam-van-ben/binh-luan,TocoToco Bubble Tea - 164 Lâm Văn Bền,"164 Lâm Văn Bền, P. Tân Quy",9,1018105,2,10.0,0,0,1,2,219,6,10.742748,106.715811
/ho-chi-minh/que-quan-am-thuc-viet/binh-luan,Quê Quán - Ẩm Thực Việt,"75 Đường Số 17, P. Tân Quy",9,696984,2,10.0,24,0,1,5,540,0,10.744904,106.711303
/ho-chi-minh/gold-chicken-vietnam-quan-ga-han-quoc/binh-luan,Gold Chicken Vietnam - Quán Gà Hàn Quốc,37 Cao Triều Phát,9,862733,2,10.0,24,17,1,5,688,0,10.7318873,106.7066635
/ho-chi-minh/tra-sua-yucha-sc-vivocity/binh-luan,Trà Sữa Yucha - SC VivoCity,"A1-A2, Tầng 3, SC VivoCity, 1058 Nguyễn Văn Linh, P. Tân Phong",9,932697,2,9.544,91,0,118,6,753,35,10.729875,106.703287
/ho-chi-minh/oc-tao-duong-so-28/binh-luan,Ốc Tao - Đường Số 28,"80 Đường Số 28, P. Tân Phong",9,936702,2,8.656,85,0,102,14,4633,0,10.738081,106.712489
/ho-chi-minh/truong-thinh-bun-bo-gia-truyen/binh-luan,Trường Thịnh - Bún Bò Gia Truyền,"1061 Huỳnh Tấn Phát, P. Phú Thuận",9,1105325,2,9.874,27,0,100,2,349,0,10.7161096519918,106.7368756847445
/ho-chi-minh/bun-rieu-da-lat-que/binh-luan,Bún Riêu Đà Lạt Quế,"99 Lâm Văn Bền, P. Tân Thuận Tây",9,628451,2,7.072,179,0,76,142,8216,7,10.7461004,106.7037782
/ho-chi-minh/ba-tofu-sup-dau-hu-han-quoc/binh-luan,Ba Tofu - Súp Đậu Hủ Hàn Quốc,"60-62 Cao Triều Phát, P. Tân Phong",9,741850,2,8.966,156,0,18,140,5234,8,10.7320501,106.7079143
/ho-chi-minh/oc-chao-861-48/binh-luan,Ốc Chảo 861/48,"861/48 Trần Xuân Soạn, P. Tân Hưng",9,722435,2,6.282,105,0,26,126,13436,1,10.749967,106.697031
/ho-chi-minh/yeol-kwang-am-thuc-han-quoc/binh-luan,YeolKwang - Ẩm Thực Hàn Quốc,"34 Hưng Gia 4, P. Tân Phong",9,625646,2,7.4,39,0,10,126,9107,1,10.732449,106.707232
/ho-chi-minh/artisan-bakery-coffee-nguyen-binh/binh-luan,Artisan Bakery & Coffee - Nguyễn Bính,"số 11 Nguyễn Bính, P. Tân Phong",9,257866,2,7.256,251,0,32,124,18790,6,10.7260445,106.7105164
/ho-chi-minh/mint-and-paul-cafe/binh-luan,Mint & PAUL - Cuisine & Lounge,"48 Cao Triều Phát, KP. Hưng Gia III, P. Tân Phong",9,116785,2,7.704,644,0,45,120,23079,15,10.7319709,106.7085629
/ho-chi-minh/res-beefsteak-sai-gon/binh-luan,Mr. Beefsteak - Lâm Văn Bền,"285 Lâm Văn Bền, P. Tân Quy",9,277906,2,7.888,368,0,59,119,10335,10,10.7393319,106.7159099
/ho-chi-minh/ghien-coffee-an-vat/binh-luan,Ghiền - Coffee & Ăn Vặt,"1019C Trần Xuân Soạn, P. Tân Hưng",9,982141,2,0.0,0,0,0,0,31,0,10.751216,106.692594
/ho-chi-minh/march-food-beverage-tran-xuan-soan/binh-luan,March - Food & Beverage - Trần Xuân Soạn,"478/15B Trần Xuân Soạn, P. Tân Hưng",9,1138634,2,0.0,0,0,0,0,1,0,10.749096,106.6925958
/ho-chi-minh/ha-s-coffee/binh-luan,Hà's Coffee,"1041/35 Trần Xuân Soạn, KP. 3, P. Tân Hưng",9,741136,2,0.0,0,0,0,0,17,0,10.749123,106.69265
/ho-chi-minh/com-ga-ffv-com-van-phong-thuc-pham-sach-tran-xuan-soan/binh-luan,Cơm Gà FFV - Cơm Văn Phòng & Thực Phẩm Sạch - Trần Xuân Soạn,1041/36 Trần Xuân Soạn,9,911546,2,0.0,0,0,0,0,56,0,10.748996,106.692668
/ho-chi-minh/mina-chao-dinh-duong/binh-luan,Mina - Cháo Dinh Dưỡng,"1009 Trần Xuân Soạn, P. Tân Kiểng",9,732115,2,0.0,6,0,0,0,61,0,10.751385,106.692961
/ho-chi-minh/diem-sang-com-trua-van-phong/binh-luan,Điểm Sáng - Cơm Trưa Văn Phòng,"110 Đường Số 2, P. Tân Phong",9,896660,2,0.0,0,0,0,0,55,0,10.727743,106.691639
/ho-chi-minh/am-thuc-999-hai-san/binh-luan,Ẩm Thực 999 - Hải Sản,"999 Trần Xuân Soạn, P. Tân Hưng",9,974859,2,0.0,1,0,0,0,59,0,10.751427,106.693145
/ho-chi-minh/com-tam-1005/binh-luan,Cơm Tấm 1005,"1041/49 Trần Xuân Soạn, P. Tân Hưng",9,875877,2,5.314,11,14,7,1,476,0,10.7491348,106.6930631
/ho-chi-minh/che-buoi-che-thap-cam-tran-xuan-soan/binh-luan,Chè Bưởi & Chè Thập Cẩm - Trần Xuân Soạn,"71/10A Hẻm 1005 Trần Xuân Soạn, P. Tân Hưng",9,1035040,2,0.0,0,0,0,0,36,0,10.750736,106.693184
/ho-chi-minh/hotto-mon-ngon-tren-dia-nong-vincom-sc-vivocity/binh-luan,Hotto - Món Ngon Trên Đĩa Nóng - Vincom SC VivoCity,"12C, tầng 4, TTTM SC VivoCity, 1058 Nguyễn Văn Linh, P. Tân Phong",9,1127889,2,0.0,0,0,0,0,35,0,10.7321064,106.6921421
/ho-chi-minh/chuoi-chien-khoai-lang-chien-banh-bo-tran-xuan-soan/binh-luan,"Chuối Chiên, Khoai Lang Chiên & Bánh Bò - Trần Xuân Soạn","1005/8 Trần Xuân Soạn, P. Tân Hưng",9,782860,2,0.0,1,4,0,2,258,0,10.750283,106.693283
/ho-chi-minh/sam-lanh-tu-beo/binh-luan,Sâm Lạnh Tư Béo,"1005/10 Trần Xuân Soạn, P. Tân Hưng",9,782861,2,0.0,1,0,0,0,96,0,10.75033,106.693299
/ho-chi-minh/com-tam-phuc-loc-tho-nguyen-thi-thap/binh-luan,Cơm Tấm Phúc Lộc Thọ - Nguyễn Thị Thập,"223 Nguyễn Thị Thập, P. Tân Phú",9,994491,2,7.16,49,4,10,13,1696,4,10.738154,106.717813
/ho-chi-minh/quan-chay-rau-cu-nam/binh-luan,Quán Chay Rau Củ Nấm,557 Lê Văn Lương,9,945886,2,6.998,14,0,14,16,2094,3,10.734063,106.702014
/ho-chi-minh/katinat-nguyen-thi-thap/binh-luan,Katinat - Nguyễn Thị Thập,"607 Nguyễn Thị Thập, P. Tân Hưng",9,1126808,2,4.6,2,0,2,0,1011,0,10.7400308,106.7028223
/ho-chi-minh/the-coffee-house-313-nguyen-thi-thap/binh-luan,The Coffee House - 313 Nguyễn Thị Thập,"313 Nguyễn Thị Thập, P. Tân Phú",9,1080500,2,5.0,0,0,1,0,235,1,10.7380569,106.7152028
/ho-chi-minh/tre-tron-coc-giang-hoang-tran-xuan-soan/binh-luan,Tré Trộn Cóc Giang Hoàng - Trần Xuân Soạn,"793/35 Trần Xuân Soạn, P. Tân Hưng",9,975949,2,4.7,2,5,2,0,340,1,10.74932,106.69942
/ho-chi-minh/com-tam-long-xuyen-hang-thu-com-tam-le-van-luong/binh-luan,Cơm Tấm Long Xuyên Hằng Thư - Cơm Tấm - Lê Văn Lương,"196 Lê Văn Lương, P. Tân Hưng",9,1000025907,2,10.0,0,1,1,0,160,0,10.7466179,106.7043221
/ho-chi-minh/rau-ma-mix-nguyen-thi-thap/binh-luan,Rau Má Mix - Nguyễn Thị Thập,"520 Nguyễn Thị Thập, P. Tân Hưng",9,972558,2,5.88,67,0,22,8,2447,4,10.740038,106.70233
/ho-chi-minh/banh-trang-thuy-van-duong-17/binh-luan,Bánh Tráng Thúy Vân - Đường 11,"19 Đường 11, P. Tân Kiểng",9,1111282,2,6.6,0,0,1,0,67,0,10.7462995,106.7095624
/ho-chi-minh/to-hy-mi-tron-fastfood/binh-luan,Tờ Hy - Mì Trộn & FastFood,"1135/15C Huỳnh Tấn Phát, P. Phú Thuận",9,1064617,2,9.4,8,0,2,1,142,0,10.7242384,106.7363635
/ho-chi-minh/xoi-xeo-ba-3-beo-mon-ngon-ha-noi-shop-online/binh-luan,Xôi Xéo Bà 3 Béo - Món Ngon Hà Nội - Shop Online,"101 Trần Trọng Cung, P. Tân Thuận Đông",9,1024768,2,0.0,0,28,0,7,310,0,10.7432559,106.7330353
/ho-chi-minh/bun-bo-bun-rieu-so-1-bun-bo-bun-rieu-duong-so-10.kmmzyl/binh-luan,Bún Bò Bún Riêu Số 1 - Bún Bò & Bún Riêu - Đường Số 10,"1/5 Đường Số 10, P. Tân Quy",9,1000026944,2,0.0,0,0,0,0,80,0,10.7429675,106.7099731
/ho-chi-minh/thai-express-mon-thai-sc-vivocity/binh-luan,Thai Express - Món Thái - SC VivoCity,"Tầng 4 - SC VivoCity, 1058 Nguyễn Văn Linh, KP. 1, P. Tân Phong",9,95735,2,7.0,708,0,93,17,43345,27,10.729952,106.703237
/ho-chi-minh/nha-hang-han-quoc-lee-cho/binh-luan,Nhà Hàng Hàn Quốc Lee Cho - Hưng Phước 2,48 Hưng Phước 2,9,29308,2,7.426,362,0,47,46,19065,17,10.731448,106.707859
/ho-chi-minh/young-dabang-lau-tokbokki-han-quoc/binh-luan,Young Dabang - Lẩu Tokbokki Hàn Quốc,"143 Nguyễn Đức Cảnh, P. Tân Phong",9,995079,2,8.096,2997,0,44,98,5131,4,10.723095,106.709593
/ho-chi-minh/kem-haagen-dazs-phu-my-hung/binh-luan,Kem Häagen Dazs - Phú Mỹ Hưng,"SD - 06, KP Mỹ Đức, Nguyễn Đức Cảnh",9,166122,2,7.788,701,0,46,16,3902,11,10.724211,106.709189
/ho-chi-minh/uraetei-bbq-pho-dinh-hoang-van-thai/binh-luan,Uraetei BBQ - Phổ Đình - Hoàng Văn Thái,"73 Hoàng Văn Thái, P. Tân Phú",9,116848,2,6.91,311,0,44,32,21814,17,10.7308523,106.7231816
/ho-chi-minh/tra-sua-heekcaa-khanh-hoi/binh-luan,Trà Sữa Heekcaa - Nguyễn Hữu Thọ,"X1.52 - X1.53 Sunrise City, 27 Nguyễn Hữu Thọ",9,719691,2,6.472,239,0,94,9,3696,13,10.743638,106.701406
/ho-chi-minh/shahar-cafe-lounge/binh-luan,Shahar Cafe Lounge,4 - 1B Khu Mĩ Kim,9,4655,2,7.068,104,0,23,40,16781,22,10.7273295,106.7140809
/ho-chi-minh/phindeli-cafe-express-sunrise-city/binh-luan,PhinDeli Café Express Sunrise City,"Sunrise City Tháp V4, 23 Nguyễn Hữu Thọ, P. Tân Hưng",9,1145282,2,0.0,0,0,0,0,10,0,10.7415403,106.7005935
/ho-chi-minh/che-hanh-duong-so-3/binh-luan,Chè Hạnh - Đường Số 3,"33B Đường Số 3, P. Tân Kiểng",9,1145101,2,0.0,0,0,0,0,2,0,10.747831,106.70897
/ho-chi-minh/pooh-com-chay-banh-trang/binh-luan,Pooh - Cơm Cháy & Bánh Tráng,"9/1 Trần Trọng Cung, P. Tân Thuận Đông",9,1144731,2,0.0,0,0,0,0,3,0,10.743867,106.730099
/ho-chi-minh/hu-tieu-mi-himlam-hu-tieu-mi-thap-cam-com-trua-van-phong-150-hoang-trong-mau/binh-luan,Hủ Tiếu Mì Himlam - Hủ Tiếu Mì Thập Cẩm  & Cơm Trưa Văn Phòng - 150 Hoàng Trọng Mậu,"150 Hoàng Trọng Mậu, P. Tân Hưng",9,1144192,2,0.0,0,0,0,0,0,0,10.7379119,106.6962417
/ho-chi-minh/banh-ca-va-trung-cuon-pho-mai-173-duong-so-17.y2aiqu/binh-luan,Bánh Cá Và Trứng Cuộn Phô Mai -173 Đường Số 17,"173 Đường Số 17, P. Tân Quy",9,1000053857,2,0.0,0,0,0,0,1,0,10.7450402,106.7102856
/ho-chi-minh/tra-sua-happy-tea-tra-sua-huynh-tan-phat.rixacu/binh-luan,Trà Sữa Happy Tea - Trà Sữa - Huỳnh Tấn Phát,"1725 Huỳnh Tấn Phát, P. Phú Mỹ",9,1000053044,2,0.0,0,0,0,0,20,0,10.704673,106.738029
/ho-chi-minh/hem-quan-bun-thai-hu-tieu-muc-huynh-tan-phat/binh-luan,Hẻm Quán - Bún Thái & Hủ Tiếu Mực - Huỳnh Tấn Phát,"1247/10 Huỳnh Tấn Phát, P. Phú Thuận",9,1000052498,2,0.0,0,0,0,0,6,0,10.7197992,106.7368096
/ho-chi-minh/bun-dau-pho-xua-duong-so-37/binh-luan,Bún Đậu Phố Xưa - Đường Số 37,"111 Đường Số 37, P. Tân Quy",9,1000051589,2,0.0,0,0,0,0,27,0,10.744392076115,106.7117692892139
/ho-chi-minh/thanh-vn-banh-mi-thit-nuong-32-4-phu-thuan.hwmnk6/binh-luan,THANH VN - Bánh Mì Thịt Nướng - 32/4 Phú Thuận,"32/4 Phú Thuận, P. Phú Thuận",9,1000046545,2,0.0,0,0,0,0,21,0,10.7314495,106.7376605
/ho-chi-minh/sinh-to-32-nuoc-ep-an-vat-duong-so-4/binh-luan,Sinh Tố 32 - Nước Ép & Ăn Vặt - Đường Số 4,"32 Đường số 4, P. Tân Kiểng",9,1124304,2,0.0,0,0,0,0,3,0,10.7479982517297,106.7060058543787
/ho-chi-minh/thu-foods-mon-ngon-nha-thu-bun-thit-xao.0dc1vp/binh-luan,Thư Foods Món Ngon Nhà Thư - Bún Thịt Xào,"94 Đường Số 17, P. Tân Kiểng",9,1000033467,2,0.0,0,0,0,0,6,0,10.7449562,106.7130475
/ho-chi-minh/com-tam-ba-hai-137-huynh-tan-phat/binh-luan,Cơm Tấm Bà Hai - 137 Huỳnh Tấn Phát,"137 Huỳnh Tấn Phát, P. Tân Thuận Đông",9,677279,2,8.064,9,5,3,6,1149,2,10.755524,106.724223
/ho-chi-minh/tra-sua-banh-ga-an-vat-tan-my/binh-luan,"Trà Sữa, Bánh Gà & Ăn Vặt - Tân Mỹ","96/34 Tân Mỹ, P. Tân Thuận Tây",9,1041881,2,9.304,14,0,69,2,272,1,10.750771,106.718668
/ho-chi-minh/binh-dinh-quan-banh-hoi-chao-long-le-van-luong/binh-luan,Bình Đinh Quán - Bánh Hỏi Cháo Lòng - Lê Văn Lương,"601 Lê Văn Lương, P. Tân Phong",9,988867,2,6.0,8,0,3,0,300,3,10.7321565,106.7013757
/ho-chi-minh/anh-tam-cut-chien-bo-bui-van-ba.o3dv4x/binh-luan,Anh Tám - Cút Chiên Bơ - Bùi Văn Ba,"44B/45/1  Bùi Văn Ba, P. Tân Thuận Đông",9,1000054875,2,0.0,0,0,0,0,4,0,10.749343,106.7325259
/ho-chi-minh/jjang-com-tron-han-quoc-le-van-luong/binh-luan,Jjang! - Cơm Trộn Hàn Quốc - Lê Văn Lương,"653 Lê Văn Lương, Khu Phố 1, P. Tân Phong",9,1137198,2,0.0,0,0,0,0,25,0,10.7293571,106.6999469
/ho-chi-minh/an-uong-24-7-banh-mi-tho-nhi-ky-le-van-luong/binh-luan,Ăn Uống 24/7 - Bánh Mì Thổ Nhĩ Kỳ - Lê Văn Lương,"626 Lê Văn Lương, P. Tân Phong (Sát Bên Đại Học Tôn Đức Thắng Đường Thông Nguyễn Văn Linh)",9,1141187,2,0.0,0,0,0,0,4,0,10.7297772,106.6999113
/ho-chi-minh/chao-ech-singapore-a-tinh-nguyen-thi-thap/binh-luan,Cháo Ếch Singapore A Tỉnh - Cháo Ếch - Nguyễn Thị Thập,"409 Nguyễn Thị Thập, P. Tân Phong",9,674869,2,7.316,26,0,7,21,2607,4,10.7383482,106.7124741
/ho-chi-minh/daebak-mi-tron-han-quoc-le-van-luong/binh-luan,Daebak! Mì Trộn Hàn Quốc - Lê Văn Lương,"653 Lê Văn Lương, Khu phố 1, P. Tân Phong",9,1137203,2,0.0,0,0,0,0,12,0,10.7293571,106.6999469
/ho-chi-minh/nhim-ca-vien-chien-nuoc-mam-bui-van-ba/binh-luan,Nhím - Cá Viên Chiên Nước Mắm - Bùi Văn Ba,"44b/45 Bùi Văn Ba, P. Tân Thuận Đông",9,1112284,2,0.0,0,0,0,0,91,0,10.7496539,106.7325044
/ho-chi-minh/7-eleven-cua-hang-tien-loi-crescent-residence-1/binh-luan,7-Eleven - Cửa Hàng Tiện Lợi - Crescent Residence 1,"103 Tôn Dật Tiên, P. Tân Phú",9,727203,2,5.398,38,3,3,2,256,0,10.7278518,106.7192498
/ho-chi-minh/vu-tru-mi-tron-le-van-luong/binh-luan,Vũ Trụ Mì Trộn - Lê Văn Lương,"653 Lê Văn Lương, Khu Phố 1",9,1135168,2,0.0,0,0,0,0,32,0,10.729365,106.6999598
/ho-chi-minh/hello-burger-hamburger-chicken/binh-luan,Hello Burger - Hamburger & Chicken,"80C Đường Số 49, P. Tân Quy",9,1112535,2,0.0,0,1,0,1,127,0,10.7416521,106.7154593
/ho-chi-minh/hu-tieu-nam-vang-co-kieu-quan-hu-tieu-2-to/binh-luan,Hủ Tiếu Nam Vang Cô Kiều Quán - Hủ Tiếu 2 Tô,"44 Đường 79, P. Tân Quy",9,1127386,2,0.0,0,0,0,0,21,0,10.739946,106.710776
/ho-chi-minh/burger-n-shake-by-gyumaru-wagyu-burger-ga-ran-khu-my-gia-1.ztvszw/binh-luan,Burger_N_Shake By Gyumaru - Wagyu Burger & Gà Rán - Khu mỹ gia 1,"2 Đường Số 20 khu mỹ gia 1, phú mỹ hưng, P. Tân Phú",9,1000046843,2,0.0,0,0,0,0,66,0,10.7205079,106.7323446
/ho-chi-minh/yum-by-california-mai-van-vinh/binh-luan,YUM BY CALIFORNIA - Mai Văn Vĩnh,"14 Mai Văn Vĩnh, P. Tân Quy",9,1126286,2,0.0,0,0,0,0,46,0,10.7410926139615,106.7136653548149
/ho-chi-minh/nha-hang-diamond-duong-85/binh-luan,Nhà Hàng Diamond - Đường 85,"6 Đường 85, P. Tân Quy",9,1124367,2,0.0,0,0,0,0,29,0,10.7393362560349,106.7126432393176
/ho-chi-minh/myla-bubble-tea-nguyen-thi-thap/binh-luan,MyLa Bubble Tea - Nguyễn Thị Thập,"Kiot 400 Nguyễn Thị Thập, P. Tân Quy",9,1124094,2,0.0,0,0,0,0,43,0,10.7390571,106.7103081
/ho-chi-minh/lau-thai-co-ba-nho-nguyen-van-linh/binh-luan,Lẩu Thái Cô Ba Nhỏ - Nguyễn Văn Linh,"45 Nguyễn Văn Linh, P. Tân Thuận Tây",9,1124611,2,0.0,0,0,0,0,27,0,10.7526725847757,106.7266830971432
/ho-chi-minh/sinh-to-hong-anh-le-van-luong/binh-luan,Sinh Tố Hồng Anh - Lê Văn Lương,"98 Lê Văn Lương, P. Tân Hưng",9,1122897,2,0.0,0,0,0,0,17,0,10.7498429091479,106.7049558125142
/ho-chi-minh/saigonviet-coffee-sinh-to-nuoc-ep-duong-81/binh-luan,Saigonviet Coffee - Sinh Tố & Nước Ép - Đường 81,"70 Đường Số 81, phường Tân Quy, Quận 7",9,1122481,2,0.0,0,0,0,0,64,0,10.7404587,106.7047954
/ho-chi-minh/quan-viet-bun-bo-com-tam/binh-luan,Quán Việt - Bún Bò & Cơm Tấm,"30 Đường 36, P. Tân Quy",9,1121104,2,0.0,0,0,0,0,26,0,10.7399134,106.7086067
/ho-chi-minh/quan-mi-loi-khai-mi-hoanh-thanh-xa-xiu-lotte-mart/binh-luan,Quán Mì Lợi Khải – Mì Hoành Thánh Xá Xíu – Lotte Mart,"469 Nguyễn Hữu Thọ, P. Tân Hưng",9,1120382,2,0.0,0,1,0,1,48,0,10.7410376,106.7020502
/ho-chi-minh/f5-coffee-diem-tam-sinh-to/binh-luan,F5 Coffee - Điểm Tâm & Sinh Tố,"D27 Chung Cư Belleza, P. Phú Mỹ",9,1120321,2,0.0,0,0,0,0,17,0,10.7076762438979,106.7275441097223
/ho-chi-minh/swagt-indian-restaurant-indian-cuisine/binh-luan,Swagt Indian Restaurant - Indian Cuisine,"26 Hưng Phước 2, P. Tân Phong",9,1119554,2,0.0,0,0,0,0,35,0,10.7316231907939,106.7074510714225
/ho-chi-minh/bun-dau-met-le-van-luong/binh-luan,Bún Đậu Mẹt - Lê Văn Lương,"554 Lê Văn Lương, P. Tân Phong",9,632939,2,6.74,169,0,68,95,9580,12,10.732702,106.701299
/ho-chi-minh/tocotoco-bubble-tea-nguyen-thi-thap/binh-luan,TocoToco Bubble Tea - Nguyễn Thị Thập,"465 Nguyễn Thị Thập, P. Tân Phong",9,704845,2,5.048,93,0,67,10,7721,6,10.739119,106.708262
/ho-chi-minh/lotteria-phu-my-hung/binh-luan,Lotteria - Phú Mỹ Hưng,SB2-1 Mỹ Khánh 2,9,4379,2,6.868,157,0,24,14,15127,13,10.728478,106.708043
/ho-chi-minh/the-alley-tra-sua-dai-loan-nguyen-thi-thap/binh-luan,The Alley - Trà Sữa Đài Loan - Nguyễn Thị Thập,"510 Nguyễn Thị Thập, P. Tân Phong",9,750656,2,6.832,302,0,36,13,5070,6,10.739789,106.704639
/ho-chi-minh/passio-coffee-542-huynh-tan-phat/binh-luan,Passio Coffee - 542 Huỳnh Tấn Phát,"542 Huỳnh Tấn Phát, P. Tân Thuận",9,738773,2,8.4,10,0,2,0,989,0,10.737807,106.730265
/ho-chi-minh/highlands-coffee-huynh-tan-phat/binh-luan,Highlands Coffee - Huỳnh Tấn Phát,"721 Huỳnh Tấn Phát, P. Phú Thuận",9,794866,2,6.802,2,0,3,1,771,1,10.735737,106.730888
/ho-chi-minh/lee-tea-house-tra-sua-tra-trai-cay-duong-so-17/binh-luan,Lee Tea House - Trà Sữa & Trà Trái Cây - Đường Số 17,"171 Đường số 17, P. Tân Quy",9,1052988,2,9.8,80,0,2,0,235,0,10.744911,106.710954
/ho-chi-minh/tra-sua-bee-kcx-tan-thuan/binh-luan,Trà Sữa Bee - KCX Tân Thuận,"B1-06 Kiot 09, KCX Tân Thuận, P. Tân Thuận Đông",9,833705,2,10.0,13,0,1,0,196,1,10.752588,106.732311
/ho-chi-minh/dola-s-coner-ca-phe-cot-dua-dua-dam/binh-luan,ĐôLa’s Coner - Cà Phê Cốt Dừa & Dừa Dầm,"Chung Cư Long Sơn, 1349 Huỳnh Tấn Phát, P. Phú Thuận",9,1084647,2,10.0,4,0,1,0,68,1,10.7162843,106.737514
/ho-chi-minh/chao-suon-chu-chen-lam-van-ben/binh-luan,Cháo Sườn Chú Chen - Lâm Văn Bền,"261 Lâm Văn Bền, P. Bình Thuận",9,1067439,2,10.0,1,0,1,1,149,0,10.7404951,106.7157686
/ho-chi-minh/kem-baskin-robbins-phu-my-hung/binh-luan,Kem Baskin Robbins - Phú Mỹ Hưng," SB-05, Khu Phố Mỹ Đức, Nguyễn Đức Cảnh, P. Tân Phong",9,9218,2,7.41,830,0,87,38,8807,41,10.724778,106.708786
/ho-chi-minh/quan-hai-nguoi-chung-toi-hung-phuoc-3/binh-luan,Quán Hai Người Chúng Tôi - Ẩm Thực Hàn Quốc - Hưng Phước 3,"R4 70 Hưng Phước 3, P. Tân Phong",9,147616,2,7.816,196,0,11,59,43576,9,10.730553,106.707902
/ho-chi-minh/bollywood-indian-cuisine/binh-luan,BOLLYWOOD INDIAN CUISINE,"SA 26 - 2 Sky Garden 2, Phú Mỹ Hưng, P. Tân Phong",9,45021,2,7.024,100,0,16,58,42038,6,10.730824,106.706008
/ho-chi-minh/little-sao-paulo-churrascaria-am-thuc-brazil/binh-luan,Little Sao Paulo Churrascaria - Ẩm Thực Brazil,"36/19-21 Sky Garden 2, Phạm Văn Nghị Bắc, Phú Mỹ Hưng, P. Tân Phong",9,59866,2,7.642,178,0,14,18,41888,6,10.731625,106.706714
/ho-chi-minh/banh-gao-han-quoc-saeneul/binh-luan,Bánh Gạo Hàn Quốc Saeneul,"72 (S35-1) Phạm Văn Nghị, Khu Phố Sky Garden 1, P. Tân Phong",9,203578,2,7.762,122,0,11,100,41425,6,10.7297664248515,106.7066749933013
/ho-chi-minh/burger-king-phu-my-hung/binh-luan,Burger King - Phú Mỹ Hưng,"952 Nguyễn Văn Linh, P. Tân Phong",9,26916,2,6.096,210,0,33,28,41289,14,10.72928,106.708408
/ho-chi-minh/xoi-sau-rieng-nguyen-thi-thap/binh-luan,Xôi Sầu Riêng - Nguyễn Thị Thập,Đầu Lâm Văn Bền giao với Nguyễn Thị Thập,9,72141,2,6.356,88,0,23,115,40887,10,10.73862,106.71579
/ho-chi-minh/sai-gon-pho-palace-huynh-tan-phat/binh-luan,Sài Gòn Phố Palace - Huỳnh Tấn Phát,"1521 Huỳnh Tấn Phát, P. Phú Mỹ",9,93675,2,8.25,30,0,4,3,40463,3,10.7122886,106.7372041999999
/ho-chi-minh/tra-sua-nong-16-nguyen-thi-thap/binh-luan,Trà Sữa Nọng - 16 Nguyễn Thị Thập,"16 Nguyễn Thị Thập, P. Bình Thuận",9,1150372,2,0.0,0,0,0,0,1,0,10.7378563,106.7292613
/ho-chi-minh/che-tra-sua-an-vat-mi-beo-lam-van-ben/binh-luan,"Chè, Trà Sữa & Ăn Vặt Mị Béo - Lâm Văn Bền","30/7/33 Lâm Văn Bền, P. Tân Kiểng",9,1150175,2,0.0,0,0,0,0,4,0,10.74975,106.71442
/ho-chi-minh/my-suon-bo-cay-bun-thai-chu-gon-duong-19/binh-luan,Mỳ Sườn Bò Cay & Bún Thái Chú Gòn - Đường 19,"Số 6 Đường 19, P. Tân Quy",9,1150147,2,0.0,0,0,0,0,2,0,10.7451095638038,106.7099303636619
/ho-chi-minh/vit-quay-tien-map-vit-quay-ga-quay-lu-heo-quay/binh-luan,"Vịt Quay Tiến Mập - Vịt Quay, Gà Quay Lu & Heo Quay","248 Huỳnh Tấn Phát, P. Tân Thuận Tây",9,1150116,2,0.0,0,0,0,0,2,0,10.7541063,106.7281086
/ho-chi-minh/hoang-yen-bun-thai-lau-thai/binh-luan,Hoàng Yến - Bún Thái & Lẩu Thái,"199 Lâm Văn Bền, P. Bình Thuận",9,1150060,2,0.0,0,0,0,0,1,0,10.743663,106.715913
/ho-chi-minh/11-milktea-tra-sua-chai-nguyen-van-quy/binh-luan,11 Milk Tea - Trà Sữa Chai - Nguyễn Văn Qùy,"88/55/9E Nguyễn Văn Qùy, P. Phú Nhuận",9,1149944,2,0.0,0,0,0,0,3,0,10.7371847,106.733893
/ho-chi-minh/pho-moc-vi-gia-go-o-moi/binh-luan,Phở Mộc Vị Gia - Gò Ô Môi,"99 Gò Ô Môi, P. Phú Thuận",9,1149935,2,0.0,0,0,0,0,1,0,10.7297821,106.7352532
/ho-chi-minh/quan-an-mien-tay-tung-lan-tran-xuan-soan/binh-luan,Quán Ăn Miền Tây Tùng Lan - Trần Xuân Soạn,"793/29C Trần Xuân Soạn, P. Tân Hưng",9,1149884,2,5.0,1,0,1,1,2,0,10.7490174,106.6977917
/ho-chi-minh/ca-vien-chien-nuoc-mam-hung-phat-ca-vien-chien-duong-so-7.5w6mmm/binh-luan,Cá Viên Chiên Nước Mắm Hùng Phát - Đường Số 7,"26a Đường Số 7, P. Tân Kiểng",9,1000057830,2,0.0,0,0,0,0,2,0,10.7470717,106.7093429
/ho-chi-minh/dao-hai-san-food-deli-nguyen-thi-thap/binh-luan,Đảo Hải Sản Food Deli - Nguyễn Thị Thập,"446 Nguyễn Thị Thập, P. Tân Quy",9,1149872,2,0.0,0,0,0,0,2,0,10.7396785,106.7079047
/ho-chi-minh/hai-anh-quan-com-trua-van-phong-duong-d1/binh-luan,Hải Anh Quán - Cơm Trưa Văn Phòng - Đường D1,"DS04 - TM33, Block A, Tòa Nhà Florita, KDC Him Lam, Đường D1, P. Tân Hưng",9,1036232,2,10.0,0,0,1,3,295,3,10.744767,106.694807
/ho-chi-minh/dac-san-nha-lam-gio-thu-shop-online/binh-luan,Đặc Sản Nhà Làm - Giò Thủ - Shop Online,"Chung Cư Himlam Riverside, Đường D1, P. Tân Hưng",9,790711,2,10.0,41,0,1,2,173,0,10.7425373,106.6934696
/ho-chi-minh/chao-zhou-boy-lau-de-trieu-chau/binh-luan,Chao Zhou Boy - Bò Tơ Triều Châu,"17 Nguyễn Văn Linh, P. Tân Thuận Tây",9,897191,2,10.0,33,0,2,0,261,0,10.752554,106.72754
/ho-chi-minh/tra-sua-doraemon-lam-van-ben/binh-luan,Trà Sữa Doraemon - Lâm Văn Bền,"60/8 Lâm Văn Bền, P. Tân Kiểng",9,851353,2,10.0,14,0,1,0,130,1,10.7485988334599,106.7153468728066
/ho-chi-minh/tra-sua-nha-lam-mickey-tra-sua-lam-van-ben.avmv86/binh-luan,Trà Sữa Nhà Làm Mickey - Trà Sữa - Lâm Văn Bền,"92 Lâm Văn Bền, P. Tân Kiểng",9,1000027958,2,10.0,1,1,1,1,40,1,10.7448256,106.7158704
/ho-chi-minh/ms-barun-kimbap-banh-gao/binh-luan,Ms. Barun 미스바른 - Kimbap & Bánh Gạo,"47 - 49 - 51 Lê Văn Thiêm, P. Tân Phong",9,934261,2,10.0,15,11,1,4,406,0,10.730977,106.708307
/ho-chi-minh/ga-ta-tam-ky-hoai-chau-lam-van-ben/binh-luan,Gà Ta Tam Kỳ Hoài Châu - Lâm Văn Bền,"205 Lâm Văn Bền, P. Bình Thuận",9,726553,2,10.0,8,0,1,7,415,0,10.742273,106.715925
/ho-chi-minh/jun-bi-coffee-tea/binh-luan,Jun Bi - Coffee & Tea,"57 Đường 14A Cư Xá Ngân Hàng, P. Tân Thuận Tây",9,1035063,2,10.0,11,0,1,0,41,1,10.749605,106.718161
/ho-chi-minh/mini-milk-tea/binh-luan,Mini Milk Tea,"435/4 Huỳnh Tấn Phát, P. Tân Thuận Đông",9,775617,2,10.0,4,0,2,1,55,0,10.746892756617,106.7298624689211
/ho-chi-minh/travico-sinh-to-dua-sap-coffee-tan-thuan-tay/binh-luan,Travico - Sinh Tố Dừa Sáp & Coffee - Tân Thuận Tây,"2 Đường D6 Khu Tân Thuận Tây, P. Bình Thuận",9,731415,2,6.268,420,0,94,75,10053,9,10.7493214,106.7258291
/ho-chi-minh/sukiya-com-bo-ham-mi-ramen-crescent-mall/binh-luan,Sukiya - Cơm Bò Hầm & Mì Ramen - Crescent Mall,"Tầng 5 Crescent Mall, 101 Tôn Dật Tiên, P. Tân Phú",9,299423,2,6.95,582,0,91,55,4994,12,10.72871,106.718806
/ho-chi-minh/xien-n-beer-95/binh-luan,"Xiên N Beer - Thịt Nướng, Tôm Lụi & Mực Xiên","59 Đường Số 21, P. Tân Quy",9,888161,2,8.29,389,0,87,50,1245,1,10.744433,106.709759
/ho-chi-minh/otoke-chicken-ga-ran-han-quoc-huynh-tan-phat/binh-luan,Otoké Chicken - Gà Rán Hàn Quốc - Huỳnh Tấn Phát,"547 Huỳnh Tấn Phát, P. Phú Thuận",9,977311,2,8.568,46,0,85,5,779,4,10.743222,106.729585
/ho-chi-minh/ga-ran-chicken-plus-nguyen-thi-thap/binh-luan,Gà Rán Chicken Plus - Nguyễn Thị Thập,"412 Nguyễn Thị Thập, P. Tân Quy",9,876281,2,7.066,250,0,59,118,21740,5,10.739074,106.70942
/ho-chi-minh/thom-noodle-bar/binh-luan,Mì Thơm - Noodle Bar,"462 Lê Văn Lương, P. Tân Phong",9,631808,2,7.302,245,0,78,116,8077,22,10.7360938,106.7026438
/ho-chi-minh/cha-lui-chi-em-duong-so-6/binh-luan,Chả Lụi Chị Em - Đường Số 6,"2 Đường Số 6, P. Tân Kiểng",9,49699,2,6.706,87,0,30,116,25266,27,10.746163,106.707104
/ho-chi-minh/an-vat-dizi-s-house/binh-luan,Ăn Vặt Dizi's House - Shop Online,Huỳnh Tấn Phát,9,169675,2,8.0,35,0,1,106,13340,9,10.7141246,106.7369785
/ho-chi-minh/xom-me-an-vat-gio-cha-rau-cau-tran-xuan-soan.hiuxfb/binh-luan,Xóm Mê Ăn Vặt - Giò Chả & Rau Câu - Trần Xuân Soạn,"1041/62 Trần Xuân Soạn, P. Tân Hưng",9,1000029354,2,0.0,0,0,0,0,22,0,10.7491212,106.6933828
/ho-chi-minh/com-tam-ong-ca/binh-luan,Cơm Tấm Ông Cá 2 - Shop Online,"1041/62/56 Trần Xuân Soạn, P. Tân Hưng",9,932672,2,7.4,20,0,2,1,357,0,10.7492269,106.6933911
/ho-chi-minh/nuoc-ep-nguyen-chat-1041/binh-luan,Nước Ép Nguyên Chất 1041,"1041/49 Trần Xuân Soạn, P. Tân Hưng",9,992769,2,0.0,0,0,0,0,36,0,10.749304,106.693403
/ho-chi-minh/com-tam-an-an-tran-xuan-soan.tytxtq/binh-luan,Cơm Tấm An An - Trần Xuân Soạn,"Hẻm 1041/62/20 Trần Xuân Soạn, P. Tân Hưng",9,1000034677,2,0.0,0,0,0,0,5,0,10.7491407,106.6933972
/ho-chi-minh/quan-oc-yen/binh-luan,Quán Ốc Yên,"997 Trần Xuân Soạn, P. Tân Hưng",9,792210,2,2.7,27,2,4,0,341,0,10.7514262395484,106.6935448925907
/ho-chi-minh/hoa-gia-town-milktea-cake-homemade/binh-luan,Hòa Gia Town - Milktea & Cake Homemade,"1041/62/56/10 Trần Xuân Soạn, P. Tân Hưng",9,891813,2,0.0,0,0,0,0,34,0,10.74753,106.693364
/ho-chi-minh/chaka-tra-sua-tra-trai-cay-tran-xuan-soan/binh-luan,CHAKA - Trà Sữa & Trà Trái Cây - Trần Xuân Soạn,"1041/62/158/4 Trần Xuân Soạn, P. Tân Hưng",9,1000050321,2,0.0,0,0,0,0,22,0,10.742433,106.693128
/ho-chi-minh/quan-nhau-777-tran-xuan-soan/binh-luan,Quán Nhậu 777 - Trần Xuân Soạn,"985 Trần Xuân Soạn, P. Tân Hưng",9,974860,2,0.0,1,0,0,0,119,0,10.751505,106.693652
/ho-chi-minh/co-duyen-che-thao-moc/binh-luan,Cô Duyên - Chè Thảo Mộc,"1041/62/14 Trần Xuân Soạn, P. Tân Hưng",9,785049,2,0.0,8,31,0,4,224,0,10.7488518332578,106.6935201749162
/ho-chi-minh/quan-oc-hoang-long-tran-xuan-soan/binh-luan,Quán Ốc Hoàng Long - Trần Xuân Soạn,"1041/62/150 Trần Xuân Soạn, P. Tân Hưng",9,1130693,2,0.0,0,0,0,0,7,0,10.7428246,106.6931987
/ho-chi-minh/rautela-indian-western-food-shop-online/binh-luan,Rautela – Indian & Western Food - Shop Online,"1041/62/209 Trần Xuân Soạn, P. Tân Hưng",9,931664,2,0.0,0,1,0,0,76,0,10.748324,106.693568
/ho-chi-minh/bot-chien-nhu/binh-luan,Bột Chiên Như,"1041/62/15 Trần Xuân Soạn, P. Tân Hưng ",9,974835,2,0.0,1,0,0,0,13,0,10.748573,106.693596
/ho-chi-minh/co-dieu-banh-canh-cua-nguyen-thi-thap/binh-luan,Cô Diệu - Bánh Canh Cua - Nguyễn Thị Thập,"389 Nguyễn Thị Thập, P. Tân Phong",9,1119324,2,0.0,0,4,0,1,168,0,10.7386042,106.7129745
/ho-chi-minh/hong-tra-ngo-gia-lam-van-ben/binh-luan,Hồng Trà Ngô Gia - Lâm Văn Bền,"81A Lâm Văn Bền, P. Tân Thuận Tây",9,1128160,2,1.0,1,0,1,0,294,0,10.7475219,106.7159273
/ho-chi-minh/chang-hi-che-ngon-sang-tao-quan-7/binh-luan,Chang Hi - Chè Ngon Sáng Tạo - Quận 7,"557 Lê Văn Lương, P. Tân Phong",9,1079269,2,5.5,2,1,2,4,805,0,10.7340076,106.702039
/ho-chi-minh/bun-mam-va-bun-bo-duong-so-10/binh-luan,Bún Mắm Và Bún Bò - Đường Số 10,"56 Đường Số 10, P. Tân Quy",9,70835,2,5.784,74,0,12,13,2919,2,10.7435721,106.710235
/ho-chi-minh/com-tam-thuan-kieu-dang-duc-thuat/binh-luan,Cơm Tấm Thuận Kiều - Đặng Đức Thuật,"52 Đặng Đức Thuật, P. Tân Phong",9,692320,2,6.92,38,0,10,18,2552,1,10.725471,106.708816
/ho-chi-minh/highlands-coffee-184-lam-van-ben/binh-luan,Highlands Coffee - Lâm Văn Bền,"184 Lâm Văn Bền, P. Tân Quy",9,853024,2,4.2,2,4,1,3,321,1,10.7414755,106.7158216
/ho-chi-minh/chi-tuyet-banh-trang-tron-nguyen-thi-thap/binh-luan,Chị Tuyết - Bánh Tráng Trộn - Nguyễn Thị Thập,"Hẻm 103/7D Nguyễn Thị Thập, P. Tân Phú",9,1037562,2,6.0,0,0,2,2,461,0,10.737469,106.723206
/ho-chi-minh/co-tam-quan-com-tam-van-phong-huynh-tan-phat/binh-luan,Cơm Tấm CÔ TẤM QUÁN - Huỳnh Tấn Phát,"547 Huỳnh Tấn Phát, P. Tân Thuận Đông",9,934318,2,5.694,121,0,32,8,2685,6,10.7433153,106.729904
/ho-chi-minh/texas-chicken-big-c-cityland/binh-luan,Texas Chicken - Big C Cityland,"Shop 01, Lô A Big C Cityland, 99 Nguyễn Thị Thập, P. Tân Phú",9,896413,2,5.7,2,6,4,2,1116,1,10.737456,106.725458
/ho-chi-minh/com-ga-dong-nguyen-ha-huy-tap/binh-luan,Cơm Gà Đông Nguyên - Hà Huy Tập,"53 Hà Huy Tập, P. Tân Phong",9,984623,2,6.3,91,3,2,9,1085,0,10.726334,106.710351
/ho-chi-minh/lau-hoang-yen-phu-my-hung/binh-luan,Lẩu Hoàng Yến - Phú Mỹ Hưng,103 Tôn Dật Tiên,9,14723,2,6.85,333,0,42,15,22244,13,10.727572,106.71955
/ho-chi-minh/sushi-kei-vivo-q7/binh-luan,Sushi Kei Vivo Q7,"Lô 03 - 24B, Tầng 3, SC VivoCity, 1058 Nguyễn Văn Linh, KP. 1, P. Tân Phong",9,272147,2,7.256,298,0,46,18,5829,6,10.730089,106.703522
/ho-chi-minh/oc-linh-hai-san-tuoi-song/binh-luan,Ốc Linh - Hải Sản Tươi Sống,20 - 22 - 24 Phan Khiêm Ích,9,249225,2,5.634,601,0,57,54,18133,6,10.7328784,106.7084876
/ho-chi-minh/sushi-hokkaido-sachi-%E5%8C%97%E6%B5%B7%E9%81%93%E3%82%B5%E3%83%81-crescent-mall/binh-luan,Sushi Hokkaido Sachi 北海道サチ - Crescent Mall,"GF - 29B Crescent Mall, 101 Tôn Dật tiên",9,949833,2,7.724,227,1,50,13,4447,8,10.728742,106.718685
/ho-chi-minh/vons-chicken/binh-luan,Vons Chicken,SC5-1 KP Mỹ Khánh 4,9,4996,2,7.448,77,0,25,70,24794,18,10.726788,106.708735
/ho-chi-minh/terrace-cafe-nguyen-duc-canh/binh-luan,Terrace Cafe - Nguyễn Đức Cảnh,"167 Nguyễn Đức Cảnh, P. Tân Phong",9,4995,2,7.328,338,0,28,14,14956,12,10.721586,106.711729
/ho-chi-minh/bamboo-dimsum-crescent-mall/binh-luan,Bamboo Dimsum - Crescent Mall,"Tầng 5, Crescent Mall, 101 Tôn Dật Tiên, P. Tân Phú",9,214777,2,6.888,205,0,36,56,6145,11,10.728995,106.718833
/ho-chi-minh/an-vat-merry-banh-trang-tra-sua-nguyen-thi-thap/binh-luan,Ăn Vặt Merry - Bánh Tráng & Trà Sữa - Nguyễn Thị Thập,"103/39 Nguyễn Thị Thập, P. Tân Phú",9,1000027807,2,0.0,0,0,0,0,39,0,10.7377288,106.7230448
/ho-chi-minh/ilmirack-bbq-restaurant-nha-hang-bbq-han-quoc/binh-luan,Ilmirack BBQ Restaurant - Nhà Hàng BBQ Hàn Quốc,"222 Phạm Thái Bường, P. Tân Phong",9,956676,2,9.898,90,0,60,20,3381,0,10.7275816,106.7092311
/ho-chi-minh/an-vat-sai-gon-quan-1992-duong-52/binh-luan,Ăn Vặt Sài Gòn Quán 1992 - Đường 52,"43 Đường 52, P. Tân Phong",9,1035078,2,10.0,0,3,1,2,410,0,10.737367,106.70726
/ho-chi-minh/kem-ong-han-quoc-lotte-mart-nam-sai-gon/binh-luan,Kem Ống Hàn Quốc - Lotte Mart Nam Sài Gòn,"Lotte Mart Nam Sài Gòn, 469 Nguyễn Hữu Thọ, P. Tân Hưng",9,152931,2,6.2,4,0,2,1,319,0,10.7410231,106.701785
/ho-chi-minh/pha-lau-co-hanh/binh-luan,Phá Lấu Cô Hạnh,"Đối Diện 50 Đường D1, P. Tân Hưng",9,953787,2,7.75,3,0,4,1,240,1,10.741609,106.695878
/ho-chi-minh/vib-kitchen-indian-resturent/binh-luan,VIB Kitchen - Indian Resturent,"26 Hưng Phước 2, P. Tân Phong",9,1046095,2,6.1,3,0,2,0,76,0,10.731523,106.707416
/ho-chi-minh/banh-mi-ha-noi-duc-chinh-duong-so-15/binh-luan,Bánh Mì Hà Nội Đức Chinh - Đường Số 15,"251 Đường Số 15, P. Tân Kiểng",9,1147309,2,0.0,0,0,0,0,1,0,10.745082,106.704541
/ho-chi-minh/com-tam-dung-k-520-nguyen-thi-thap/binh-luan,Cơm Tấm Dũng K 520 - Nguyễn Thị Thập,"520 Nguyễn Thị Thập, P. Tân Hưng",9,1148800,2,0.0,0,0,0,0,5,0,10.7402652,106.7034379
/ho-chi-minh/bff-tra-sua-mi-cay-nguyen-thi-thap/binh-luan,BFF - Trà Sữa & Mì Cay - Nguyễn Thị Thập,"142/36B Nguyễn Thị Thập, P. Bình Thuận",9,1145001,2,0.0,0,0,0,0,5,0,10.7394527,106.7194309
/ho-chi-minh/3-rau-ga-ran-pizza-tra-sua-309-le-van-luong/binh-luan,"3 Râu - Gà Rán, Pizza & Trà Sữa - 309 Lê Văn Lương","309 Lê Văn Lương, P. Tân Quy",9,1040664,2,5.398,4,0,3,0,103,0,10.7427478,106.7040703
/ho-chi-minh/tam-oc-le-van-luong/binh-luan,Tám Ốc - lê Văn Lương,"95/52/20 Lê Văn Lương, P. Tân Kiểng",9,943066,2,0.0,0,2,0,0,76,0,10.749486,106.706427
/ho-chi-minh/xoi-tan-my/binh-luan,Xôi Tân Mỹ,"172 Nguyễn Thị Thập, P. Bình Thuận",9,1017287,2,6.1,0,0,2,1,361,0,10.738383,106.717606
/ho-chi-minh/a-tuan-chao-ech-singapore-nguyen-huu-tho/binh-luan,A Tuấn - Cháo Ếch Singapore - Nguyễn Hữu Thọ,77 Nguyễn Hữu Thọ,9,750814,2,9.0,8,3,1,3,384,1,10.744741,106.70185
/ho-chi-minh/hamburger-bo-mieng-hapi-phu-my-hung/binh-luan,Hamburger Bò Miếng Hapi - Phú Mỹ Hưng,"172A Lâm Văn Bền, P. Tân Quy",9,976979,2,1.0,1,7,1,1,319,0,10.73929,106.71581
/ho-chi-minh/burger-nation-le-van-luong/binh-luan,Burger Nation - Lê Văn Lương,"653 Lê Văn Lương, Khu Phố 1, P. Tân Phong",9,1135142,2,0.0,0,0,0,0,28,0,10.729365,106.6999598
/ho-chi-minh/banh-cuon-nong-nghia-loan-huynh-tan-phat/binh-luan,Bánh Cuốn Nóng Nghĩa Loan - Huỳnh Tấn Phát,"647 Huỳnh Tấn Phát, P. Tân Thuận Đông",9,1000023997,2,0.0,0,0,0,0,38,0,10.7390891,106.7302039
/ho-chi-minh/cay-thi-k188-bun-bo-duong-so-14.ums9ad/binh-luan,Cây Thị K188 - Bún Bò - Đường Số 14,"39A Đường Số 14, P. Tân Quy",9,1000051956,2,0.0,0,0,0,0,1,0,10.744781,106.7116106
/ho-chi-minh/chao-ech-singapore-thanh-nam-nguyen-thi-thap/binh-luan,Cháo Ếch Singapore Thanh Nam - Nguyễn Thi Thập,"22 Nguyễn Thị Thập, P. Bình Thuận",9,743978,2,0.0,5,0,0,0,165,0,10.737674,106.7291036
/ho-chi-minh/avatar-tea-coffee-duong-14/binh-luan,Avatar - Tea & Coffee - Đường 14,"48 Đường 14, Khu Dân Cư Himlam, P. Tân Hưng",9,1119900,2,0.0,0,0,0,0,19,0,10.7403333057871,106.6984250665721
/ho-chi-minh/yummy-com-ga-hai-nam-duong-so-9/binh-luan,Yummy - Cơm Gà Hải Nam - Đường Số 9,"32 Đường Số 9, Khu Phố 1, P. Tân Phú",9,1118750,2,0.0,0,1,0,0,109,0,10.7360496,106.7197806
/ho-chi-minh/be-ca-phe-nguyen-thi-thap/binh-luan,Bê Cà Phê - Nguyễn Thị Thập,"113 Nguyễn Thị Thập, P. Tân Phú",9,1118328,2,0.0,0,0,0,0,31,0,10.7378192,106.7210186
/ho-chi-minh/vuong-ky-hu-tieu-mi-nguoi-hoa-duong-so-40.qib8wg/binh-luan,Vương Ký - Hủ Tiếu Mì Người Hoa - Đường Số 40,"16 Lô K1 Đường Số 40, P. Tân Phong",9,1000038725,2,0.0,0,2,0,0,4,0,10.736917,106.7080881
/ho-chi-minh/quan-com-tam-sai-gon-com-suon-bi-cha-duong-so-15/binh-luan,Quán Cơm Tấm Sài Gòn - Cơm Sườn Bì Chả - Đường Số 15,"06 Đường Số 15, P. Tân Kiểng",9,1118271,2,0.0,0,2,0,0,27,0,10.745466,106.7098992
/ho-chi-minh/tra-sua-minh-long-huynh-tan-phat/binh-luan,Trà Sữa Minh Long - Huỳnh Tấn Phát,"502/21 Huỳnh Tấn Phát, P. Bình Thuận",9,1118136,2,0.0,0,0,0,0,23,0,10.7417627988618,106.7281590584676
/ho-chi-minh/quan-chay-anh-bum-le-van-luong/binh-luan,Quán Chay Anh Bùm - Lê Văn Lương,"576 Lê Văn Lương, P. Tân Phong",9,1117544,2,0.0,0,0,0,0,26,0,10.7317145688001,106.7007628592261
/ho-chi-minh/che-tra-sua-co-muoi-tran-xuan-soan/binh-luan,Chè & Trà Sữa Cô Mười - Trần Xuân Soạn,"853 Trần Xuân Soạn, P. Tân Hưng",9,1116540,2,0.0,0,0,0,0,17,0,10.7518883,106.6970248
/ho-chi-minh/ong-map-be-thui-lau-de-tran-xuan-soan/binh-luan,Ông Mập - Bê Thui & Lẩu Dê - Trần Xuân Soạn,"309 Trần Xuân Soạn, P. Tân Kiểng",9,1115781,2,0.0,0,0,0,0,51,0,10.7519472,106.7130559
/ho-chi-minh/natural-coffee-ly-long-tuong/binh-luan,Natural Coffee - Lý Long Tường,"202 Lý Long Tường, P. Tân Phong",9,1115952,2,0.0,0,0,0,0,5,0,10.723724,106.71547
/ho-chi-minh/tacoleo-am-thuc-mexico-sky-garden/binh-luan,TacoLeo - Ẩm Thực Mexico - Sky Garden,"S51-2, Sky Garden 3, Phạm Văn Nghị, P. Tân Phong",9,1114753,2,5.4,2,0,1,0,104,0,10.7335427,106.705562
/ho-chi-minh/ca-phe-ong-bau-lam-van-ben/binh-luan,Cà Phê Ông Bầu - Lâm Văn Bền,"170A Lâm Văn Bền, P. Tân Quy",9,1074541,2,9.9,1,0,2,0,97,0,10.7444292,106.7158486
/ho-chi-minh/phu-hung-yen-sao-tan-my.iljh9q/binh-luan,Phú Hưng - Yến Sào - Tân Mỹ,"23 Tân Mỹ, P. Tân Phú",9,1000053333,2,10.0,6,0,1,0,17,0,10.7373998,106.7184023
/ho-chi-minh/roro-tra-sua-nhat-ban-6-ly-phuc-man/binh-luan,Roro - Trà Sữa Nhật Bản - 6 Lý Phục Man,"6 Lý Phục Man, P. Bình Thuận",9,1015626,2,10.0,1,0,1,0,176,0,10.743636,106.728743
/ho-chi-minh/chan-ga-mr-kay-chan-ga-rut-xuong-sa-tac-sot-thai-ga-u-muoi-tran-xuan-soan/binh-luan,Chân Gà Mr.Kay - Chân Gà Rút Xương Sả Tắc Sốt Thái & Gà Ủ Muối - Trần Xuân Soạn,"793/49/2 Trần Xuân Soạn, P. Tân Hưng",9,1143511,2,9.96,7,0,5,0,23,2,10.7485065,106.7001384
/ho-chi-minh/sinh-to-nuoc-ep-627/binh-luan,Sinh Tố & Nước Ép 627,"607 Lê Văn Lương, P. Tân Phong",9,1002215,2,10.0,4,2,1,0,173,1,10.731176,106.700736
/ho-chi-minh/tra-sua-banh-trang-186/binh-luan,Trà Sữa & Bánh Tráng 186,"115 Tân Mỹ, P. Tân Thuận Tây",9,1054999,2,9.8,2,0,2,1,118,0,10.749189,106.719661
/ho-chi-minh/salmon-sushi-duong-so-17/binh-luan,Salmon Sushi - Đường Số 17,"95/7b Đường Số 17, P. Tân Thuận Tây",9,1000027712,2,9.8,6,0,1,1,168,0,10.7475359,106.7178229
/ho-chi-minh/vua-bun-moc-ha-noi-hoang-quoc-viet/binh-luan,Vua Bún Mọc Hà Nội - Hoàng Quốc Việt,"32K Hoàng Quốc Việt, P. Phú Mỹ",9,1044233,2,10.0,2,0,1,1,133,0,10.713906,106.73521
/ho-chi-minh/banh-crepe-sau-rieng-shop-online-duong-so-15/binh-luan,Bánh Crepe Sầu Riêng & Chân Gà Sả Tắc - Shop Online,"190A Lê Văn Lương, P. Tân Hưng",9,650858,2,8.324,175,0,79,91,5403,15,10.74672,106.704627
/ho-chi-minh/san-fu-lou-am-thuc-trung-hoa-crescent-mall/binh-luan,San Fu Lou - Ẩm Thực Quảng Đông - Crescent Mall,"Tầng Trệt Crescent Mall, 101 Tôn Dật Tiên, P. Tân Phú",9,678402,2,7.13,434,0,67,34,6213,8,10.7295555,106.7188959
/ho-chi-minh/com-tam-ba-son/binh-luan,Cơm Tấm Ba Sơn,"284 Nguyễn Lương Bằng, Chung Cư Nam Khang, Phú Mỹ Hưng, P. Tân Phú",9,217761,2,6.988,256,0,19,25,39739,7,10.7156739,106.729804
/ho-chi-minh/nhim-to-trai-cay-to-xien-que/binh-luan,Nhím Tồ - Trái Cây Tô & Xiên Que,187 Đường Số 17,9,183362,2,6.904,133,0,8,16,39698,5,10.7449296948096,106.7105939984321
/ho-chi-minh/ngon-moi-ngay-huynh-tan-phat/binh-luan,Ngon Mỗi Ngày - Huỳnh Tấn Phát,Hẻm 1321 Huỳnh Tấn Phát,9,137536,2,7.71,69,0,9,24,39631,2,10.7177861,106.7368877
/ho-chi-minh/noble-fusion-bistro-hung-gia/binh-luan,DAKBAL SSALON - Chicken,"R4 - 77 Hưng Gia 4, Phú Mỹ Hưng",9,146378,2,7.66,323,0,10,65,39598,5,10.7323998053277,106.7069998383522
/ho-chi-minh/oc-dung/binh-luan,Ốc Dung,"1A Đường Số 14A Cư Xá Ngân Hàng, P. Tân Thuận Tây",9,175850,2,7.628,91,0,7,20,39595,2,10.752004,106.718152
/ho-chi-minh/xien-nuong-oishi/binh-luan,Xiên Nướng Oishi,"14 Đường 85, P. Tân Quy",9,115092,2,7.878,24,0,8,11,39308,6,10.739231,106.712485
/ho-chi-minh/phat-dat-thom-kho-deo-tac-cau-shop-online/binh-luan,Phát Đạt - Thơm Khô Dẻo Tắc Cậu - Shop Online,Nguyễn Văn Linh,9,135559,2,7.298,27,0,6,11,37767,0,10.733679,106.720974
/ho-chi-minh/mam-me-quan/binh-luan,Mắm Me Quán,"1517 Huỳnh Tấn Phát, P. Phú Mỹ",9,121581,2,7.502,124,0,6,15,37728,0,10.7062581,106.7373900999999
/ho-chi-minh/red-tomato/binh-luan,Red Tomato - Sky Garden,"SB11-2 Sky Garden, Phú Mỹ Hưng",9,27486,2,6.4,25,0,4,7,37508,5,10.729259,106.705962
/ho-chi-minh/quan-pho-hau/binh-luan,Quán Phở Hậu,"2B Đường Số 12, P. Tân Quy",9,229398,2,7.63,57,0,13,25,36921,7,10.744796,106.711105
/ho-chi-minh/quan-bien-xanh-huynh-tan-phat/binh-luan,Ẩm Thực Biển Xanh,"582/1 Huỳnh Tấn Phát, P. Tân Phú",9,199568,2,8.0,20,0,2,6,36830,2,10.7049167,106.7377616
/ho-chi-minh/bun-ca-nha-trang-duong-so-17/binh-luan,Bún Cá Nha Trang - Đường Số 17,"74/4 Đường Số 17, P. Tân Thuận Tây",9,172497,2,8.3,48,0,4,16,36715,1,10.7476415,106.718315
/ho-chi-minh/bun-dau-met-thuy-linh-nguyen-thi-thap/binh-luan,Bún Đậu Mẹt Thuỳ Linh - Nguyễn Thị Thập,"470A Nguyễn Thị Thập, P. Tân Quy",9,1149817,2,0.0,0,0,0,0,1,0,10.7397683,106.7066174
/ho-chi-minh/bun-thai-me-nau-lau-thai-bun-thai-huynh-tan-phat.mt9wnq/binh-luan,Bún Thái Mẹ Nấu - Lẩu Thái & Bún Thái  - Huỳnh Tấn Phát,"1543 Huỳnh Tấn Phát, P. Phú Mỹ",9,1000057779,2,0.0,0,0,0,0,3,0,10.7103219,106.7372164
/ho-chi-minh/sinh-to-quynh-nhu-nuoc-ep-dua-lanh-tan-thuan-tay/binh-luan,Sinh Tố Quỳnh Như - Nước Ép & Dừa Lạnh - Tân Thuận Tây,"6 Tân Thuận Tây, P. Tân Thuận Tây",9,1149683,2,0.0,0,0,0,0,1,0,10.749707,106.728214
/ho-chi-minh/quan-a-chay-huynh-tan-phat/binh-luan,Quán A Chảy - Huỳnh Tấn Phát,"376/2 Huỳnh Tấn Phát, P. Bình Thuận",9,1149678,2,0.0,0,0,0,0,1,0,10.7452575,106.7288637
/ho-chi-minh/pho-trang-duong-17/binh-luan,Phở Trang - Đường 17,"203 Đường 17, P. Tân Quy",9,1149592,2,0.0,0,0,0,0,11,0,10.7448684,106.710034
/ho-chi-minh/banh-mi-phuong-hoang-16-tan-my/binh-luan,Bánh Mì Phượng Hoàng - 16 Tân Mỹ,"16 Tân Mỹ, P. Tân Phú",9,1149526,2,0.0,0,0,0,0,4,0,10.7376467,106.7181846
/ho-chi-minh/com-ga-xoi-mo-hong-phat-tran-xuan-soan/binh-luan,Cơm Gà Xối Mỡ Hồng Phát - Trần Xuân Soạn,"793/35 Trần Xuân Soạn, P. Tân Hưng",9,1149498,2,0.0,0,0,0,0,1,0,10.7514875,106.6987712
/ho-chi-minh/bun-bo-hue-ngoc-tran-xuan-soan/binh-luan,Bún Bò Huế Ngọc - Trần Xuân Soạn,"199 Trần Xuân Soạn, P. Tân Thuận Tây",9,1149494,2,0.0,0,0,0,0,3,0,10.7522062,106.7181563
/ho-chi-minh/nha-hang-hoang-ty-premium-duong-so-41/binh-luan,Nhà Hàng Hoàng Ty Premium - Đường số 41,"33 - 35 - 37 Đường Số 41, P. Tân Phong",9,1149392,2,10.0,1,1,1,0,17,0,10.7376336,106.711319
/ho-chi-minh/tigon-bo-kho-ngon-nhu-me-nau-shop-online/binh-luan,Tigon - Bò Kho Ngon Như Mẹ Nấu - Shop Online,"588/33B Huỳnh Tấn Phát, P. Tân Phú",9,938522,2,10.0,7,0,1,0,358,1,10.735405,106.730002
/ho-chi-minh/takoika-con-bach-tuoc-shop-online/binh-luan,Takoika - Con Bạch Tuộc - Shop Online,"C14 Hoàng Quốc Việt, P. Phú Thuận",9,683327,2,10.0,31,2,1,1,429,0,10.7153026,106.7398187
/ho-chi-minh/chao-muc-lam-van-ben/binh-luan,Cháo Mực - Lâm Văn Bền,"172A Lâm Văn Bền, P. Tân Quy",9,689519,2,10.0,8,0,1,4,451,0,10.7411419,106.7158605
/ho-chi-minh/am-thuc-chay-sala-duong-79/binh-luan,Ẩm Thực Chay Sala - Đường 79,"140A Đường 79, P. Tân Quy",9,1146254,2,10.0,22,0,1,1,9,0,10.740574,106.706364
/ho-chi-minh/huynh-de-quan-quan-an-gia-dinh/binh-luan,Huynh Đệ Quán - Quán Ăn Gia Đình,"42 Đường Số 22, P. Tân Phú",9,978070,2,10.0,0,0,2,0,95,1,10.7172422,106.729755
/ho-chi-minh/com-tam-long-lam-van-ben/binh-luan,Cơm Tấm Long - Lâm Văn Bền,"3G Lâm Văn Bền, P. Tân Thuận Tây",9,868587,2,10.0,0,0,1,2,555,1,10.751254,106.715857
/ho-chi-minh/quan-phu-loc-bun-bo-hue-bo-kho-giai-khat/binh-luan,"Quán Phú Lộc - Bún Bò Huế, Bò Kho & Giải Khát","7 Đường Số 9, P. Tân Hưng",9,845700,2,10.0,5,0,1,4,231,0,10.7430512,106.6953003
/ho-chi-minh/laggung-mon-an-han-quoc/binh-luan,Laggung - Món Ăn Hàn Quốc,"60/2 Sky Garden 3, Cổng Oto Số 2, Nguyễn Đổng Chi, P. Tân Phong",9,747164,2,10.0,8,8,1,2,400,0,10.7345864,106.7057084
/ho-chi-minh/chao-vit-thanh-khiet-goi-vit-chan-ga-nuong/binh-luan,Cháo Vịt Thanh Khiết - Gỏi Vịt & Chân Gà Nướng,"33/3 Đường Số 10, P. Tân Kiểng",9,1141335,2,10.0,12,0,1,1,21,0,10.7468,106.710063
/ho-chi-minh/urban-fresh-takeaway-lam-van-ben.2awzrt/binh-luan,Urban Fresh Saigon,"222/3 Lâm Văn Bền, Phường Tân Quy",9,1000001114,2,10.0,9,1,1,1,208,0,10.7399452,106.7156407
/ho-chi-minh/quan-an-tam-ky-duong-so-85/binh-luan,Quán Ăn Tâm Ký - Đường Số 85,"50 Đường 85, P. Tân Quy",9,6591,2,5.574,489,0,78,48,15175,18,10.739607,106.710578
/ho-chi-minh/mimo-bistro-bep-nha-nau-him-lam/binh-luan,MiMo Bistro - Bếp Nhà Nấu - Belleza,"E23 Chung Cư Belleza, Phạm Hữu Lầu, P. Phú Mỹ",9,772497,2,9.028,76,0,73,12,875,0,10.706672,106.7275284
/ho-chi-minh/hau-quan-quan-an-dai-loan/binh-luan,Hàu Quán - Quán Ăn Đài Loan,"16 Đường Số 16, P. Tân Phú",9,289939,2,7.572,173,0,7,93,3020,3,10.7365929031559,106.7159368782704
/ho-chi-minh/cupncake-delivery/binh-luan,Cupncake - Delivery,Delivery,9,87467,2,7.43,175,0,13,90,16464,14,10.7380083,106.7268844
/ho-chi-minh/quan-hue-bach-tuoc-nuong/binh-luan,Quán Huệ - Bạch Tuộc Nướng,109 Đường Số 17,9,22137,2,6.882,177,0,22,89,25781,20,10.743923,106.714314
/ho-chi-minh/banh-trang-long-an-le-van-luong/binh-luan,Bánh Tráng Long An - Lê Văn Lương,Lê Văn Lương ,9,97514,2,8.218,70,0,11,88,10780,19,10.7407185906864,106.7016431691894
/ho-chi-minh/o-hara-coffee/binh-luan,O'Hara Coffee,"21 Nguyễn Thị Thập, P. Tân Phú",9,698917,2,8.292,649,0,41,87,7119,12,10.7378238,106.7292937
/ho-chi-minh/awesome-coffee-my-toan-3/binh-luan,Awesome Coffee - Mỹ Toàn 3,"994 Nguyễn Văn Linh, D2 - 21 Khu phố Mỹ Toàn 3",9,40372,2,7.806,334,0,36,84,21721,11,10.729128,106.70712
/ho-chi-minh/tun-coffee/binh-luan,Tủn Coffee,"1041/62/17B Trần Xuân Soạn, P. Tân Hưng",9,886736,2,0.0,1,0,0,0,39,0,10.748491,106.693615
/ho-chi-minh/bo-ne-xiu-mai-sai-gon/binh-luan,Bò Né Xíu Mại Sài Gòn,"1041/62/160 Trần Xuân Soạn, P. Tân Hưng",9,1060145,2,0.0,0,5,0,1,111,0,10.742276,106.693275
/ho-chi-minh/quyen-che-thap-cam-sam-bo-luong/binh-luan,Quyên - Chè Thập Cẩm & Sâm Bổ Lượng,"1041/62/197C Trần Xuân Soạn, P. Tân Hưng",9,1033420,2,9.3,6,0,2,2,165,3,10.741911,106.693278
/ho-chi-minh/sinh-to-ngoc-thuy/binh-luan,Sinh Tố Ngọc Thúy,"1041/62/40 Trần Xuân Soạn, P. Tân Hưng ",9,974851,2,0.0,1,0,0,0,20,0,10.747998,106.693641
/ho-chi-minh/tai-ki-hu-tieu-xao/binh-luan,Tài Kí - Hủ Tiếu Xào,"1041/62/23 Trần Xuân Soạn, P. Tân Hưng",9,892118,2,0.0,0,3,0,0,152,0,10.748328,106.693669
/ho-chi-minh/rop-rop-com-chay-kho-ga-tran-xuan-soan/binh-luan,Rôp Rôp - Cơm Cháy Khô Gà - Trần Xuân Soạn,"494/15B Trần Xuân Soạn, P. Tân Hưng",9,1087556,2,0.0,0,0,0,0,19,0,10.7494952,106.6937367
/ho-chi-minh/coffee-bean-saigon-tran-xuan-soan/binh-luan,Coffee Bean Saigon - Trần Xuân Soạn,"1041/62/197A Trần Xuân Soạn, P. Tân Hưng",9,788023,2,0.0,6,0,0,0,35,0,10.742861,106.693377
/ho-chi-minh/cafe-kim-anh/binh-luan,Cafe Kim Anh,"1041/62/120A Trần Xuân Soạn, P. Tân Hưng ",9,974842,2,0.0,1,0,0,0,12,0,10.74324,106.693404
/ho-chi-minh/chi-mai-banh-mi-xoi-man/binh-luan,Chị Mai - Bánh Mì & Xôi Mặn,"1041/62/120A Trần Xuân Soạn, P. Tân Hưng",9,974841,2,0.0,1,0,0,0,34,0,10.74324,106.693404
/ho-chi-minh/quan-chay-hong-phuc-tran-xuan-soan/binh-luan,Quán Chay Hồng Phúc - Trần Xuân Soạn,"1041/62/33 Trần Xuân Soạn, P. Tân Hưng",9,1045219,2,9.2,4,0,2,0,100,3,10.748119,106.693704
/ho-chi-minh/hai-phuong-bun-bo-bo-kho/binh-luan,Hai Phương - Bún Bò & Bò Kho,"1041/62/130A Trần Xuân Soạn, P. Tân Hưng",9,1053462,2,0.0,3,1,0,0,39,1,10.743543,106.693454
/ho-chi-minh/chi-lan-bap-xao-hot-vit-lon-tran-xuan-soan/binh-luan,Chị Lan - Bắp Xào & Hột Vịt Lộn - Trần Xuân Soạn,"1041/62/150 Trần Xuân Soạn, P. Tân Hưng",9,1052979,2,0.0,0,2,0,1,44,0,10.742725,106.69341
/ho-chi-minh/banh-canh-cua-611/binh-luan,Bánh Canh Cua 611,"611 Nguyễn Thị Thập, P. Tân Hưng",9,1018657,2,0.0,0,8,0,1,304,0,10.740031,106.702278
/ho-chi-minh/com-nieu-thien-ly-kdc-him-lam/binh-luan,Cơm Niêu Thiên Lý - KDC Him Lam,"74 Nguyễn Thị Thập, KDC Him Lam",9,1052699,2,8.606,23,0,38,7,803,4,10.741194,106.6973
/ho-chi-minh/tra-sua-nha-lam-71/binh-luan,Trà Sữa Nhà Làm 71,"100 Đường Số 9, P. Tân Phú",9,1000012056,2,0.0,0,1,0,0,117,0,10.7361043,106.7175838
/ho-chi-minh/banh-mi-ong-toan/binh-luan,Bánh Mì Ông Toàn,"208 Hà Huy Tập, Khu Nam Thiên 3, P. Tân Phong",9,953307,2,6.4,8,0,5,0,508,2,10.7264186,106.7055308
/ho-chi-minh/chi-tram-goi-cuon-hot-vit-lon/binh-luan,Chị Trâm - Gỏi Cuốn & Hột Vịt Lộn,"728 Huỳnh Tấn Phát, P. Tân Phú (Bên Hông Hẻm 730 Huỳnh Tấn Phát)",9,1025203,2,5.9,9,3,4,3,251,0,10.732064,106.731412
/ho-chi-minh/banh-trang-an-vat-quan-7-shop-online/binh-luan,Bánh Tráng & Ăn Vặt Quận 7 - Shop Online,"701/20/14B Trần Xuân Soạn, P. Tân Hưng",9,1025836,2,8.0,0,0,1,0,181,0,10.751127,106.701945
/ho-chi-minh/tiem-an-vat-mua-he/binh-luan,Tiệm Ăn Vặt Mùa Hè,"15 Lô D Nguyễn Văn Quỳ (Cuối Hẻm 719 Huỳnh Tấn Phát), Khu Phố 1, P. Phú Thuận",9,1000026020,2,0.0,0,49,0,12,863,0,10.736729,106.731728
/ho-chi-minh/banh-mi-phuong-hoang-tan-my/binh-luan,Bánh Mì Phượng Hoàng - Tân Mỹ,"27 Tân Mỹ, P. Tân Phú",9,749370,2,8.0,5,0,1,0,452,0,10.737299,106.71832
/ho-chi-minh/coco-summer-trai-cay-nhanh-nguyen-thi-thap/binh-luan,Coco Summer - Trái Cây Nhanh - Nguyễn Thị Thập,"142/28 Nguyễn Thị Thập, P. Bình Thuận",9,754685,2,7.0,87,0,16,30,3622,1,10.739348,106.719432
/ho-chi-minh/ngoc-loan-che-tron-banh-trang-tron-che-tran-xuan-soan/binh-luan,Ngọc Loan - Ché Trộn & Bánh Tráng Trộn Ché - Trần Xuân Soạn,"793/35 Trần Xuân Soạn, P. Tân Hưng",9,1033246,2,8.9,3,4,2,4,584,0,10.749283,106.699424
/ho-chi-minh/lotteria-lottemart-nguyen-huu-tho/binh-luan,Lotteria - Lottemart Nguyễn Hữu Thọ,"Tầng Trệt, Lotte Mart Nam Sài Gòn, 469 Nguyễn Hữu Thọ, P. Tân Hưng",9,20608,2,6.294,330,0,67,22,7854,29,10.740539,106.701075
/ho-chi-minh/dq-grill-chill-nguyen-thi-thap/binh-luan,DQ Grill & Chill - Nguyễn Thị Thập,"328 Nguyễn Thị Thập, P. Tân Quý",9,734410,2,7.516,289,0,37,19,1221,8,10.7385393,106.7142807
/ho-chi-minh/chang-kang-kung-hai-san-khoi-crescent-mall/binh-luan,Chang Kang Kung - Hấp Thủy Nhiệt Hong Kong - Crescent Mall,"Tầng 5 - Khu Foodcourt, Crescent Mall, 101 Tôn Dật Tiên, P. Tân Phú",9,671745,2,7.506,273,0,34,38,24540,5,10.728741,106.718784
/ho-chi-minh/aka-house-buffet-nuong-lau-nhat-ban-nguyen-thi-thap/binh-luan,AKA House - Buffet Nướng & Lẩu Nhật Bản - Nguyễn Thị Thập,"384 Nguyễn Thị Thập, P. Tân Quy",9,736448,2,6.604,217,0,45,13,6611,9,10.738898,106.71078
/ho-chi-minh/nha-hang-la-cucina-am-thuc-y/binh-luan,Nhà Hàng La Cucina - Ẩm Thực Ý,"CR1-07, 103 Tôn Dật Tiên, P.Tân Phong",9,30581,2,7.454,122,0,15,28,11927,7,10.727593,106.719242
/ho-chi-minh/chooki-bbq-hotpot-buffet-crescent-mall/binh-luan,Chooki BBQ & Hotpot Buffet - Crescent Mall,"Tầng Trệt CP-02 Crescent Mall, 105 Tôn Dật Tiên, P. Tân Phú",9,39289,2,6.388,518,0,30,36,16426,8,10.725613,106.720676
/ho-chi-minh/lotteria-crescent-mall/binh-luan,Lotteria - Crescent Mall,"Tầng 5 Crescent Mall, 101 Tôn Dật Tiên, P. Tân Phú",9,31841,2,6.866,166,0,41,11,3753,12,10.728557,106.718345
/ho-chi-minh/cu-lao-xanh-lang-am-thuc/binh-luan,Cù Lao Xanh - Làng Ẩm Thực," 88 Nguyễn Đức Cảnh, P. Tân Phong",9,307642,2,7.17,457,0,28,23,19800,9,10.7215336,106.7116159
/ho-chi-minh/pizza-origino-french-homemade/binh-luan,Pizza Origino - French Homemade,"72A Đường Số 4, P. Tân Kiểng",9,294660,2,7.146,97,0,49,39,2901,2,10.7458379,106.7059765
/ho-chi-minh/melonpan-ice-momo-cafe/binh-luan,Tokyo Sweets,"Tầng 5, Cresent Mall, 101 Tôn Dật Tiên, Tân Phú",9,695657,2,7.894,466,0,34,49,2025,1,10.728742,106.718674
/ho-chi-minh/gangnam-bbq-nuong-han-quoc/binh-luan,Gangnam BBQ - Nướng Hàn Quốc,"R2-48 Phan Khiêm Ích, Hưng Gia 2",9,199103,2,7.912,321,0,22,63,13155,7,10.732878,106.708488
/ho-chi-minh/mamadeli-com-ga-mi-y-tran-xuan-soan/binh-luan,Mamadeli - Cơm Gà & Mì Ý - Trần Xuân Soạn,"1041/62/34 Trần Xuân Soạn, P. Tân Hưng",9,1000000452,2,8.502,44,17,8,10,682,0,10.748249,106.693752
/ho-chi-minh/ba-hao-tra-1-lit/binh-luan,Bà Hảo - Trà 1 Lít - Trần Xuân Soạn,1041/62/177A Trần Xuân Soạn. P. Tân Hưng,9,938205,2,6.888,46,0,9,1,334,1,10.7481588,106.6949022
/ho-chi-minh/a-ba-mi-tron-ca-vien-an-vat-tran-xuan-soan/binh-luan,A Bà - Mì Trộn Cá Viên & Ăn Vặt - Trần Xuân Soạn,"1041/62/199/4 Trần Xuân Soạn, P. Tân Hưng",9,1148831,2,0.0,0,0,0,0,1,0,10.7425504,106.6934435
/ho-chi-minh/ga-nuong-mat-ong/binh-luan,Gà Nướng Mật Ong,"79 Đường Số 15, P. Tân Hưng",9,1001243,2,0.0,0,1,0,0,161,0,10.7450904,106.703175
/ho-chi-minh/harusame-obento-japanese-food/binh-luan,HARUSAME Obento - Japanese Food,"62 Đường Số 3, P. Tân Kiểng",9,1129958,2,0.0,0,0,0,0,39,0,10.748006,106.707725
/ho-chi-minh/colour-milk-tea-mai-van-vinh/binh-luan,Colour Milk Tea - Mai Văn Vĩnh,"60 Mai Văn Vĩnh, P. Tân Quy",9,1051519,2,0.0,0,0,0,0,26,0,10.738783,106.713657
/ho-chi-minh/bun-bo-hue-thanh-huong-mai-van-vinh/binh-luan,Bún Bò Huế Thanh Hương - Mai Văn Vĩnh,"60 Mai Văn Vĩnh, P. Tân Quy",9,989672,2,2.2,2,0,2,1,526,0,10.738801,106.713675
/ho-chi-minh/co-hai-hu-tieu-nam-vang/binh-luan,Cô Hai - Hủ Tiếu Nam Vang,"142/11 Nguyễn Thị Thập, P. Bình Thuận",9,795221,2,0.0,0,2,0,0,71,0,10.739114,106.719409
/ho-chi-minh/quan-hu-tieu-binh-dan/binh-luan,Quán Hủ Tiếu Bình Dân,"233 Lâm Văn Bền, P. Tân Quy",9,740377,2,0.0,5,2,0,0,90,0,10.7402956,106.7159042
/ho-chi-minh/kitty-tra-sua-giam-beo-sinh-to-nuoc-ep/binh-luan,"Kitty - Trà Sữa Giảm Béo, Sinh Tố & Nước Ép","14 Đường Số 38, P. Tân Quy",9,1079157,2,0.0,0,0,0,0,24,0,10.7400574,106.709811
/ho-chi-minh/tai-heo-chan-ga-sot-thai-kim-phat/binh-luan,Tai Heo & Chân Gà Sốt Thái Kim Phát,"76 Đường Số 77, P. Tân Quy",9,1000026915,2,0.0,0,0,0,0,40,0,10.7412244,106.7061118
/ho-chi-minh/pizzago-pizza-my-y-salad-309-le-van-luong/binh-luan,PizzaGo - Pizza - Mỳ Ý & Salad - 309 Lê Văn Lương,"309 Lê Văn Lương, P. Tân Quy",9,1137511,2,0.0,0,0,0,0,19,0,10.7427262,106.7040818
/ho-chi-minh/sushi-go-64-duong-so-17/binh-luan,Sushi Go - 64 Đường Số 17,"64 Đường Số 17, P. Tân Kiểng",9,1136656,2,0.0,0,0,0,0,17,0,10.744999,106.712543
