ReviewUrl,name,Address,districtid,RestaurantId,RestaurantStatus,avgrating,TotalPictures,TotalSaves,TotalReviews,TotalFavourites,TotalViews,TotalCheckIns,Latitude,Longitude
/ho-chi-minh/beefsteak-titi/binh-luan,Beefsteak Titi - Vũ Huy Tấn,"67/4/118 Vũ Huy Tấn (Đối Diện 50), P. 3",15,211,2,6.53,2734,0,918,922,212748,339,10.795724,106.694671
/ho-chi-minh/hanuri-quan-an-han-quoc-xo-viet-nghe-tinh/binh-luan,Hanuri - Quán Ăn Hàn Quốc - Xô Viết Nghệ Tĩnh,"121 Xô Viết Nghệ Tĩnh, P. 17",15,100424,2,7.27,3648,0,669,743,125441,200,10.7939338,106.7089096
/ho-chi-minh/busan-korean-food-mon-an-han/binh-luan,Busan Korean Food - Món Hàn Quốc - Đinh Tiên Hoàng,5 Đinh Tiên Hoàng,15,208155,2,6.932,3354,0,548,922,176802,132,10.794107,106.69584
/ho-chi-minh/ba-con-soc-bbq-sushi-dinh-bo-linh/binh-luan,Ba Con Sóc - BBQ & Sushi - Đinh Bộ Lĩnh,"139/10 Đinh Bộ Lĩnh, P. 26",15,38412,2,6.944,2856,0,526,827,158473,185,10.8089105,106.7088441
/ho-chi-minh/goc-da-lat/binh-luan,Góc Đà Lạt - Ăn Vặt & Bánh Tráng Nướng,"145 Nguyễn Gia Trí, P. 25",15,44090,2,6.9,1890,0,380,1104,147596,173,10.805,106.71581
/ho-chi-minh/xoi-ga-ba-chieu/binh-luan,Xôi Gà Bà Chiểu,"Chợ Bà Chiểu, 318 Bùi Hữu Nghĩa, P. 1 (Quán Bên Trong, Không Phải Xe Đẩy)",15,6309,2,6.242,955,0,546,1496,195105,252,10.8009857635453,106.6991059067459
/ho-chi-minh/phong-cua-cay-su-quan/binh-luan,Phong Cua 1 - Cây Sứ Quán,"1019A Bình Quới, P. 28",15,2258,2,6.15,2468,0,482,388,162118,128,10.820786,106.727455
/ho-chi-minh/kimbap-fc/binh-luan,Kimbap FC - Món Ăn Hàn Quốc,"71/5 Điện Biên Phủ, P.15 ",15,89905,2,6.252,1667,0,337,933,171169,153,10.7963693,106.7014715
/ho-chi-minh/an-vat-son-ca-ca-vien-chien-dien-bien-phu/binh-luan,Ăn Vặt Sơn Ca - Cá Viên Chiên - Điện Biên Phủ,"361 Điện Biên Phủ, P. 15",15,67490,2,7.152,1300,0,350,742,83500,96,10.8018495,106.7105591
/ho-chi-minh/hai-chuy-em-gan-bo-dam-coc-shop-online/binh-luan,"LongBuri Cancook - Gân Bò, Chân Gà Sốt Thái","9/24A2 Võ Trường Toản, P. 2",15,853349,2,9.156,1750,0,406,133,2399,57,10.8017401,106.6996862
/ho-chi-minh/san-san-mi-ga-quay-truong-sa/binh-luan,San San - Mì Gà Quay - Trường Sa,"66 Trường Sa, P. 17",15,89794,2,6.846,1512,0,380,1089,169854,153,10.7934127,106.7027326
/ho-chi-minh/com-tron-2-co/binh-luan,Cơm Trộn 2 Cô - Xô Viết Nghệ Tĩnh,"294/63 Xô Viết Nghệ Tĩnh, P. 21",15,91713,2,6.45,1362,0,282,858,134604,107,10.8000684,106.7127907
/ho-chi-minh/nini-bakery-banh-kem-phap-duong-d2/binh-luan,NiNi Bakery - Bánh Kem Pháp - Nguyễn Gia Trí,"190/6 Nguyễn Gia Trí (Đường D2), P. 25",15,3835,2,6.068,387,0,307,578,404161,151,10.806803,106.716227
/ho-chi-minh/banh-trang-nuong-c002-dinh-tien-hoang/binh-luan,Bánh Tráng Nướng C002 - Đinh Tiên Hoàng,"002 Lô C, Chung Cư 23/49 Đinh Tiên Hoàng, P. 3",15,43390,2,6.918,1287,0,284,1000,135048,155,10.7943589,106.694935
/ho-chi-minh/sakura-saku-sashimi-sushi-nguyen-huu-canh/binh-luan,Sakura Saku - Sashimi & Sushi - Nguyễn Hữu Cảnh,"92F Nguyễn Hữu Cảnh, P. 22",15,1151551,2,0.0,0,0,0,0,2,0,10.7905164,106.7182513
/ho-chi-minh/boost-juice-smoothies-nuoc-ep-trai-cay-ung-van-khiem/binh-luan,Boost Juice - Smoothies & Nước Ép Trái Cây - Ung Văn Khiêm,"392/3 Ung Văn Khiêm, P. 25",15,1151534,2,0.0,0,0,0,0,3,0,10.8027667663716,106.7224810973139
/ho-chi-minh/tra-sua-doan-doan-tra-sua-an-vat-banh-mi-chao-1017-binh-quoi/binh-luan,"Trà Sữa Đoan Đoan - Trà Sữa, Ăn Vặt & Bánh Mì Chảo - 1017 Bình Quới","1017 Bình Quới, P. 28",15,1000058500,2,0.0,0,0,0,0,3,0,10.8198607,106.7256808
/ho-chi-minh/starbucks-coffee-central-2/binh-luan,Starbucks Coffee - Central 2,"C2-SH.01, Tòa Central 2 Vinhomes Central Park, 720A Điện Biên Phủ, P. 22",15,1151507,2,0.0,0,0,0,0,6,0,10.7915493025072,106.7222938437227
/ho-chi-minh/hamburger-banh-mi-minh-anh-17-3-thanh-da/binh-luan,Hamburger & Bánh Mì Minh Anh - 17/3 Thanh Đa,"17/3 Thanh Đa, P. 27",15,1151501,2,0.0,0,0,0,0,1,0,10.8171398,106.7188518
/ho-chi-minh/an-vat-158-banh-trang-tron-cuon-mi-xao-bo-trung-shop-online/binh-luan,"Ăn Vặt 158 - Bánh Tráng Trộn, Cuốn & Mì Xào Bò Trứng - Shop Online","158/20 Nguyễn Văn Đậu, P. 7",15,1151489,2,0.0,0,0,0,0,1,0,10.8095191,106.6900466
/ho-chi-minh/banh-mien-tay-xo-viet-nghe-tinh/binh-luan,Bánh Miền Tây - Xô Viết Nghệ Tĩnh,"180/5A Xô Viết Nghệ Tĩnh, P.  21",15,1151457,2,0.0,0,0,0,0,1,0,10.7979109,106.711232
/ho-chi-minh/nguyen-mi-xao-bo-nui-xao-bo/binh-luan,Nguyên - Mì Xào Bò & Nui Xào Bò,"532 Phạm Văn Đồng, P. 13",15,1151375,2,0.0,0,0,0,0,1,0,10.8225657,106.7027848
/ho-chi-minh/vua-banh-crepe-vo-oanh/binh-luan,Vua Bánh Crepe - Võ Oanh,"51 Võ Oanh, P. 25",15,1151342,2,0.0,0,0,0,0,3,0,10.803729,106.718405
/ho-chi-minh/bun-banh-hoi-huynh-gia-van-kiep/binh-luan,Bún & Bánh Hỏi Huỳnh Gia - Vạn Kiếp,"136/3 Vạn Kiếp, P. 3",15,1151295,2,0.0,0,0,0,0,1,0,10.7996801,106.6932817
/ho-chi-minh/banh-canh-tom-thit-cha-ca-138-36-nguyen-xi/binh-luan,Bánh Canh Tôm Thịt & Chả Cá- 138/36 Nguyễn Xí,"138/36 Nguyễn Xí, P. 26",15,1000058376,2,0.0,0,0,0,0,3,0,10.8139846,106.7090786
/ho-chi-minh/a-vinh-vit-quay-moc-mat-heo-quay/binh-luan,A Vinh - Vịt Quay Móc Mật & Heo Quay,"32 Huỳnh Mẫn Đạt, P. 19",15,1151232,2,0.0,0,0,0,0,2,0,10.7912632,106.7086614
/ho-chi-minh/bot-chien-binh-thanh-bot-chien-tran-van-ky.ncdduf/binh-luan,Bột Chiên Bình Thạnh - Bột Chiên - Trần Văn Kỷ,"23/15 Trần Văn Kỷ (Cư Xá Trần Văn Kỷ), P. 14",15,1000028058,2,10.0,18,1,12,5,387,9,10.80414,106.6969138
/ho-chi-minh/bambam-the-cookaholic-healthy-food/binh-luan,Bambam The Cookaholic - Healthy Food,"274/20A Bùi Đình Tuý, P. 12",15,1071308,2,10.0,11,0,11,4,208,1,10.808192,106.700325
/ho-chi-minh/pizza-homemade-maika-shop-online/binh-luan,Pizza Homemade Maika - Shop Online,"188 Nguyễn Xí, P. 26",15,1045346,2,10.0,29,0,5,3,190,1,10.816875,106.707059
/ho-chi-minh/good-chicken-ga-ran-han-quoc-nguyen-gia-tri/binh-luan,Good Chicken - Gà Rán Hàn Quốc - Nguyễn Gia Trí,"160 Nguyễn Gia Trí, P. 25",15,927734,2,10.0,24,3,3,9,608,1,10.805643,106.7161578999999
/ho-chi-minh/3-monkeys-coffee-bar-pham-viet-chanh/binh-luan,3 Monkeys - Coffee & Bar - Phạm Viết Chánh,"94 Phạm Viết Chánh, P. 19",15,1031137,2,10.0,34,0,3,1,442,3,10.7901618,106.7119753
/ho-chi-minh/tanaco-milk-tea/binh-luan,TaNaCo Milk Tea,"47/24/3 Bùi Đình Túy, P. 24",15,671212,2,10.0,125,0,1,4,626,17,10.807268,106.707
/ho-chi-minh/quan-ut-chau-bun-cha-ca-da-nang/binh-luan,Quán Út Châu - Bún Chả Cá Đà Nẵng,"83 Điện Biên Phủ, P. 15",15,1040013,2,10.0,11,0,3,1,130,2,10.7960652093052,106.7024698815002
/ho-chi-minh/yaourt-pho-mai-duong-so-14-shop-online/binh-luan,Yaourt Phô Mai - Đường Số 14 - Shop Online,"3 Đường Số 14, P. 26",15,943602,2,10.0,22,0,5,0,95,1,10.84958,106.643282
/ho-chi-minh/merci-tra-sua-tra-trai-cay-da-xay-an-vat-nguyen-van-lac/binh-luan,"MERCI - Trà Sữa, Trà Trái Cây, Đá Xay, Ăn Vặt - Nguyễn Văn Lạc","71C Nguyễn Văn Lạc, P.19",15,1072929,2,10.0,17,0,3,1,104,1,10.7929169,106.709415
/ho-chi-minh/qin-qin-milk-tea/binh-luan,Qin Qin Milk Tea,"49/1 Nguyễn Văn Đậu, P. 6",15,737565,2,10.0,14,0,2,2,346,3,10.807463,106.687392
/ho-chi-minh/pho-mr-beo/binh-luan,Phở Mr.Béo,"83 Đường Số 1, P. 26",15,768752,2,10.0,4,0,5,8,335,0,10.8116083,106.7050532
/ho-chi-minh/cay-su-249-xien-que-binh-dan/binh-luan,Cây Sứ 249 - Xiên Que Bình Dân,"249 Bình Quới, P. 28",15,906715,2,10.0,32,0,2,1,214,1,10.822562,106.730549
/ho-chi-minh/gogi-house-quan-thit-nuong-han-quoc-pearl-plaza/binh-luan,Gogi House - Quán Thịt Nướng Hàn Quốc - Pearl Plaza,"Lầu 4 - 02 Pearl Plaza, 561A Điện Biên Phủ, P. 25",15,185105,2,8.738,1163,0,335,26,13926,38,10.799865,106.718459
/ho-chi-minh/banh-beo-thanh-nga-149-1a-no-trang-long/binh-luan,Bánh Bèo Thanh Nga - 149/1A Nơ Trang Long,"149/1A Nơ Trang Long, P. 12",15,639,2,6.114,469,0,213,680,84021,87,10.812468,106.695874
,Jeju Coffee,"448 Phạm Văn Đồng, P.13",15,1115880,2,7.5,27,0,2,1,1,0,,
/ho-chi-minh/banh-mi-co-bong/binh-luan,Bánh Mì Cô Bông,"31/20 Ung Văn Khiêm, P. 25",15,880318,2,10.0,2,0,1,0,171,2,0.0,0.0
,Ốc Chương,"196 Lê Quang Định, Phường 14",15,1129848,2,9.0,7,0,1,0,0,1,,
/ho-chi-minh/banh-mi-anh-ba/binh-luan,Bánh Mì Anh Ba,"24B Đường D5, P. 25",15,1053735,2,10.0,4,0,1,1,107,0,0.0,0.0
/ho-chi-minh/xoi-thuy-ngan/binh-luan,Xôi Thúy Ngân,"3 Nơ Trang Long, P. 7",15,945528,2,0.0,0,0,0,0,25,0,0.0,0.0
/ho-chi-minh/bep-hue-xi-pho-bun-bo-hue-chu-van-an/binh-luan,Bếp Huế Xì Phố - Bún Bò Huế - Chu Văn An,"346/20/19 Chu Văn An, P. 12",15,1035481,2,0.0,0,0,0,0,62,0,0.0,0.0
/ho-chi-minh/sinh-t-nuoc-ep-an-vat/binh-luan,"Sinh T, Nước Ép & Ăn Vặt","56 Phan Chu Trình, P. 24",15,1026196,2,0.0,0,0,0,0,8,0,,
/ho-chi-minh/sinh-t-nuoc-ep-an-vat-phan-chu-trinh/binh-luan,"Sinh T, Nước Ép & Ăn Vặt - Phan Chu Trình","56 Phan Chu Trình, P. 24",15,1026197,2,0.0,0,0,0,0,18,0,,
/ho-chi-minh/sua-tuoi-tran-chau-duong-den-van-kiep/binh-luan,Sữa Tươi Trân Châu Đường Đen - Vạn Kiếp,194 Vạn Kiếp,15,744976,2,7.32,1,0,5,2,898,0,10.823099,106.629664
/ho-chi-minh/misora-japanese-coffee-tea/binh-luan,Misora Japanese Coffee & Tea,"191 Phan Văn Trị, P. 14",15,647064,2,0.0,58,6,0,2,331,1,10.823099,106.629664
/ho-chi-minh/yen-an-yen-sao-cao-cap-shop-online/binh-luan,Yến An - Yến Sào Cao Cấp - Shop Online,"129/2 Bình Quới, P. 27",15,804881,2,0.0,6,0,0,0,57,0,10.823099,106.629664
/ho-chi-minh/goc-bep-banh-ngot-socola-shop-online/binh-luan,Góc Bếp - Bánh Ngọt & Socola - Shop Online,"278/12 Bình Lợi, P. 13",15,947845,2,0.0,0,0,0,0,39,0,10.823099,106.629664
/ho-chi-minh/com-tam-huyen-dinh-tien-hoang/binh-luan,Cơm Tấm Huyền - Đinh Tiên Hoàng,"Hẻm 95 Đinh Tiên Hoàng, P. 3",15,88504,2,5.962,110,0,68,151,27744,20,10.798343,106.695772
/ho-chi-minh/tra-sua-moc-duong-d5/binh-luan,Trà Sữa Mộc - Đường D5,"100 Đường D5, P. 25",15,1013400,2,3.456,12,1,15,2,4143,0,10.805883,106.715501
/ho-chi-minh/phe-la-dien-bien-phu/binh-luan,Phê La - Điện Biên Phủ,"193/1 Điện Biên Phủ, P. 15",15,1142772,2,6.0,33,0,1,1,223,0,10.80009,106.706154
/ho-chi-minh/chao-suon-be-hien-sup-cua-bun-bo/binh-luan,Cháo Sườn Bé Hiền - Súp Cua & Bún Bò,"201/83 Nguyễn Xí, P. 26",15,1018358,2,8.134,21,1,15,30,1310,1,10.814207,106.705693
/ho-chi-minh/phuc-long-173-nguyen-gia-tri/binh-luan,Phúc Long 173 Nguyễn Gia Trí,"173 Nguyễn Gia Trí, P. 25",15,1141001,2,0.0,0,0,0,0,17,0,10.8057971,106.7158237
/ho-chi-minh/5-6-7-cafe/binh-luan,"Quán 567 - Sinh Tố, Nước Ép, Giải Khát","2 Phạm Viết Chánh, P.19",15,29697,2,5.248,124,0,37,89,29448,12,10.790362,106.708746
/ho-chi-minh/com-ga-xoi-mo-142-le-van-duyet/binh-luan,Cơm Gà Xối Mỡ 142 -  Lê Văn Duyệt,"26/16A Lê Văn Duyệt, P. 1",15,1061349,2,5.132,9,9,3,11,1269,0,10.7946636,106.6965822
/ho-chi-minh/banh-mi-thit-bo-nuong-ho-xuan-huong/binh-luan,Bánh Mì Thịt Bò Nướng Cô Lành - Hồ Xuân Hương,"6 Hồ Xuân Hương, P. 14",15,219254,2,7.53,89,0,31,276,10787,3,10.808594,106.696054
/ho-chi-minh/ga-ran-popeyes-duong-d2/binh-luan,Gà Rán Popeyes - Nguyễn Gia Trí, 67-69 Nguyễn Gia Trí (Đường D2),15,110387,2,6.938,995,0,192,75,17831,49,10.8032255,106.715578
/ho-chi-minh/tra-sua-maycha-van-kiep/binh-luan,Trà Sữa Maycha - Vạn Kiếp,"45 - 47 Vạn Kiếp, P. 3",15,1062097,2,7.658,9,0,17,4,923,0,10.8008133,106.693523
/ho-chi-minh/banh-trang-toi-019-no-trang-long/binh-luan,Bánh Tráng Tỏi 019 - Nơ Trang Long,"290/45/1 Nơ Trang Long, P.12",15,1111711,2,0.0,0,1,0,1,222,0,10.8170494,106.6987828
/ho-chi-minh/quan-chay-kvegetarian-binh-thanh/binh-luan,Quán Chay KVegetarian - Bình Thạnh,"20/15 Phan Đăng Lưu, P. 6",15,726458,2,8.076,621,0,183,119,7970,43,10.8038779,106.690558
/ho-chi-minh/lau-ga-109-dinh-tien-hoang/binh-luan,Lẩu Gà Ớt Hiểm 109 - Đinh Tiên Hoàng,"23/2 Đinh Tiên Hoàng, P. 3",15,162333,2,6.718,633,0,267,224,77563,38,10.7944588,106.6956466
/ho-chi-minh/shinsekai-sushi-vinhomes-central-park/binh-luan,Shinsekai Sushi -  Vinhomes Central Park,"SH 06, Park 5 Vinhomes Central Park, 208 Nguyễn Hữu Cảnh, P. 22",15,746737,2,7.692,407,0,13,20,2443,4,10.792314,106.723663
/ho-chi-minh/con-ga-mai/binh-luan,Con Gà Mái - Cơm Gà Phú Yên - Hoàng Hoa Thám,111 Hoàng Hoa Thám,15,43258,2,6.46,822,0,291,220,66339,33,10.8076914,106.688989
/ho-chi-minh/bangkok-bbq-nguyen-van-thuong/binh-luan,Bangkok BBQ - Nguyễn Văn Thương,"154 Nguyễn Văn Thương (Đường D1), P. 25",15,886979,2,4.856,17,0,14,3,4247,1,10.803206,106.720283
/ho-chi-minh/bun-dau-homemade-nguyen-gia-tri/binh-luan,Bún Đậu Homemade - Nguyễn Gia Trí,"213 Nguyễn Gia Trí, P. 25",15,913922,2,6.59,277,0,32,14,4356,2,10.806776,106.716144
/ho-chi-minh/boc-food-beer-garden/binh-luan,Bốc - Food & Beer Garden,"100 Ung Văn Khiêm, P. 25",15,923423,2,7.876,55,0,21,11,6178,0,10.807234,106.717547
/ho-chi-minh/pad-thai/binh-luan,Pad Thai - Xô Viết Nghệ Tĩnh,"26A Xô Viết Nghệ Tĩnh, P. 19",15,781834,2,7.132,273,0,42,55,7514,6,10.793869,106.708548
/ho-chi-minh/quan-an-kinsinlou/binh-luan,Kin Sin Lou - HongKong Kitchen,"290 Vạn Kiếp, P. 3",15,1004597,2,8.524,45,4,16,29,1032,0,10.796289,106.693609
/ho-chi-minh/bodo-hotpot/binh-luan,Bodo - Món Hàn & Món Âu - Đinh Bộ Lĩnh,"139/23 Đinh Bộ Lĩnh, P. 26",15,715525,2,7.536,736,0,315,152,8776,43,10.808771,106.708462
/ho-chi-minh/kohaku-sashimi-yakiniku-vincom-landmark-81/binh-luan,Kohaku Sashimi & Yakiniku - Vincom Landmark 81,"B1 - 29 - 30 Vincom Landmark 81, 772 Điện Biên Phủ, P. 22",15,764876,2,7.686,95,0,28,7,6039,4,10.794875,106.721917
/ho-chi-minh/date-nariya-nguyen-huu-canh/binh-luan,Date Nariya - Nguyễn Hữu Cảnh,"B1.25 - 26 Landmark 81, 208 Nguyễn Hữu Cảnh, P. 22",15,1042487,2,9.274,78,3,19,15,485,10,10.7954256,106.7189962
/ho-chi-minh/miwaku-premium-japanese-fusion-cuisine-vincom-landmark-81/binh-luan,Miwaku Premium - Japanese Fusion Cuisine - Vincom Landmark 81,"Tầng 80, 02 - 03 Vincom Landmark 81, 772 Điện Biên Phủ, P. 22",15,940401,2,7.25,130,40,4,13,2282,1,10.794875,106.721917
/ho-chi-minh/nha-hang-sa-yen-vincom-landmark-81/binh-luan,Nhà Hàng Sa Yến – Vincom Landmark 81,"P2 - SH.05A Vincom Landmark 81, 772 Điện Biên Phủ, P. 22",15,1025049,2,8.8,216,0,4,4,394,2,10.794875,106.721917
/ho-chi-minh/ga-ran-chicken-plus-nguyen-cuu-van/binh-luan,Gà Rán Chicken Plus - Nguyễn Cửu Vân,"55 Nguyễn Cửu Vân, P. 17",15,964571,2,6.366,23,0,12,9,1831,1,10.795466,106.707902
/ho-chi-minh/the-rope-craft-beer-nha-hang-mon-tay/binh-luan,The Rope - Craft Beer - Nhà Hàng Món Tây,135/37/55 Nguyễn Hữu Cảnh,15,906339,2,9.1,75,0,2,11,1073,2,10.796596,106.717317
/ho-chi-minh/zoo-zoo-seafood-pham-van-dong/binh-luan,ZOO ZOO Seafood - Phạm Văn Đồng,"18 Phạm Văn Đồng, P. 11",15,757330,2,4.636,55,0,11,1,10132,2,10.821147,106.698076
/ho-chi-minh/lau-de-245-chu-van-an/binh-luan,Lẩu Dê & Cua 245 - Chu Văn An,"245 Chu Văn An, P. 12",15,134700,2,6.766,131,0,17,7,5136,10,10.8111393,106.7008388
/ho-chi-minh/nha-hang-kankau/binh-luan,Nhà Hàng KanKau,"127 - 137 Đinh Bộ Lĩnh, P. 26",15,985062,2,8.2,29,0,1,2,491,1,10.810893,106.709089
/ho-chi-minh/bukchon-korea-restaurant-vinhomes-central-park/binh-luan,Bukchon Korea Restaurant - Vinhomes Central Park,"L4 SH.08 Landmark 4, Vinhomes Central Park, 208 Nguyễn Hữu Cảnh, P. 22",15,773433,2,6.798,179,0,7,7,1397,1,10.7937466498929,106.7217397800235
/ho-chi-minh/sushi-nhi-nguyen-cong-tru/binh-luan,Sushi Nhí - Nguyễn Công Trứ,"21 Nguyễn Công Trứ, P. 19",15,72851,2,7.604,1580,0,193,497,103111,65,10.7906308,106.710269
/ho-chi-minh/oc-mam-sua/binh-luan,Ốc “Mắm Sữa”,"282/4A Bùi Hữu Nghĩa, P. 2",15,2383,2,5.868,930,0,254,438,116941,107,10.80089,106.700463
/ho-chi-minh/merci-res-chao-ech-singapore-vu-huy-tan/binh-luan,Merci RES - Cháo Ếch Singapore - Vũ Huy Tấn,35 Vũ Huy Tấn,15,84640,2,7.146,767,0,208,305,103586,84,10.795869,106.693035
/ho-chi-minh/le-steak-beefsteak-bo/binh-luan,Le Steak - Beefsteak Bò,"Hẻm 24 Đường D5, P. 25",15,257151,2,7.318,754,0,161,455,43350,33,10.8057469584707,106.7135504111145
/ho-chi-minh/bep-nha-chang-bun-thit-xao/binh-luan,Bếp Nhà Chang - Bún Thịt Xào,367/18D Đinh Bộ Lĩnh P. 26,15,1022836,2,9.3,67,0,226,268,1213,32,10.815694,106.7097121
/ho-chi-minh/cake-quan/binh-luan,Cà Kê Quán - Quán Ăn Gia Đình,"356/9 Bạch Đằng, P. 14",15,3590,2,6.646,867,0,145,190,87673,71,10.803123,106.701121
/ho-chi-minh/quan-18m-mon-ngon-ha-noi/binh-luan,Quán 18M - Món Ngon Hà Nội,"18M Vũ Huy Tấn, P. 3",15,69629,2,7.022,560,0,112,239,56696,67,10.7958929,106.6930016
/ho-chi-minh/pizza-hut-xo-viet-nghe-tinh/binh-luan,Pizza Hut - Xô Viết Nghệ Tĩnh,151 Xô Viết Nghệ Tĩnh,15,48133,2,7.03,682,0,109,36,18076,26,10.7957812,106.70948
/ho-chi-minh/ha-cao-xiu-mai-van-kiep/binh-luan,Há Cảo Xíu Mại - Vạn Kiếp,Xe Đẩy Góc Phan Xích Long & Vạn Kiếp,15,53647,2,6.514,266,0,142,405,63733,51,10.7977492577674,106.6935602948069
/ho-chi-minh/tra-tien-huong-dien-bien-phu/binh-luan,Trà Sữa Tiên Hưởng - Điện Biên Phủ,"475 Điện Biên Phủ, P. 25",15,82647,2,6.72,585,0,128,69,57005,45,10.801275,106.714312
/ho-chi-minh/her-5-6m2/binh-luan,Her 5.6M2,"464 Xô Viết Nghệ Tĩnh, P. 25",15,1060227,2,0.0,3,0,0,0,58,3,10.8074679,106.7116915
/ho-chi-minh/sua-bo-tuoi/binh-luan,Sữa Bò Tươi,"464 Xô Viết Nghệ Tĩnh, P. 25",15,773434,2,0.0,1,2,0,0,222,0,10.807585,106.711648
/ho-chi-minh/an-vat-kim-ke/binh-luan,Ăn Vặt Kim Kê - Ngô Đức Kế,"22E Ngô Đức Kế, P. 12",15,905269,2,7.08,62,1,5,0,262,3,10.8084112,106.6988309
/ho-chi-minh/quynh-nhu-com-trua-van-phong/binh-luan,Quỳnh Như - Cơm Trưa Văn Phòng,"Vinhomes Central Park, 208 Nguyễn Hữu Cảnh, P. 22",15,756797,2,6.75,5,0,4,3,1017,1,10.7951612,106.7195944
/ho-chi-minh/bula-bento-com-trua-an-toi-hoa-su/binh-luan,Bula Bento - Cơm Trưa & Ăn Tối - Đường D5,"147 Đường D5, P. 25",15,690697,2,7.44,310,0,59,103,12041,14,10.805811,106.717317
/ho-chi-minh/dong-xanh-quan-an-san-vuon-thanh-da/binh-luan,Đồng Xanh - Quán Ăn Sân Vườn Thanh Đa,"480/60A Bình Quới, P. 28",15,16033,2,7.336,98,0,3,4,4752,0,10.82825,106.747585
/ho-chi-minh/com-ga-mam-toi-101-dien-bien-phu/binh-luan,Cơm Gà Mắm Tỏi 101 - Điện Biên Phủ,"194 Điện Biên Phủ, P. 17",15,1036340,2,0.0,0,1,0,0,109,0,10.7981764,106.705176
/ho-chi-minh/ga-u-muoi-hoa-tieu-minh-hieu-dinh-bo-linh/binh-luan,Gà Ủ Muối Hoa Tiêu Minh Hiếu - Đinh Bộ Lĩnh,"270/47 Đinh Bộ Lĩnh, P. 26",15,1150542,2,0.0,0,0,0,0,3,0,10.816277,106.71192
/ho-chi-minh/ca-vien-chien-an-vat-chi-ngoai-quoc-lo-13/binh-luan,Cá Viên Chiên - Ăn Vặt Chị Ngoại - Quốc Lộ 13,"204/12A1 Quốc Lộ 13, P. 26",15,1150416,2,0.0,0,0,0,0,2,0,10.8159676,106.714037
/ho-chi-minh/fuji-saryo-da-bao-mi-lanh-nhat-ban-tra-tao-xanh-le-van-duyet/binh-luan,Fuji Saryo Đá Bào - Mì Lạnh Nhật Bản & Trà Táo Xanh - Lê Văn Duyệt,"136A Lê Văn Duyệt, P. 1",15,1151077,2,0.0,0,0,0,0,2,0,10.799586,106.696347
/ho-chi-minh/maagii-tea-114-no-trang-long/binh-luan,MAAGII TEA - 114 Nơ Trang Long,"114 Nơ Trang Long, P. 14",15,1150960,2,0.0,0,0,0,0,5,0,10.8096548,106.6952455
/ho-chi-minh/chewy-chewy-cafe-banh-xo-viet-nghe-tinh/binh-luan,Chewy Chewy - Cafe & Bánh - Xô Viết Nghệ Tĩnh,"209 Xô Viết Nghệ Tĩnh, P. 17",15,751074,2,7.888,33,0,16,16,2871,1,10.7997987,106.7110641
/ho-chi-minh/hoang-ky-mi-hu-tieu-hoanh-thanh-91-le-van-duyet/binh-luan,Hoàng Ký Mì - Hủ Tiếu & Hoành Thánh - 91 Lê Văn Duyệt,"91/1 Lê Văn Duyệt, P. 3",15,1000051939,2,0.0,0,0,0,0,17,0,10.797183,106.695219
/ho-chi-minh/tra-tac-neko-tra-tac-dinh-bo-linh.ler2vi/binh-luan,Trà Tắc Neko - Trà Tắc - Đinh Bộ Lĩnh,"221 Đinh Bộ Lĩnh, P. 26",15,1000039240,2,0.0,0,0,0,0,32,0,10.8109271,106.7089716
/ho-chi-minh/tiem-com-co-ba-ung-van-khiem/binh-luan,Tiệm Cơm Cô Ba - Ung Văn Khiêm,"174 Ung Văn Khiêm, P. 25",15,1000000565,2,0.0,0,3,0,0,249,0,10.8063091,106.7200199
/ho-chi-minh/chao-dinh-duong-panda-bui-dinh-tuy/binh-luan,Cháo Dinh Dưỡng Panda - Bùi Đình Tuý,"255 Bùi Đình Tuý, P. 24",15,1134066,2,10.0,1,0,2,1,40,0,10.8075058,106.7013663
/ho-chi-minh/tiem-an-vat-bondsai-an-vat-viet-trung-thai-online.85imdy/binh-luan,Tiệm ăn vặt Bondsai  - Ăn vặt Việt Trung Thái - Online,Hẻm 265 Nơ Trang Long ,15,1000056540,2,0.0,0,0,0,0,1,0,10.8184522,106.6972996
/ho-chi-minh/dau-hu-bac-ninh-dau-trang-dau-chien-vo-duy-ninh.bqmzlk/binh-luan,Đậu Hũ Bắc Ninh - Đậu Trắng & Đậu Chiên - Võ Duy Ninh,"67 Võ Duy Ninh, P. 22",15,1000030127,2,0.0,0,0,0,0,44,0,10.792667,106.717113
/ho-chi-minh/chao-dinh-duong-baby-nguyen-van-lac/binh-luan,Cháo Dinh Dưỡng Baby - Nguyễn Văn Lạc,"78 Nguyễn Văn Lạc, P. 19",15,1145740,2,0.0,0,0,0,0,1,0,10.792559,106.709017
/ho-chi-minh/tra-sua-dhi-van-kiep/binh-luan,Trà Sữa Dhi - Vạn Kiếp,"97 Vạn Kiếp, P. 3",15,1119620,2,0.0,0,0,0,0,110,0,10.7992368,106.693661
/ho-chi-minh/bun-bo-hue-dong-ba-bun-bo-nguyen-gia-tri.cw0iam/binh-luan,Bún Bò Huế Đông Ba - Bún Bò - Nguyễn Gia Trí,"140 Nguyễn Gia Trí, P. 25",15,1000027192,2,0.0,0,0,0,0,149,0,10.8052568,106.7160811
/ho-chi-minh/kai-coffee-van-kiep/binh-luan,KAI Coffee - Vạn Kiếp,"288 Vạn Kiếp, P. 3",15,1137863,2,0.0,0,0,0,0,202,0,10.7965897,106.6936462
/ho-chi-minh/bun-moc-ha-thanh/binh-luan,Bún Mọc Hà Thành,"82 Phan Văn Trị, P. 12",15,1077247,2,8.6,2,0,1,1,70,1,10.8080825,106.6972747
/ho-chi-minh/chay-chon-lac-banh-mi-chay-369-dinh-bo-linh.hkrxbl/binh-luan,Chay Chơn Lạc - Bánh Mì Chay - 369 Đinh Bộ Lĩnh,"369 Đinh Bộ Lĩnh, P. 26",15,1000044405,2,0.0,0,3,0,1,36,0,10.8155712,106.7105364
/ho-chi-minh/hong-tra-sua-a-ly-son-no-trang-long/binh-luan,Hồng Trà Sữa A Lý Sơn - Nơ Trang Long,"41A Nơ Trang Long, P. 7",15,1149694,2,0.0,0,0,0,0,6,0,10.8078123,106.6949263
/ho-chi-minh/mie-tea-nguyen-van-thuong/binh-luan,Mie Tea - Nguyễn Văn Thương,"71/3 Nguyễn Văn Thương, P. 25",15,1149742,2,0.0,0,0,0,0,2,0,10.8021793,106.7179954
/ho-chi-minh/bun-dau-mam-tom-ba-anh-em-xo-viet-nghe-tinh/binh-luan,Bún Đậu Mắm Tôm Ba Anh Em - Xô Viết Nghệ Tĩnh,"428 Xô Viết Nghệ Tĩnh, P. 25",15,1149462,2,0.0,0,0,0,0,9,0,10.8064574,106.711701
/ho-chi-minh/tra-sua-laxy-van-kiep/binh-luan,Trà Sữa Laxy - Vạn Kiếp,"167A Vạn Kiếp, P. 3",15,1149285,2,0.0,0,0,0,0,2,0,10.7978105,106.6938287
/ho-chi-minh/bun-bo-hue-pho-bo-co-ba-phan-van-tri/binh-luan,Bún Bò Huế & Phở Bò Cô Ba - Phan Văn Trị,"363D Phan Văn Trị, Phường 11, Bình Thạnh, TP. HCM",15,1147853,2,0.0,0,0,0,0,3,0,10.8179227,106.6950336
/ho-chi-minh/tra-sua-nuoc-ep-bong-nguyen-thien-thuat/binh-luan,Trà Sữa & Nước Ép Bông - Nguyễn Thiện Thuật,"9 Nguyễn Thiện Thuật, P. 14",15,1146758,2,0.0,0,0,0,0,2,0,10.8054209,106.6991881
/ho-chi-minh/tra-sua-nong-ngo-tat-to/binh-luan,Trà Sữa Nọng - Ngô Tất Tố,"51 Ngô Tất Tố, P. 21",15,1145426,2,0.0,0,0,0,0,5,0,10.7930943,106.7105436
/ho-chi-minh/bo-nuong-trung-muoi-nguyen-huu-canh/binh-luan,Bò Nướng Trứng Muối - Nguyễn Hữu Cảnh,"131/1 Nguyễn Hữu Cảnh, P. 22",15,1146028,2,0.0,0,1,0,0,1,0,10.796561,106.7183145
/ho-chi-minh/bun-dau-mac-van-khoa-quoc-lo-13/binh-luan,Bún Đậu Mạc Văn Khoa - Quốc Lộ 13,"76 Quốc Lộ 13, P. 26",15,974077,2,3.42,6,4,9,3,1555,0,10.812066,106.712534
/ho-chi-minh/tra-dau-mr-do-le-quang-dinh/binh-luan,Trà Dâu Mr. Đỏ - Lê Quang Định,"276 Lê Quang Định, P. 11",15,1136797,2,0.0,0,0,0,0,2,0,10.8088231,106.6944755
/ho-chi-minh/tra-sua-banh-cafe-mr-rado-cn-binh-thanh/binh-luan,"Trà Sữa, Bánh & Cafe Mr Rado CN Bình Thạnh","71 Hoàng Hoa Thám, P. 06",15,1139026,2,0.0,0,6,0,0,27,0,10.8063788,106.6901998
/ho-chi-minh/boss-milk-tea-tra-sua-kem-trung-bui-dinh-tuy/binh-luan,Boss Milk Tea - Trà Sữa Kem Trứng - Bùi Đình Tuý,"155 Bùi Đình Tuý, P. 12",15,1138252,2,10.0,23,0,1,0,23,0,10.809833,106.703068
/ho-chi-minh/saigon-kitchen-cafe/binh-luan,SAIGON Kitchen & Cafe,"Lầu 1, SH 01, Park 1, Vinhomes Central Park, 208 Nguyễn Hữu Cảnh, P. 22",15,901006,2,6.5,12,0,2,2,356,0,10.79247,106.7216
/ho-chi-minh/boom-ca-phe-tra-sua/binh-luan,Boom - Cà Phê & Trà Sữa - Sữa Tươi Trân Châu Đường Đen - Ngô Tất Tố,"14B9 (Mặt Tiền) Ngô Tất Tố, P. 19",15,69549,2,8.252,425,0,209,149,55299,45,10.793174,106.710109
/ho-chi-minh/tra-sua-tiger-sugar-delivery-duong-nau-sua-dai-loan-vo-oanh/binh-luan,Trà Sữa Tiger Sugar Delivery - Đường Nâu Sữa Đài Loan - Võ Oanh,"74 Võ Oanh, P. 25",15,964992,2,7.426,27,0,23,2,1184,7,10.804523,106.714904
/ho-chi-minh/ga-lac-pho-mai/binh-luan,Gà Lắc Phô Mai,"142 Nguyễn Văn Đậu, P. 7",15,802932,2,8.176,55,0,9,61,1756,3,10.809432,106.68946
/ho-chi-minh/morico-modern-japanese-restaurant-cafe-saigon-pearl/binh-luan,Morico - Contemporary Japanese Lifestyle - Saigon Pearl,"Saigon Pearl, 92 Nguyễn Hữu Cảnh",15,897,2,7.832,2651,0,187,160,23555,70,10.7908811,106.7190231
/ho-chi-minh/cheese-coffee/binh-luan,Cheese Coffee - Xô Viết Nghệ Tĩnh,"141 Xô Viết Nghệ Tĩnh, P. 17",15,307624,2,7.22,2076,0,268,119,51662,50,10.794916,106.709238
/ho-chi-minh/pong-quan-nguyen-gia-tri/binh-luan,Pong Quán - Nguyễn Gia Trí,"168/73 Nguyễn Gia Trí (Đường D2), P. 25",15,193682,2,6.848,1136,0,210,594,125401,43,10.806254,106.718428
/ho-chi-minh/anh-tu-ga-nuong/binh-luan,Gà Nướng Anh Tư,"449 Lê Quang Định, P. 5",15,26106,2,7.318,595,0,211,461,86207,67,10.815302,106.688949
/ho-chi-minh/buffet-khu-du-lich-binh-quoi-2/binh-luan,Khu Du Lịch Bình Quới 2,"Cuối Đường Bình Quới, P. 28",15,15577,2,6.408,520,0,45,51,120210,35,10.830563,106.741415
/ho-chi-minh/van-thanh-khu-du-lich/binh-luan,Khu Du Lịch Văn Thánh - Nhà Hàng,"48/10 Điện Biên Phủ, P. 22",15,1685,2,6.514,755,0,59,38,118387,40,10.798258,106.715709
/ho-chi-minh/123-zo-lau-nuong-455-pham-van-dong/binh-luan,123 Zô - Lẩu & Nướng - 455 Phạm Văn Đồng,"455 Phạm Văn Đồng, P. 13",15,95266,2,6.982,434,0,68,56,116628,22,10.822717,106.701128
/ho-chi-minh/tra-sua-aroma/binh-luan,Aroma - Trà sữa & Coffee,"427/27 Xô Viết Nghệ Tĩnh, P. 26",15,49982,2,6.428,231,0,92,258,103394,52,10.8060888,106.7111267
/ho-chi-minh/viet-huong-ga-nuong-lu/binh-luan,Gà Nướng Lu Việt Hương - Lê Quang Định,"449A3 Lê Quang Định, P. 5",15,26134,2,7.338,592,0,177,411,96299,87,10.815139,106.68916
/ho-chi-minh/banh-trang-long-an-banh-trang-thuy/binh-luan,Bánh Tráng Long An - Bánh Tráng Thủy,"274/16B Nguyễn Văn Đậu, P. 11",15,49095,2,7.054,383,0,126,528,93470,25,10.813001,106.69415
/ho-chi-minh/banh-uot-ban-me/binh-luan,Bánh Ướt Ban Mê - Đường Số 14,"M4 Đường Số 14, P. 3",15,92858,2,6.936,1184,0,206,388,92659,47,10.796607,106.693012
/ho-chi-minh/buffet-tan-cang/binh-luan,Buffet Tân Cảng - Lẩu & Nướng,"A100 Ung Văn Khiêm, P. 25",15,2423,2,6.924,336,0,50,94,91725,42,10.800321,106.724818
/ho-chi-minh/an-khang-juice-duong-so-1/binh-luan,An Khang Juice - Đường Số 1,"74 Đường Số 1, P. 26",15,1151221,2,0.0,0,0,0,0,2,0,10.8117282,106.7053554
/ho-chi-minh/cu-lao-mon-mien-trung/binh-luan,Cù Lao - Món Miền Trung,"21 Nguyễn Gia Trí, P. 25",15,1151155,2,0.0,0,0,0,0,1,0,10.802142,106.715506
/ho-chi-minh/trai-cay-to-an-vat-banh-trang-cham-quoc-lo-13/binh-luan,Trái Cây Tô - Ăn Vặt & Bánh Tráng Chấm - Quốc Lộ 13,"234 Quốc Lộ 13, P. 26",15,1151150,2,0.0,0,0,0,0,1,0,10.8168405,106.7132306
/ho-chi-minh/hu-tieu-thai-lan-pi-thai-nguyen-gia-tri/binh-luan,Hủ tiếu Thái Lan – Pi Thai – Nguyễn Gia Trí,"17 Nguyễn Gia Trí, P. 25",15,1151096,2,0.0,0,0,0,0,2,0,10.8021467747362,106.7153350250201
/ho-chi-minh/hu-tieu-nam-vang-anh-duc-le-quang-dinh/binh-luan,Hủ Tiếu Nam Vang Anh Đức - Lê Quang Định,"266 Lê Quang Định, P. 11",15,1151040,2,0.0,0,0,0,0,1,0,10.808586,106.694609
/ho-chi-minh/pizza-one-p-nguyen-van-thuong/binh-luan,Pizza One P - Nguyễn Văn Thương,"176/15 Nguyễn Văn Thương, P. 25",15,1151022,2,0.0,0,0,0,0,1,0,10.8025698,106.7207225
/ho-chi-minh/tiem-com-11h-nguyen-van-thuong/binh-luan,Tiệm Cơm 11h - Nguyễn Văn Thương,"176/17 Nguyễn Văn Thương, P. 25",15,1151016,2,0.0,0,0,0,0,1,0,10.8008009,106.7183697
/ho-chi-minh/chuoi-chien-so-1-can-tho-ngo-tat-to/binh-luan,Chuối Chiên Số 1 Cần Thơ - Ngô Tất Tố,"27B Ngô Tất Tố, P. 21",15,1151015,2,0.0,0,0,0,0,4,0,10.7933764,106.7101684
/ho-chi-minh/sinh-to-nuoc-ep-chi-muoi-bui-dinh-tuy/binh-luan,Sinh tố Nước Ép Chị Mười - Bùi Đình Túy,"383 Bùi Đình Túy, P. 24",15,1151014,2,0.0,0,0,0,0,2,0,10.8079625,106.7047099
/ho-chi-minh/nuoc-nghe-nano-vikumin-nuoc-giai-khat-sinh-to-tra-sua-106-nguyen-hong-p-11-q-binh-thanh-tp-hcm.e7vi1x/binh-luan,Nước Nghệ Nano Vikumin - Nước Giải Khát - Nguyên Hồng,"106 Nguyên Hồng, P. 11",15,1000058248,2,0.0,0,0,0,0,4,0,10.8166984,106.6947523
/ho-chi-minh/cha-lui-minh-binh-thanh/binh-luan,Chả Lụi Minh Bình Thạnh,"300/84 Xô Viết Nghệ Tĩnh, P. 21",15,1000058234,2,0.0,0,0,0,0,3,0,10.7956112,106.7101242
/ho-chi-minh/banh-dong-tien/binh-luan,Bánh Đồng Tiền,"76 Lô A Chung Cư Ngô Tất Tố, Ngô Tất Tố, P. 19",15,799769,2,10.0,22,0,3,12,706,0,10.7919346,106.712757
/ho-chi-minh/bot-chien-binh-dan-tran-van-ky/binh-luan,Bột Chiên Bình Dân - Trần Văn Kỷ,"15 Cư Xá Trần Văn Kỷ, P. 14 ",15,739923,2,10.0,7,0,2,3,191,1,10.804233,106.696468
/ho-chi-minh/longmilk/binh-luan,LONGMILK,"103 Phan Văn Trị, P. 14",15,1078277,2,10.0,9,0,4,0,70,1,10.8089487,106.6965883
/ho-chi-minh/bun-mam-bun-thai-117-xo-viet-nghe-tinh/binh-luan,Bún Mắm & Bún Thái - 117 Xô Viết Nghệ Tĩnh,117 Xô Viết Nghệ Tĩnh,15,730260,2,10.0,1,0,2,14,875,1,10.7944011693583,106.7085672542452
/ho-chi-minh/quan-oc-chu/binh-luan,Quán Ốc Chu,92/45 Xô Viết Nghệ Tĩnh,15,715159,2,10.0,15,0,1,3,1268,3,10.795679,106.710217
/ho-chi-minh/nha-phan-phoi-banh-trang-tron-long-an-shop-online/binh-luan,Bánh Tráng Trộn Long An Sỉ & Lẻ - Shop Online,359 Bùi Đình Túy,15,783862,2,10.0,43,0,1,2,526,3,10.8071109999999,106.6993562
/ho-chi-minh/healthy-smoothie/binh-luan,Healthy Smoothie - Phạm Viết Chánh,"85/9 Phạm Viết Chánh, P. 19",15,980007,2,10.0,2,0,2,1,279,2,10.7905248915946,106.7121024803218
/ho-chi-minh/com-tam-huyen-no-trang-long/binh-luan,Cơm Tấm Huyền - Nơ Trang Long,"565A Nơ Trang Long, P. 13",15,707897,2,10.0,17,0,1,4,425,1,10.8249136,106.70638
/ho-chi-minh/quan-trong-nhan-com-ga-xoi-mo-mi-hu-tieu-xao/binh-luan,"Quán Trọng Nhân - Cơm Gà Xối Mỡ, Mì & Hủ Tiếu Xào","149 Bình Quới, P. 28",15,715711,2,10.0,8,0,1,4,300,2,10.818977,106.7241017
/ho-chi-minh/trang-mi-tra-sua-nuoc-ep-mix-sinh-to-duong-d5/binh-luan,"Trang Mi - Trà Sữa, Nước Ép Mix & Sinh Tố - Đường D5","2B Đường D5, P. 25",15,1147016,2,10.0,20,0,5,0,21,0,10.8066587,106.7120825
/ho-chi-minh/ngoc-trung-bun-nuoc-leo-soc-trang/binh-luan,Ngọc Trung - Bún Nước Lèo Sóc Trăng,"657 Xô Viết Nghệ Tĩnh, P. 26",15,240453,2,10.0,3,3,1,3,375,5,10.811817,106.714477
/ho-chi-minh/trai-cay-to-an-vat-xo-viet-nghe-tinh/binh-luan,Trái Cây Tô & Ăn Vặt - Xô Viết Nghệ Tĩnh,"595/37 Xô Viết Nghệ Tĩnh, P. 26",15,720866,2,10.0,9,0,1,1,998,3,10.817595,106.714233
/ho-chi-minh/sasin-mi-cay-7-cap-do-han-quoc-d2/binh-luan,SaSin - Mì Cay 7 Cấp Độ Hàn Quốc - D2,"11 Đường D2, P. 25",15,233099,2,5.916,752,0,263,80,50336,59,10.803213,106.715894
/ho-chi-minh/com-tam-tien-nhat-bach-dang/binh-luan,Cơm Tấm Tiến Nhật - Bạch Đằng,"88/26 Bạch Đẳng, P. 24 ",15,1020889,2,9.754,30,0,255,11,1203,2,10.8036034,106.708106
/ho-chi-minh/com-ga-da-gion-nguyen-gia-tri/binh-luan,Cơm Gà Da Giòn - Nguyễn Gia Trí,"69/2/44 Nguyễn Gia Trí (Đường D2), P. 25",15,35604,2,5.91,807,0,236,230,70330,58,10.8036103,106.7144307
/ho-chi-minh/banh-mi-pewpew-duong-d5/binh-luan,Bánh Mì PewPew - Đường D5,"84 Đường D5, P. 25",15,893214,2,5.964,197,0,236,43,13395,33,10.806042,106.714912
/ho-chi-minh/47-quan-an-vat/binh-luan,47 Quán - Ăn Vặt,"47 Phó Đức Chính, P. 1",15,9855,2,6.818,565,0,111,361,49114,36,10.801265,106.697282
/ho-chi-minh/maxro-coffee-hoang-hoa-tham/binh-luan,Maxro Coffee - Hoàng Hoa Thám,"11E Hoàng Hoa Thám, P. 13",15,1068284,2,0.0,0,0,0,0,27,0,10.7973853,106.6469391
/ho-chi-minh/quan-kaka-an-vat-phan-van-tri.a9ubtq/binh-luan,Quán KaKa - Ăn Vặt - Phan Văn Trị,"336/46A Phan Văn Trị, Phường 11",15,1000027707,2,0.0,0,0,0,0,24,0,10.8330068,106.6720575
/ho-chi-minh/seasons-tea-vietnam-shop-online/binh-luan,Seasons Tea Vietnam - Shop Online,"342 Hoàng Hoa Thám, P. 1",15,700101,2,8.65,9,0,4,1,97,0,10.8106464,106.6824454
/ho-chi-minh/kho-ga-la-chanh-phan-dang-luu-shop-online/binh-luan,Khô Gà Lá Chanh - Phan Đăng Lưu - Shop Online,"165 Ngõ 4 Phan Đăng Lưu, Phường 1",15,684465,2,0.0,0,1,0,0,230,0,10.800486,106.682176
/ho-chi-minh/qua-n-an-va-t-che-mai-184-63-hoa-ng-hoa-tha-m.ueebyt/binh-luan,Quán Ăn Vặt Chế Mai - 184/63 Hoàng Hoa Thám,"184/63 Hoàng Hoa Thám, P. 5",15,1000032540,2,0.0,0,0,0,0,7,0,10.80879,106.683569
/ho-chi-minh/tiem-banh-moc-lan/binh-luan,Tiệm Bánh Mộc Lan,"254 Nguyễn Thượng Hiền, P. 5",15,793946,2,0.0,1,7,0,2,159,0,10.8074034,106.6838433
/ho-chi-minh/banh-canh-nha-trang-hoang-hoa-tham/binh-luan,Bánh Canh Nha Trang,"250 Hoàng Hoa Thám, P. 6",15,277118,2,0.0,0,0,0,0,77,0,10.8099125231677,106.684030406177
/ho-chi-minh/com-tam-ngon-nhi-sai-gon-nuoc-mia-sau-rieng-milicoop/binh-luan,Cơm Tấm Ngon Nhì Sài Gòn - Nước Mía Sầu Riêng Milicoop,"239 Nguyễn Thượng Hiền, P.6",15,1000024996,2,0.0,0,2,0,1,30,0,10.8070254,106.6838929
/ho-chi-minh/bun-thai-ni/binh-luan,Bún Thái NI - Hoàng Hoa Thám,"232 Hoàng Hoa Thám, P. 5",15,976680,2,7.4,1,0,4,2,166,1,10.809053,106.6840153
/ho-chi-minh/bun-bo-hue-nguyen-thuong-hien/binh-luan,Bún Bò Huế - Nguyễn Thượng Hiền,111 Nguyễn Thượng Hiền,15,649623,2,8.6,6,0,1,7,645,2,10.810307,106.684104
/ho-chi-minh/club-bulgaria-cafe-kem/binh-luan,Club Bulgaria - Cafe Kem,"267 Nguyễn Thượng Hiền, P. 5",15,723924,2,0.0,10,0,0,0,64,0,10.8069633,106.683925
/ho-chi-minh/com-tam-tai/binh-luan,Cơm Tấm Tài,"1 Nguyễn An Ninh, P. 14",15,11078,2,6.58,314,0,135,215,53305,55,10.805506,106.69673
/ho-chi-minh/hien-banh-canh-cua/binh-luan,Hiền - Bánh Canh Cua,"395 Bùi Đình Túy, P. 14",15,666019,2,6.538,119,0,48,68,7898,4,10.8066301,106.6983477
/ho-chi-minh/bien-vuong-banh-trang-cuon-tron-an-vat-van-kiep/binh-luan,Biển Vương - Bánh Tráng Cuốn Trộn & Ăn Vặt - Vạn Kiếp,"82 Vạn Kiếp, P. 3",15,1079149,2,9.134,7,0,3,12,415,0,10.8010493,106.6933412
/ho-chi-minh/bep-cua-ngoai-com-chien-mi-nui-xao/binh-luan,"Bếp Của Ngoại - Cơm Chiên, Mì & Nui Xào","294/62 Xô Viết Nghệ Tĩnh, P. 21",15,1026222,2,8.802,8,2,3,13,883,0,10.800008,106.71299
/ho-chi-minh/ut-minh-com-ga-xoi-mo-mi-tron-top-mo/binh-luan,Út Minh - Cơm Gà Xối Mỡ & Mì Trộn Tóp Mỡ,"1 Lô A3 Nguyễn Gia Trí Nối Dài, P. 25",15,662933,2,8.116,190,0,98,162,10805,15,10.8096749,106.7177031
/ho-chi-minh/com-ga-nha-trang/binh-luan,Cơm Gà Nha Trang,313 Bùi Đình Túy,15,182044,2,6.748,108,0,38,163,9755,10,10.80747,106.700114
/ho-chi-minh/hong-tra-ngo-gia-nguyen-gia-tri/binh-luan,Hồng Trà Ngô Gia - Nguyễn Gia Trí,"29/1 Nguyễn Gia Trí, P. 25",15,1118674,2,3.0,0,0,2,0,106,0,10.8019311,106.7157619
/ho-chi-minh/dua-com-ga-nguyen-gia-tri.3gm9b5/binh-luan,Dứa - Cơm Gà - Nguyễn Gia Trí,"74 Nguyễn Gia Trí, Phường 25",15,1000001679,2,8.034,14,1,6,37,2607,0,10.804623,106.715716
/ho-chi-minh/kim-huong-bun-bo-hue-nguyen-xi/binh-luan,Kim Hương - Bún Bò Huế - Nguyễn Xí,"172 Nguyễn Xí, P. 26",15,775420,2,8.332,0,0,3,7,921,1,10.814604,106.708438
/ho-chi-minh/burger-house-com-mi-ma-lai/binh-luan,Burger House - Cơm Mì Mã Lai,"212 Nguyễn Xí, P. 26",15,957024,2,7.79,31,0,16,20,2278,2,10.816925,106.706332
/ho-chi-minh/asa-bistro-cafe-restaurant-vinhomes-central-park/binh-luan,ASA Bistro - Cafe & Restaurant - Vinhomes Central Park,"SH11 - Park 1, Vinhomes Central Park, 208 Nguyễn Hữu Cảnh, P. 22",15,726329,2,8.4,110,0,10,18,1185,1,10.7952965,106.7196939
/ho-chi-minh/roll-garden-3-vincom-landmark-81/binh-luan,Roll Garden 3 - Nướng & Lẩu - Vincom Landmark 81,"Tầng B1 - Lô 31&32, Vincom Landmark 81, 208 Nguyễn Hữu Cảnh, P. 22",15,883505,2,7.29,35,0,9,3,1266,2,10.795158,106.719596
/ho-chi-minh/santorino-coffee-veggies/binh-luan,Santorino Coffee & Veggies,"74 Nguyễn Ngọc Phương, P. 19",15,888581,2,9.558,65,0,14,7,997,4,10.788695,106.708798
/ho-chi-minh/hue-delights-4-vincom-landmark-81/binh-luan,Hue Delights 4 - Ẩm Thực Huế - Vincom Landmark 81,"Tầng B1 - Lô 31&32, Vincom Landmark 81, 208 Nguyễn Hữu Cảnh, P. 22",15,764555,2,5.992,60,0,23,0,1102,4,10.794875,106.721917
/ho-chi-minh/otoke-chicken-ga-ran-han-quoc-phan-van-tri/binh-luan,Otoké Chicken - Gà Rán Hàn Quốc - Phan Văn Trị,"188E Phan Văn Trị, P. 11",15,858964,2,6.504,165,0,45,22,1271,1,10.813749,106.695278
/ho-chi-minh/tom-cang-quan-binh-quoi/binh-luan,Tôm Càng Quán - Bình Quới,"283 Bình Quới, P. 28",15,899551,2,8.3,6,0,2,1,277,0,10.824031,106.7328
/ho-chi-minh/song-trang/binh-luan,Sông Trăng - Bình Qưới," 233A Bình Quới, P. 28",15,1355,2,6.776,504,0,70,80,54889,20,10.821681,106.728958
/ho-chi-minh/sai-gon-givral-bakery-dinh-tien-hoang/binh-luan,Sài Gòn Givral Bakery - Đinh Tiên Hoàng,"113 Đinh Tiên Hoàng, P. 3",15,25843,2,7.1,479,0,77,43,16118,19,10.798772,106.696333
/ho-chi-minh/pha-lau-chien-vu-tung/binh-luan,Phá Lấu Chiên - Vũ Tùng,"90 Vũ Tùng, P. 2",15,79720,2,7.15,234,0,93,354,57475,40,10.801894,106.700823
/ho-chi-minh/pho-nuong-tu-tri-binh-quoi/binh-luan,Phố Nướng Tư Trì - Bình Quới,"1121 Bình Qưới, P. 28",15,3863,2,7.288,379,0,50,49,29383,31,10.825571,106.734602
/ho-chi-minh/ut-lang-van-kiep/binh-luan,Bạch Tuộc Nướng Út Lang,"52A Vũ Huy Tấn, P.3",15,23177,2,5.294,180,0,71,70,40254,28,10.7958725,106.6942385
/ho-chi-minh/kichi-kichi-lau-bang-chuyen-pearl-plaza/binh-luan,Kichi Kichi Lẩu Băng Chuyền - Pearl Plaza,"L4 03-04, Pearl Plaza, 561A Điện Biên Phủ",15,186421,2,7.98,416,0,75,21,15942,28,10.801283,106.708289
/ho-chi-minh/chibi-cafe/binh-luan,Chibi Cafe,213/11 Đường D2,15,68405,2,6.672,272,0,51,73,54059,21,10.806832,106.715628
/ho-chi-minh/tocotoco-bubble-tea-9-le-quang-dinh/binh-luan,TocoToco Bubble Tea - 9 Lê Quang Định,"9 Lê Quang Định, P. 14",15,1150940,2,0.0,0,0,0,0,3,0,10.804527587886,106.6981048834221
/ho-chi-minh/katinat-saigon-kafe-landmark-81/binh-luan,Katinat Saigon Kafe - Landmark 81,"772 Điện Biên Phủ, P. 22",15,1150902,2,0.0,0,0,0,0,2,0,10.7949374678036,106.7222250457108
/ho-chi-minh/ga-ta-ngon-so-1-com-ga-chao-ga-goi-ga-no-trang-long/binh-luan,"Gà Ta Ngon Số 1 - Cơm Gà, Cháo Gà & Gỏi Gà - Nơ Trang Long","270 Nơ Trang Long, P. 12",15,1150593,2,0.0,0,0,0,0,2,0,10.814494,106.6978967
/ho-chi-minh/icool-nguyen-sinh-nha-hang-hoang-hoa-tham-beefsteak-mon-au/binh-luan,Icool Nguyên Sinh Nhà Hàng Hoàng Hoa Thám - Beefsteak & Món Âu,"80/1 Hoàng Hoa Thám, P. 7",15,1150324,2,0.0,0,0,0,0,3,0,10.807302,106.689862
/ho-chi-minh/miu-coffee-tea-tra-sua-tra-trai-cay-bui-dinh-tuy/binh-luan,Miu Coffee & Tea - Trà Sữa & Trà Trái Cây - Bùi Đình Tuý,"340 Bùi Đình Tuý, P. 12",15,1150287,2,0.0,0,0,0,0,3,0,10.8081577,106.706621
/ho-chi-minh/co-ha-ca-vien-banh-flan-mi-tron-bui-dinh-tuy/binh-luan,"Cô Hà - Cá Viên, Bánh Flan & Mì Trộn - Bùi Đình Túy","222/10/2 Bùi Đình Tuý, P. 12",15,1000058182,2,0.0,0,0,0,0,2,0,10.8083381,106.7021288
/ho-chi-minh/tra-sua-tuoi-la-nha/binh-luan,Trà Sữa Tươi Là Nhà,"30 Lê Văn Duyệt, P. 1",15,1149600,2,0.0,0,0,0,0,2,0,10.7947488,106.6962252
/ho-chi-minh/mooncha-tra-dau-tuoi-milo-dam-tra-sua-no-trang-long/binh-luan,"MOONCHA - Trà Dâu Tươi, Milo Dầm & Trà Sữa - Nơ Trang Long","27 Nơ Trang Long, P. 7",15,1150209,2,0.0,0,0,0,0,1,0,10.8073546,106.6948875
/ho-chi-minh/tiem-an-mi-xa-bun-dau-ca-vien-chien-tha-lau-thai-banh-gao-217-102-18-bui-dinh-tuy/binh-luan,"Tiệm Ăn Mi Xa - Bún Đậu, Cá Viên Chiên Thả Lẩu Thái & Bánh Gạo - 217/102/18 Bùi Đình Tuý","217/102/18 Bùi Đình Túy, P. 24",15,1000057589,2,0.0,0,0,0,0,4,0,10.8058993,106.7050362
/ho-chi-minh/banh-canh-cua-co-hai-bui-huu-nghia/binh-luan,Bánh Canh Cua Cô Hai - Bùi Hữu Nghĩa,"37 Bùi Hữu Nghĩa, P. 1",15,1148829,2,0.0,0,0,0,0,5,0,10.7944299,106.6975619
/ho-chi-minh/an-vat-bill-ken-kem-trang-tien-ha-noi-dien-bien-phu/binh-luan,Ăn Vặt Bill Ken - Kem Tràng Tiền Hà Nội - Điện Biên Phủ,"27/101 Điện Biên Phủ, P. 15",15,1148653,2,0.0,0,0,0,0,2,0,10.7950219,106.6991405
/ho-chi-minh/banh-mi-coc-banh-mi-ga-xe-le-quang-dinh/binh-luan,Bánh Mì Cóc - Bánh Mì Gà Xé - Lê Quang Định,"363 Lê Quang Định, P. 5",15,1071873,2,0.0,0,6,0,4,209,0,10.8128846,106.6899073
/ho-chi-minh/hu-tieu-xuong-ong-sa-dec-hu-tieu-vu-huy-tan.gd0hbi/binh-luan,Hủ Tiếu Xương Ống Sa Đéc - Hủ Tiếu - Vũ Huy Tấn,"64 Vũ Huy Tấn, P. 3",15,1000034307,2,0.0,0,1,0,0,46,0,10.7959732,106.6934821
/ho-chi-minh/banh-cuon-cao-bang-me-le-hoang-hoa-tham/binh-luan,Bánh Cuốn Cao Bằng Mẹ Lệ - Hoàng Hoa Thám,"120A Hoàng Hoa Thám, P. 7",15,1144940,2,9.12,8,0,5,2,104,1,10.808226,106.6888272
/ho-chi-minh/co-ba-bun-rieu-canh-bun-cua-dong-van-kiep.9q3yr8/binh-luan,CÔ BA - Bún Riêu & Canh Bún Cua Đồng - Vạn Kiếp,"204 Vạn Kiếp, P. 3",15,1000035209,2,0.0,0,2,0,0,76,0,10.7985717,106.6934956
/ho-chi-minh/xoi-lang-nghe-chuan-vi-bac/binh-luan,Xôi Làng Nghề - Chuẩn Vị Bắc,"116 Ngô Tất Tố, P. 22",15,1051968,2,7.674,18,3,11,56,867,1,10.7914085,106.7144454
/ho-chi-minh/pho-phu-huong-le-quang-dinh/binh-luan,Phở Phú Hương - Lê Quang Định,"449 Lê Quang Định, P. 5",15,1082739,2,0.0,0,2,0,0,60,0,10.8153234,106.6889044
/ho-chi-minh/com-chay-dieu-vy-le-quang-dinh/binh-luan,Cơm Chay Diệu Vy - Lê Quang Định,"373 Lê Quang Định, P. 5",15,1129479,2,0.0,0,0,0,0,171,0,10.8134,106.68985
/ho-chi-minh/banh-mi-van-anh-nguyen-van-lac/binh-luan,Bánh Mì Vân Anh - Nguyễn Văn Lạc,"33 Nguyễn Văn Lạc, P. 21",15,1129067,2,0.0,0,0,0,0,32,0,10.7940274,106.7096577
/ho-chi-minh/mi-xao-149-mi-nui-xao-bo-ngo-tat-to.dghevv/binh-luan,Mì Xào 149 - Mì & Nui Xào Bò - Ngô Tất Tố,"149 Ngô Tất Tố, P. 22",15,1000038821,2,0.0,0,0,0,0,20,0,10.791691,106.714266
/ho-chi-minh/banh-mi-heo-quay-co-tu-no-trang-long/binh-luan,Bánh Mì Heo Quay Cô Tư - Nơ Trang Long,"119A Nơ Trang Long, P. 11",15,1066529,2,0.0,0,0,0,0,56,0,10.811004,106.695302
/ho-chi-minh/com-tam-thanh-tam/binh-luan,Cơm Tấm Thanh Tâm,"190G Phan Văn Trị, P. 12",15,1034977,2,3.266,4,0,3,1,344,0,10.813144,106.695376
/ho-chi-minh/banh-cuon-minh-loan-banh-cuon-thanh-tri-ha-noi-nguyen-xi/binh-luan,Bánh Cuốn Minh Loan - Bánh Cuốn Thanh Trì Hà Nội - Nguyễn Xí,"201/54 Nguyễn Xí, P. 26",15,1084049,2,0.0,0,2,0,0,20,0,10.814707,106.706408
/ho-chi-minh/tra-sua-laxy-183-nguyen-van-dau/binh-luan,Trà Sữa Laxy - 183 Nguyễn Văn Đậu,"183A1 Nguyễn Văn Đậu, P. 11",15,1133944,2,0.0,0,0,0,0,5,0,10.8116566,106.6917898
/ho-chi-minh/little-squares-coffee-tran-ke-xuong/binh-luan,Little Squares Coffee - Trần Kế Xương,"16B Trần Kế Xương, P. 3",15,1135616,2,0.0,0,0,0,0,45,0,10.8024447,106.6923319
/ho-chi-minh/tala-cofee-nuoc-hoa-du-bai-le-quang-dinh/binh-luan,Tala Cofee & Nước Hoa Du Bai - Lê Quang Định,"69 Lê Quang Định, P. 14",15,1134596,2,0.0,0,0,0,0,39,0,10.8055168189365,106.6977304684061
/ho-chi-minh/tra-sua-pi-bui-dinh-tuy/binh-luan,Trà Sữa Pi - Bùi Đình Túy,"377 Bùi Đình Túy, P. 24",15,1134542,2,0.0,0,0,0,0,21,0,10.8068,106.698869
/ho-chi-minh/chi-cuc-bun-tron-nam-bo-duong-d5/binh-luan,Chị Cúc - Bún Trộn Nam Bộ - Đường D5,"46 Đường D5, P. 25",15,1134096,2,0.0,0,0,0,0,161,0,10.8064225,106.71418
/ho-chi-minh/juhua-tra-sua-kem-trung-nuong-tra-dau-nhiet-doi-nguyen-van-thuong/binh-luan,Juhua - Trà Sữa Kem Trứng Nướng & Trà Dâu Nhiệt Đới - Nguyễn Văn Thương,"5 Nguyễn Văn Thương, P. 25",15,1133498,2,0.0,0,0,0,0,37,0,10.8009769,106.718245
/ho-chi-minh/bun-dau-lang-mo-bun-dau-met-bun-oc-tay-ho-ung-van-khiem/binh-luan,Bún Đậu Làng Mơ - Bún Đậu Mẹt & Bún Ốc Tây Hồ - Ung Văn Khiêm,"250 Ung Văn Khiêm, P. 25",15,1132664,2,0.0,0,0,0,0,35,0,10.8047342,106.7213535
/ho-chi-minh/bun-dau-mam-tom-bun-cha-ha-noi-trang-an/binh-luan,Bún Đậu Mắm Tôm & Bún Chả Hà Nội Tràng An,"191 Nguyễn Gia Trí, P. 25",15,957709,2,6.32,64,0,5,3,529,1,10.806202,106.716032
/ho-chi-minh/rau-ma-vitamin-van-kiep/binh-luan,Rau Má Vitamin - Vạn Kiếp,"103 Vạn Kiếp, P. 3",15,1129579,2,0.0,0,0,0,0,40,0,10.7990404,106.6936807
/ho-chi-minh/mi-cay-miss-fresh-mi-cay-7-cap-do-nguyen-cuu-van/binh-luan,Mì Cay Miss Fresh - Mì Cay 7 Cấp Độ - Nguyễn Cửu Vân,"82 Nguyễn Cửu Vân, P. 17",15,1129013,2,0.0,0,0,0,0,36,0,10.7966554,106.7054763
/ho-chi-minh/met-tre-bun-dau-mam-tom-nguyen-xi/binh-luan,Mẹt Tre - Bún Đậu Mắm Tôm - Nguyễn Xí,"357 Nguyễn Xí, P. 26",15,1128457,2,0.0,0,0,0,0,43,0,10.8225837,106.703241
/ho-chi-minh/quan-oc-cay-si-ung-van-khiem/binh-luan,Quán Ốc Cây Si - Ung Văn Khiêm,"Đối Diện 214 Ung Văn Khiêm, P. 25",15,1128748,2,0.0,0,1,0,1,42,0,10.8052606,106.7209775
/ho-chi-minh/main-tea-tiem-tra-trai-cay-tuoi-vu-huy-tan/binh-luan,Main Tea - Tiệm Trà Trái Cây Tươi - Vũ Huy Tấn,"102 Vũ Huy Tấn, P. 3",15,737787,2,8.11,669,0,110,46,7886,4,10.7960879,106.6921745
/ho-chi-minh/bich-phong-an-vat-goi-cuon/binh-luan,Bích Phong - Ăn Vặt & Gỏi Cuốn,"29/35/16 Hoàng Hoa Thám, P. 6",15,1001217,2,8.466,11,0,3,3,662,2,10.805134,106.689273
/ho-chi-minh/lala-salad-healthy-food-online/binh-luan,LALA Salad - Healthy Food Online,"96 Phan Văn Hân, P. 17",15,914739,2,8.004,189,0,50,93,3956,4,10.7936711,106.7068041
/ho-chi-minh/let-s-cheese-banh-mi-pho-mai-shop-online/binh-luan,Anh Thư - Bánh Bông Lan Trứng Muối & Bánh Mì Phô Mai,"61/31A Nguyễn Thượng Hiền, P. 5",15,673937,2,7.936,150,0,65,179,8721,2,10.8132552,106.6860302
/ho-chi-minh/3-rau-ga-ran-pizza-tra-sua-xo-viet-nghe-tinh/binh-luan,"3 Râu - Gà Rán, Pizza & Trà Sữa - Xô Viết Nghệ Tĩnh","551 Xô Viết Nghệ Tĩnh, P. 26",15,804679,2,7.442,99,0,64,11,6792,8,10.80915,106.711989
/ho-chi-minh/tocotoco-bubble-tea-xo-viet-nghe-tinh/binh-luan,TocoToco Thanh Đa - Xô Viết Nghệ Tĩnh,"605 Xô Viết Nghệ Tĩnh, P. 26",15,774819,2,7.324,67,0,71,10,2551,3,10.810605,106.713261
/ho-chi-minh/khoai-bistro-banh-mi-chao-bo-ne/binh-luan,"Khoai Bistro - Bánh Mì Chảo, Beefsteak & Mì Ý","133 Võ Oanh (Đường D3), P. 25",15,730663,2,7.422,261,0,80,146,9583,8,10.8046331,106.7146088
/ho-chi-minh/co-thanh-che-sau-kem-bo-nguyen-van-thuong/binh-luan,Cô Thanh - Chè Sầu Kem Bơ - Nguyễn Văn Thương,"152/2A Nguyễn Văn Thương, P. 25",15,950433,2,8.466,44,0,18,56,4317,4,10.802895,106.720346
/ho-chi-minh/nem-nuong-d-ran-since-1968-healthy-fresh-nguyen-hong/binh-luan,Nem Nướng D'ran Since 1968 - Healthy & Fresh - Nguyên Hồng,"112 Nguyên Hồng, P. 11",15,748452,2,8.004,228,0,83,97,7317,7,10.81658,106.695027
/ho-chi-minh/bun-dau-homemade-phan-xich-long/binh-luan,Bún Đậu Homemade - Phan Xích Long,"25 Phan Xích Long, P. 3",15,267851,2,6.57,1179,0,211,100,22158,34,10.7972287,106.6926031
/ho-chi-minh/nhan-ngai-rolls-juice-bar/binh-luan,Nhân Ngãi - NN Store - Bánh Mì Gà Đặc Biệt - Xô Viết Nghệ Tĩnh,"97 Xô Viết Nghệ Tĩnh, P.17",15,94518,2,7.422,883,0,113,126,58720,41,10.794156,106.708757
/ho-chi-minh/tra-sua-anh-ban-tra/binh-luan,Trà Sữa Anh Bán Trà,"17/21 Thanh Đa, P. 27",15,43948,2,7.434,114,0,29,91,85693,26,10.8166421727683,106.7185101211833
/ho-chi-minh/dau-phong-rang-toi-ot-giao-hang-tan-noi/binh-luan,Đậu Phộng Rang Tỏi Ớt - Giao Hàng Tận Nơi,"9 Đinh Bộ Lĩnh, P. 24",15,90602,2,6.94,63,0,20,70,73191,18,10.803345,106.708886
/ho-chi-minh/bay-duc-ga-ta-nuong/binh-luan,Gà Ta Nướng Bảy Đực,"480/29/8 Bình Quới, P. 28",15,46307,2,6.95,313,0,60,166,71906,30,10.826054,106.73866
/ho-chi-minh/tra-sua-chat/binh-luan,Trà Sữa Chất,"035 Lô L, Cư Xá Thanh Đa, P. 27",15,226607,2,7.382,149,0,46,137,66661,6,10.814046,106.720142
/ho-chi-minh/apple-mobileshop-coffee/binh-luan,Apple Mobileshop Coffee,"243 Bùi Hữu Nghĩa, P. 1",15,246338,2,7.386,253,0,149,221,66160,99,10.797796,106.698796
/ho-chi-minh/tocotoco-bubble-tea-240-nguyen-xi/binh-luan,TocoToco Bubble Tea - 240 Nguyễn Xí,"240 Nguyễn Xí, P. 13",15,1150943,2,0.0,0,0,0,0,2,0,10.8182645555204,106.7054961987671
/ho-chi-minh/chin-tea-tra-sua-tra-dao-cam-sa-dien-bien-phu/binh-luan,Chin Tea - Trà Sữa & Trà Đào Cam Sả - Điện Biên Phủ,"441/80 Điện Biên Phủ, P. 25",15,1150879,2,0.0,0,0,0,0,3,0,10.8034365,106.7133544
/ho-chi-minh/mia-bay-mia-mix-trai-cay/binh-luan,Mía Bay - Mía Mix Trái Cây,"1/24 Lô K Cư Xá Thanh Đa, P. 27",15,1150791,2,0.0,0,0,0,0,2,0,10.814094,106.720035
/ho-chi-minh/co-ngoc-bun-moc-hu-tieu-ung-van-khiem/binh-luan,Cô Ngọc - Bún Mọc & Hủ Tiếu - Ung Văn Khiêm,"31/35 Ung Văn Khiêm, P. 25",15,1150768,2,0.0,0,0,0,0,2,0,10.809623,106.714394
/ho-chi-minh/am-thuc-chay-phuong-nam/binh-luan,Ẩm Thực Chay Phương Nam,"64/4 Võ Oanh, P. 25",15,1150761,2,0.0,0,0,0,0,2,0,10.8047137,106.7154184
/ho-chi-minh/com-tam-suon-cong-xua-ngo-duc-ke/binh-luan,Cơm Tấm Sườn Cọng Xưa - Ngô Đức Kế,"73A Ngô Đức Kế, P. 12",15,1150722,2,0.0,0,0,0,0,4,0,10.808664,106.699777
/ho-chi-minh/the-nat-coffee-tea-pham-van-dong/binh-luan,The NAT Coffee & Tea - Phạm Văn Đồng,"393 Phạm Văn Đồng, P. 11",15,1150718,2,0.0,0,0,0,0,2,0,10.8212838295141,106.6947550813168
/ho-chi-minh/nem-nuong-cam-ranh-dien-bien-phu/binh-luan,Nem Nướng Cam Ranh - Điện Biên Phủ,"27/71 Điện Biên Phủ, P. 15",15,1150699,2,9.666,7,0,3,0,11,3,10.7950072,106.6996263
/ho-chi-minh/bun-mam-nem-phan-rang-vo-duy-ninh/binh-luan,Bún Mắm Nêm Phan Rang - Võ Duy Ninh,"3 Võ Duy Ninh, P. 22",15,1150666,2,0.0,0,0,0,0,2,0,10.7916434397502,106.7144154898512
/ho-chi-minh/an-vat-w-food-bui-huu-nghia/binh-luan,Ăn Vặt W Food - Bùi Hữu Nghĩa,"295/22D Bùi Hữu Nghĩa, P. 1",15,1017993,2,10.0,7,0,1,2,294,2,10.7992755,106.6989506
/ho-chi-minh/henry-food-bun-thai-cay-lau-ung-van-khiem/binh-luan,Henry Food - Bún Thái Cay & Lẩu - Ung Văn Khiêm,"31/40/6 Ung Văn Khiêm, P. 25",15,1000000026,2,10.0,14,3,1,2,344,1,10.8095908,106.7152996
/ho-chi-minh/goi-bo-kho-dien-bien-phu/binh-luan,Gỏi Bò Khô - Điện Biên Phủ,319	Điện Biên Phủ,15,204991,2,10.0,2,0,1,14,1528,2,10.801392,106.709382
/ho-chi-minh/bao-boi-banh-flan-an-vat-phu-yen-shop-online/binh-luan,Bảo Bối - Bánh Flan & Ăn Vặt Phú Yên - Shop Online,"007 Lô 2 Cư Xá Thanh Đa, P. 27",15,1036882,2,10.0,26,1,2,2,65,0,10.818075,106.715912
/ho-chi-minh/ca-phe-oanh-tang-bat-ho/binh-luan,Cà Phê Oanh - Tăng Bạt Hổ,"4A Tăng Bạt Hổ, P. 11",15,142403,2,10.0,11,0,1,1,353,2,10.8104912,106.6925119999999
/ho-chi-minh/good-chicken-ga-ran-han-quoc-39-nguyen-gia-tri/binh-luan,Good Chicken - Gà Rán Hàn Quốc - 39 Nguyễn Gia Trí,"39 Nguyễn Gia Trí, P. 25",15,930190,2,10.0,8,1,1,2,252,1,10.805798,106.715999
/ho-chi-minh/banh-hoi-binh-dinh/binh-luan,Bánh Hỏi Bình Định,"10 Đường Trục, P. 13",15,740806,2,10.0,5,0,1,2,528,1,10.824926,106.703385
/ho-chi-minh/co-ba-lam-cha-ram-tom-binh-dinh-nguyen-thien-thuat/binh-luan,Cô Ba Lâm - Chả Ram Tôm Đất Bình Định - Nguyễn Thiện Thuật,"20/38A Nguyễn Thiện Thuật, P. 24",15,1038873,2,10.0,1,0,3,3,153,0,10.8050433,106.6992871
/ho-chi-minh/co-ut-banh-trang-melbourne-in-saigon-nguyen-huu-canh/binh-luan,Cô Út Bánh Tráng Melbourne In Saigon - Nguyễn Hữu Cảnh,"66 Nguyễn Hữu Cảnh, P. 22",15,1139784,2,10.0,3,1,3,1,52,0,10.7891683,106.7159063
/ho-chi-minh/bona-coffee/binh-luan,Bona Coffee,351 Bình Lợi,15,784052,2,10.0,31,0,1,0,151,3,10.8366549,106.7018456
/ho-chi-minh/tea-bag-tra-chanh-an-vat/binh-luan,Tea Bag - Trà Chanh & Ăn Vặt,"208 Bình Lợi, P. 13",15,751533,2,10.0,4,0,1,2,83,1,10.833863,106.704334
/ho-chi-minh/vina-chuoi-xo-viet-nghe-tinh/binh-luan,Vina Chuối - Xô Viết Nghệ Tĩnh,"47 Xô Viết Nghệ Tĩnh, P. 17",15,1126566,2,10.0,3,0,1,1,90,2,10.7934122,106.7077133
/ho-chi-minh/bun-bo-hue-xua-tran-trong-kim/binh-luan,Bún Bò Huế Xưa - Trần Trọng Kim,"56 Trần Trọng Kim, P. 22",15,287708,2,7.052,346,0,223,94,9824,30,10.7958053,106.7224819
/ho-chi-minh/tocotoco-bubble-tea-d2-nguyen-gia-tri/binh-luan,TocoToco Bubble Tea D2 - Nguyễn Gia Trí,"128 Nguyễn Gia Trí, P. 25",15,658426,2,6.992,424,0,217,42,10311,33,10.8052294,106.7160372
/ho-chi-minh/banh-canh-ghe-cau-bong/binh-luan,Bánh Canh Ghẹ - Cầu Bông,"2 Lê Văn Duyệt, P. 1",15,1083,2,5.886,432,0,213,140,54101,75,10.7942333,106.6962872
/ho-chi-minh/royaltea-tra-sua-hong-kong-bach-dang/binh-luan,Royaltea - Trà Sữa Hồng Kông - Bạch Đằng,"427 Bạch Đằng, P. 15",15,691375,2,4.8,798,0,213,39,16864,24,10.8033965409228,106.7028960285403
/ho-chi-minh/sup-cua-trang/binh-luan,Súp Cua Trang,"210 Vạn Kiếp, P.3",15,28584,2,6.536,307,0,114,325,56486,33,10.798099,106.6937078
/ho-chi-minh/dalat-foods-nguyen-van-nguyen/binh-luan,Dalat Foods - Bánh Tráng Nướng & Bánh Căn,"118/118 Bạch Đằng, P. 24",15,103887,2,6.742,223,0,55,294,56064,24,10.804635,106.707803
/ho-chi-minh/tra-chanh-hotdog-hang-xanh-323-dien-bien-phu/binh-luan,Trà Chanh Hotdog Hàng Xanh - 323 Điện Biên Phủ,"323 Điện Biên Phủ, P. 15",15,98922,2,7.294,293,0,93,286,60658,37,10.801319,106.709783
/ho-chi-minh/banh-cuon-trung-van-kiep/binh-luan,Bánh Cuốn Trứng - 55/19 Vạn Kiếp,"55/19 Vạn Kiếp, P. 3",15,107600,2,7.6,306,0,89,281,37016,32,10.800546,106.693835
/ho-chi-minh/an-vat-ha-cao-hong-kong-van-kiep/binh-luan,Ăn Vặt - Há Cảo Hong Kong - Vạn Kiếp,"159 Vạn Kiếp, P. 3",15,103942,2,7.574,276,0,111,257,65022,22,10.79807,106.69397
/ho-chi-minh/mup-cake-nguyen-huu-canh/binh-luan,Mup Cake - Nguyễn Hữu Cảnh,"180/45/13 Nguyễn Hữu Cảnh, P. 22",15,164750,2,8.138,239,0,107,256,20485,25,10.794644,106.7193
/ho-chi-minh/bun-bbq-house/binh-luan,Bún BBQ House - Nguyễn An Ninh,"22 Nguyễn An Ninh, P. 14",15,169906,2,7.638,655,0,164,244,29012,29,10.8051366,106.6944533
/ho-chi-minh/co-thanh-ca-ri-ga-mi-vit-tiem/binh-luan,Cô Thanh - Cà Ri Gà & Mì Vịt Tiềm,"284 Hoàng Hoa Thám, P. 5",15,918736,2,0.0,1,0,0,0,47,0,10.809975,106.684099
/ho-chi-minh/bun-bo-hue-su-beo-hoang-hoa-tham-hoang-hoa-tham.mvob3k/binh-luan,Bún Bò Huế - Su Béo Hoàng Hoa Thám - Hoàng Hoa Thám,"189/2/8 Hoàng Hoa Thám, P. 6",15,1000034340,2,0.0,0,0,0,0,13,0,10.8096731,106.6840996
/ho-chi-minh/ca-phe-diem-tam/binh-luan,Cà Phê & Điểm Tâm,"214 Nguyễn Thượng Hiền, P. 5",15,724614,2,0.0,5,0,0,0,37,0,10.8080649,106.684015
/ho-chi-minh/banh-canh-cha-ca-nha-trang-hoang-hoa-tham/binh-luan,Bánh Canh Chả Cá Nha Trang - Hoàng Hoa Thám,205D Hoàng Hoa Thám,15,708564,2,7.4,6,1,1,1,137,0,10.809692,106.68413
/ho-chi-minh/bun-thit-nuong-105/binh-luan,Bún Thịt Nướng 105,"105 Nguyễn Thượng Hiền, P. 5",15,723969,2,0.0,6,0,0,0,108,0,10.8106091,106.6841833
/ho-chi-minh/nha-nha-bakery/binh-luan,Nha Nha Bakery,"105C Nguyễn Thượng Hiền, P. 5",15,733361,2,5.632,37,0,6,8,631,2,10.810657,106.684189
/ho-chi-minh/an-vat-267/binh-luan,Ăn Vặt 267,"267 Nguyễn Thượng Hiền, P. 6",15,1031614,2,0.0,0,0,0,0,18,0,10.806886,106.683981
/ho-chi-minh/hai-ky-bo-kho-ca-ri-ga-pha-lau-bo/binh-luan,"Hải Ký - Bò Kho, Cà Ri Gà & Phá Lấu Bò","111 Nguyễn Thượng Hiền, P. 5",15,1013066,2,0.0,0,2,0,0,211,0,10.8103075,106.6841785
/ho-chi-minh/pho-hoa-hoang-hoa-tham/binh-luan,Phở Hoà - Hoàng Hoa Thám,"216 Hoàng Hoa Thám, P. 5",15,787043,2,0.0,5,0,0,0,131,0,10.8102069,106.6841783
/ho-chi-minh/hau-ka-nguyen-thuong-hien/binh-luan,Hàu Ka - Nguyễn Thượng Hiền,"159 Nguyễn Thượng Hiền, P. 6",15,1145366,2,0.0,0,2,0,0,2,0,10.8079864324304,106.684068998995
/ho-chi-minh/banh-trang-boc-co-dao/binh-luan,Bánh Tráng Bóc Cô Đào,"181/9B Nguyễn Thượng Hiền, P. 6",15,265199,2,7.612,118,0,17,22,1241,1,10.806995,106.684056
/ho-chi-minh/bot-chien-quoc-khiem/binh-luan,Bột Chiên Quốc Khiêm,192 Nguyễn Thượng Hiền,15,784762,2,0.0,1,1,0,0,58,0,10.8086614088406,106.6841517761349
/ho-chi-minh/com-tam-321/binh-luan,Cơm Tấm 321,"333 - 335 Lê Quang Định, P. 5",15,7834,2,5.236,95,0,38,32,11018,22,10.811903,106.6904064
/ho-chi-minh/chao-trang-hang-xanh/binh-luan,Cháo Trắng Hàng Xanh,"283 Xô Viết Nghệ Tĩnh, P. 25",15,15084,2,6.452,179,0,53,132,22217,14,10.8022348,106.7113004
/ho-chi-minh/thanh-dat-hu-tieu-nam-vang-nguyen-gia-tri/binh-luan,Thành Đạt - Hủ Tiếu Nam Vang - Nguyễn Gia Trí,"168 Nguyễn Gia Trí, P. 25",15,1129122,2,0.0,0,0,0,0,127,0,10.8063452,106.7171041
/ho-chi-minh/wow-chicken-ga-ran-com-ga-nguyen-huu-canh/binh-luan,Wow Chicken - Gà Rán & Cơm Gà - Nguyễn Hữu Cảnh,"135/1/138 Nguyễn Hữu Cảnh, P. 22",15,1047814,2,9.2,3,1,1,3,344,0,10.7964546,106.7164152
/ho-chi-minh/huong-ky-10-com-chien-18-mon-178-ung-van-khiem/binh-luan,Hương Ký 10 - Cơm Chiên 18 Món - 178 Ung Văn Khiêm,"178 Ung Văn Khiêm, P. 25",15,1135745,2,0.0,0,0,0,0,20,0,10.806343,106.720047
/ho-chi-minh/soc-tra-sua-an-vat/binh-luan,Sóc - Trà Sữa & Ăn Vặt,"261/24 Chu Văn An, P. 12",15,106263,2,9.52,5,30,5,15,6557,9,10.810316,106.701397
/ho-chi-minh/com-tam-phuc-loc-tho-no-trang-long/binh-luan,Cơm Tấm Phúc Lộc Thọ - Nơ Trang Long,"478 Nơ Trang Long, P. 13",15,994482,2,7.414,19,0,13,3,858,7,10.82005,106.70391
/ho-chi-minh/koi-the-cafe-viet-nam-pearl-plaza/binh-luan,KOI Thé - Pearl Plaza,"L1-01 Pearl Plaza, 561A Điện Biên Phủ, P. 25",15,300648,2,7.49,603,0,167,104,17541,55,10.7999104,106.7184609
/ho-chi-minh/moc-vi-quan-mi-quang-com-dia-nong-nguyen-gia-tri/binh-luan,Mộc Vị Quán - Mì Quảng & Cơm Dĩa Nóng - Nguyễn Gia Trí,"160 Nguyễn Gia Trí, P. 25",15,1021929,2,8.476,311,1,92,91,2645,2,10.805643,106.7161579
/ho-chi-minh/krua-thai-goi-thai/binh-luan,Krua Thái - Gỏi Thái - Huỳnh Đình Hai,42 Huỳnh Đình Hai,15,934120,2,7.898,169,0,86,179,9000,13,10.8041799,106.6985196
/ho-chi-minh/thuy-truc-cafe/binh-luan,Thủy Trúc Cafe - Cafe Sân Vườn,"197 Đinh Bộ Lĩnh, P. 26",15,1606,2,6.85,155,0,49,44,33152,35,10.810159,106.709164
/ho-chi-minh/saphire-tiec-cuoi-hoi-nghi/binh-luan,Saphire - Tiệc Cưới & Hội Nghị,"526 Điện Biên Phủ, P. 21",15,2121,2,7.736,538,0,55,7,58208,13,10.800638,106.714926
/ho-chi-minh/faa-coffee/binh-luan,The Cara House Coffee,153 Chu Văn An,15,118508,2,7.21,278,0,45,111,62033,32,10.8106508,106.706644
/ho-chi-minh/quan-thai-joy-mi-pad-thai/binh-luan,Quán Thai Joy - Mì & Pad Thái,"7B Hoàng Hoa Thám, P. 6",15,656392,2,6.806,260,0,51,234,5907,10,10.804284,106.691831
/ho-chi-minh/tocotoco-bubble-tea-nguyen-van-dau/binh-luan,TocoToco Bubble Tea - Nguyễn Văn Đậu,"160A Nguyễn Văn Đậu, P. 7",15,711866,2,7.716,107,0,82,14,3024,12,10.809793,106.6897259
/ho-chi-minh/ritaki-khoai-lang-mat-nguyen-cong-tru/binh-luan,Ritaki - Khoai Lang Mật - Nguyễn Công Trứ,"114  Nguyễn Công Trứ, P. 19",15,1014422,2,9.876,8,8,98,72,1142,15,10.792884,106.710456
/ho-chi-minh/tra-sua-tien-huong-dinh-tien-hoang/binh-luan,Trà Sữa Tiên Hưởng - Đinh Tiên Hoàng,"86 Đinh Tiên Hoàng, P. 1",15,38301,2,6.766,177,0,57,44,11153,16,10.796043,106.696177
/ho-chi-minh/bun-bo-hue-xua-vinhomes-tan-cang/binh-luan,Bún Bò Huế Xưa - Vinhomes Tân Cảng,"722 Điện Biên Phủ, P. 22",15,904149,2,7.62,53,1,82,11,1248,21,10.79649,106.722946
/ho-chi-minh/banh-trang-nuong-nhiet-2-dien-bien-phu/binh-luan,Bánh Tráng Nướng Nhiệt 2 - Điện Biên Phủ,"101/4 Điện Biên Phủ, P. 15",15,136390,2,7.514,205,0,34,149,23091,23,10.7960162,106.707024
/ho-chi-minh/mon-ngon-ranh/binh-luan,Món Ngon Rảnh,5/49/10 Nơ Trang Long,15,49044,2,7.594,269,0,32,111,51141,25,10.805891,106.693911
/ho-chi-minh/bep-heo-van-xoi-ga-hamburger-binh-loi.cvgpm4/binh-luan,Bếp Heo Vân - Xôi Gà & Hamburger - Bình Lợi,"Hẻm 64 Bình Lợi, P. 13",15,1000056575,2,0.0,0,0,0,0,4,0,10.8282484,106.7069436
/ho-chi-minh/an-vat-phan-thiet-quoc-lo-13/binh-luan,Ăn Vặt Phan Thiết - Quốc Lộ 13," 204/16/15 Quốc Lộ 13, P. 26",15,1147750,2,0.0,0,0,0,0,6,0,10.816021,106.714703
/ho-chi-minh/banh-mi-kebab-thanh-phong-nguyen-van-dau/binh-luan,Bánh Mì Kebab Thanh Phong - Nguyễn Văn Đậu,"67 Nguyễn Văn Đậu, P. 6",15,1147430,2,0.0,0,0,0,0,3,0,10.8082464,106.6877739
/ho-chi-minh/quan-bun-cha-ha-noi-bun-thit-nuong-chuan-vi-bac/binh-luan,Quán Bún Chả Hà Nội - Bún Thịt Nướng Chuẩn Vị Bắc,"117/80/5 Nguyễn Hữu Cảnh, P. 22",15,1146039,2,0.0,0,0,0,0,1,0,10.7948129,106.7157442
/ho-chi-minh/phindeli-cafe-152-dien-bien-phu/binh-luan,PhinDeli Café 152 Điện Biên Phủ,"152 Điện Biên Phủ, P. 25",15,1145464,2,0.0,0,0,0,0,4,0,10.8003872,106.7178816
/ho-chi-minh/ga-nuong-ga-quay-banh-bao-68-le-quang-dinh/binh-luan,Gà Nướng & Gà Quay Bánh Bao 68 - Lê Quang Định,"435 Lê Quang Định, P. 5",15,1145227,2,0.0,0,0,0,0,5,0,10.815336,106.689043
/ho-chi-minh/tra-sua-an-vat-co-ba-chi/binh-luan,Trà Sữa Ăn Vặt - Cô Ba Chi,"125/58 Lê Văn Duyệt, P. 3",15,1144012,2,0.0,0,0,0,0,4,0,10.800462,106.6952928
/ho-chi-minh/ha-anh-pizza-banh-trang-tron-an-vat-ung-van-khiem/binh-luan,"Hà Anh - Pizza, Bánh Tráng Trộn & Ăn Vặt - Ung Văn Khiêm","289/1 Ung Văn Khiêm, P. 25",15,1143211,2,0.0,0,0,0,0,3,0,10.8023842,106.7230166
/ho-chi-minh/chicken-family-ga-u-muoi-dang-thuy-tram/binh-luan,Chicken Family - Gà Ủ Muối - Đặng Thùy Trâm,"20/1/17 Đặng Thùy Trâm, P. 13",15,1140128,2,0.0,0,0,0,0,12,0,10.826075,106.703765
/ho-chi-minh/quan-chay-bon-s-vegan-banh-mi-sua-hat-nguyen-van-thuong/binh-luan,Quán Chay Bon's Vegan - Bánh Mì & Sữa Hạt - Nguyễn Văn Thương,"81 Nguyễn Văn Thương, P. 25",15,1138209,2,0.0,0,0,0,0,35,0,10.8022546,106.7190752
/ho-chi-minh/9-rau-ga-ran-pizza-hamburger/binh-luan,"9 Râu - Gà Rán, Pizza & Hamburger","1B Phan Đăng Lưu, P. 3",15,1000053219,2,0.0,0,0,0,0,25,0,10.801087,106.6955512
/ho-chi-minh/quan-98-bun-xao-chay-ca-phe-van-kiep/binh-luan,Quán 98 - Bún Xào Chay & Cà Phê - Vạn Kiếp,"21/6 Vạn Kiếp, P. 3",15,1078300,2,0.0,0,1,0,1,60,0,10.8018676,106.6935797
/ho-chi-minh/vu-tru-mi-tron-nguyen-gia-tri/binh-luan,Vũ Trụ Mì Trộn - Nguyễn Gia Trí,"213/9 Nguyễn Gia Trí, P.25",15,1123503,2,0.0,0,0,0,0,36,0,10.80685,106.71555
/ho-chi-minh/xuan-ki-mi-gia-hu-tieu-suon-vo-duy-ninh/binh-luan,Xuân Kí Mì Gia - Hủ Tiếu Sườn - Võ Duy Ninh,"113/25 Võ Duy Ninh, P. 22",15,790797,2,0.0,0,1,0,0,148,0,10.795099,106.718052
/ho-chi-minh/banh-cuon-430-le-quang-dinh/binh-luan,Bánh Cuốn 430 - Lê Quang Định,"430 Lê Quang Định, P. 11",15,929453,2,9.084,42,0,19,19,419,17,10.81178,106.690697
/ho-chi-minh/banh-cuon-nong-binh-dan-xo-viet-nghe-tinh/binh-luan,Bánh Cuốn Nóng Bình Dân - Xô Viết Nghệ Tĩnh,"117/28 Xô Viết Nghệ Tĩnh, P. 17",15,1067993,2,9.3,0,0,2,0,77,0,10.794872154998,106.7083921838365
/ho-chi-minh/banh-cuon-nong-banh-uot-ung-van-khiem/binh-luan,Bánh Cuốn Nóng & Bánh Ướt - Ung Văn Khiêm,"172 Ung Văn Khiêm, P. 25",15,948174,2,0.0,0,1,0,0,126,0,10.806393,106.719988
/ho-chi-minh/tini-banh-bot-loc-che-buoi-banh-flan-shop-online/binh-luan,"Tini - Bánh Bột Lọc, Chè Bưởi & Bánh Flan - Shop Online","245/33 C2 Xô Viết Nghệ Tĩnh, P. 17",15,1020615,2,8.718,27,0,17,13,528,0,10.8009,106.7108887
/ho-chi-minh/tuan-hoa-banh-muot-nghe-an-banh-cuon-ha-noi/binh-luan,Tuấn Hoa - Bánh Mướt Nghệ An & Bánh Cuốn Hà Nội,"201/34 Nguyễn Xí, P. 26",15,1060280,2,9.6,2,0,1,1,230,0,10.814703,106.706992
/ho-chi-minh/an-uong-vat-cuong-ngan-pho-duc-chinh/binh-luan,Ăn Uống Vặt Cường Ngân - Phó Đức Chính,"82 Phó Đức Chính, P. 1",15,968575,2,1.0,2,4,1,2,117,0,10.798982,106.696628
/ho-chi-minh/quan-pho-hien-xo-viet-nghe-tinh/binh-luan,Quán Phở Hiền - Xô Viết Nghệ Tĩnh,"452 Xô Viết Nghệ Tĩnh, P. 25",15,152169,2,7.512,32,0,7,15,1943,1,10.807032,106.711582
/ho-chi-minh/di-linh-farm-cafe-bistro/binh-luan,Di Linh Farm - Café & Bistro,"443 Điện Biên Phủ, P. 25",15,1065294,2,8.4,3,0,1,0,137,0,10.801796,106.713417
/ho-chi-minh/ion-coffee-more-tra-sua-ca-phe-phan-chu-trinh/binh-luan,Ion Coffee & More - Trà Sữa & Cà Phê - Phan Chu Trinh,"143 Phan Chu Trinh, P. 12",15,1127486,2,0.0,2,0,0,0,38,1,10.8155464,106.700659
/ho-chi-minh/com-nieu-ca-kho-to-lang-tre-5-le-quang-dinh/binh-luan,Cơm Niêu Cá Kho Tộ Làng Tre 5 - Lê Quang Định,"412 Lê Quang Định, P. 11",15,1127004,2,0.0,0,0,0,0,57,0,10.8117824,106.6909334
/ho-chi-minh/totocha-tra-banh/binh-luan,ToToCha - Trà & Bánh,"130 Nguyễn Gia Trí, P. 25",15,1126405,2,0.0,0,0,0,0,175,0,10.8049946,106.7159796
/ho-chi-minh/lau-nha-cay-bui-dinh-tuy/binh-luan,Lẩu Nhà Cây - Bùi Đình Túy,"199 Bùi Đình Túy, P. 12",15,1124143,2,7.6,0,2,1,0,83,0,10.8076759844504,106.703192757635
/ho-chi-minh/az-tra-sua-che-khuc-bach-bui-dinh-tuy/binh-luan,AZ - Trà Sữa & Chè Khúc Bạch - Bùi Đình Túy,"223 Bùi Đình Túy, P. 24",15,1125799,2,0.0,0,0,0,0,40,0,10.80671,106.70275
/ho-chi-minh/young-young-mon-an-han-quoc-tokbokki-va-kimbap-vu-huy-tan/binh-luan,Young Young Món Ăn Hàn Quốc - Tokbokki Và Kimbap - Vũ Huy Tấn,19M Vũ Huy Tấn P. 3,15,1125872,2,0.0,0,2,0,2,307,0,10.795682,106.6942976
/ho-chi-minh/sinh-to-co-chin/binh-luan,Sinh Tố Cô Chín,"602/12 Điện Biên Phủ, P. 22",15,984547,2,8.5,10,2,2,4,642,1,10.7989126,106.7178055
/ho-chi-minh/tra-sua-maycha-dien-bien-phu/binh-luan,Trà Sữa Maycha - Điện Biên Phủ,"479 Điện Biên Phủ, P. 25",15,1125804,2,1.0,6,0,1,0,144,0,10.8016897,106.7145844
/ho-chi-minh/tuta-food-banh-que-minh/binh-luan,Tuta Food - Bánh Quê Mình,264/24 Lê Quang Định P. 11 ,15,1125546,2,0.0,0,2,0,1,30,0,10.8087254307901,106.6947131719361
/ho-chi-minh/bun-moc-bo-kho-hang-xanh-361-dien-bien-phu/binh-luan,Bún Mọc & Bò Kho Hàng Xanh 361 - Điện Biên Phủ,"361 Điện Biên Phủ, P. 15",15,1125019,2,0.0,0,0,0,0,21,0,10.8016177,106.7106557
/ho-chi-minh/lau-nhu-xuan-lau-mam-lau-tom-cang/binh-luan,Lẩu Như Xuân - Lẩu Mắm & Lẩu Tôm Càng,"125/69 Nguyễn Văn Thương, P. 25",15,1124620,2,0.0,0,0,0,0,35,0,10.80167,106.7190522
/ho-chi-minh/quan-3-anh-em-lau-ga-noi-mien-tay/binh-luan,Quán 3 Anh Em - Lẩu Gà Nòi Miền Tây,"659 Điện Biên Phủ, P. 25",15,741353,2,0.0,11,4,0,1,468,0,10.799167,106.72141
/ho-chi-minh/nini-snack-corner-mon-an-han-quoc-xo-viet-nghe-tinh/binh-luan,Nini Snack Corner - Món Ăn Hàn Quốc - Xô Viết Nghệ Tĩnh,"685/30/54A Xô Viết Nghệ Tĩnh, P. 26",15,218640,2,7.896,382,0,42,109,6618,9,10.8140376,106.7150797
/ho-chi-minh/com-ga-xoi-mo-thanh-duoc-bach-dang/binh-luan,Cơm Gà Xối Mỡ Thanh Được - Bạch Đằng,7 Bạch Đằng,15,11211,2,6.866,43,0,9,19,3944,1,10.802698,106.711011
/ho-chi-minh/bot-healthy-food-shop-online/binh-luan,Bột - Healthy Food - Shop Online,"87/53A Lê Văn Duyệt, P. 3",15,907668,2,7.416,211,2,80,124,5103,11,10.7969832,106.6951127
/ho-chi-minh/co-sen-com-ga-xoi-mo-bun-bo-hue-shop-online/binh-luan,Cô Sen - Cơm Gà Xối Mỡ & Bún Bò Huế - Shop Online,"140/34 Điện Biên Phủ, P. 17",15,893664,2,7.886,38,0,14,27,1613,1,10.7959046,106.7039048
/ho-chi-minh/ngoc-tram-nem-nuong-bun-ca-nha-trang/binh-luan,Ngọc Trâm - Nem Nướng & Bún Cá Nha Trang,"468 Lê Quang Định, P. 11",15,7924,2,6.668,64,0,21,44,8600,5,10.813672,106.689907
/ho-chi-minh/thien-tinh-com-chay/binh-luan,Thiền Tịnh - Cơm Chay,"25 Vũ Huy Tấn, P. 3",15,168195,2,6.644,99,0,32,49,10072,10,10.795267,106.693062
/ho-chi-minh/the-alley-tra-sua-dai-loan-nguyen-gia-tri/binh-luan,The Alley - Trà Sữa Đài Loan - Nguyễn Gia Trí,"91 Nguyễn Gia Trí (Đường D2), P. 25",15,765621,2,6.41,115,0,41,15,4797,5,10.803777,106.715819
/ho-chi-minh/minh-tam-xoi-bap-ga-shop-online/binh-luan,Xôi Bắp Gà Minh Tâm,"35 Phan Bội Châu, P. 14",15,774559,2,6.362,103,11,41,122,5127,0,10.8040942,106.699975
/ho-chi-minh/vitaminee-sinh-to-nuoc-ep/binh-luan,Vitaminee Trái Cây - Sinh Tố & Nước Ép,"95/4 Tân Cảng, P. 25",15,49140,2,6.61,623,0,97,233,41513,51,10.80128,106.721097
/ho-chi-minh/o-bistro-nguyen-gia-tri-binh-thanh-steakhouse-pasta-bar/binh-luan,"Ơ BISTRO Nguyễn Gia Trí Bình Thạnh - Steakhouse, Pasta & Bar","157/1A Nguyễn Gia Trí (Đường D2), P. 25",15,880812,2,8.63,833,0,153,199,12267,9,10.8056277,106.7149802
/ho-chi-minh/bun-mam-444/binh-luan,Bún Mắm 444 - Lê Quang Định,"375 Lê Quang Định, P. 5",15,21033,2,6.964,554,0,179,190,46202,57,10.8130309,106.6898605
/ho-chi-minh/vintage-coffee-dinh-tien-hoang/binh-luan,The Vintage Coffee,"136A Đinh Tiên Hoàng, P. 1",15,152438,2,7.608,418,0,67,114,66081,40,10.7995864,106.696493
/ho-chi-minh/love-sweet-tiem-banh-online/binh-luan,Love Sweet - Tiệm Bánh Online,"91 Nguyễn Hữu Cảnh, P. 22",15,96534,2,6.6,130,0,19,168,62944,22,10.794035,106.717989
/ho-chi-minh/lady-hau-dining-cruise/binh-luan,Victoria Cruis - Lady Hau ,"100A Ung Văn Khiêm, P. 25",15,106924,2,8.292,388,0,15,134,62034,17,10.804488,106.72133
/ho-chi-minh/quan-162-mon-nuong/binh-luan,Quán 162 - Món Nướng,"160 Ngô Tất Tố, P. 22",15,99055,2,7.552,76,0,8,79,59877,11,10.7898008,106.715942
/ho-chi-minh/pug-milk-tea-fast-food/binh-luan,Pug Milk Tea & Fast Food,"22 Vũ Huy Tấn, P. 3",15,84718,2,7.6,99,0,20,79,58457,34,10.795794,106.695339
/ho-chi-minh/than-tai-coffee-tra-sua-banh-trang-tron-top-mo-dien-bien-phu/binh-luan,Thần Tài Coffee - Trà Sữa & Bánh Tráng Trộn Tóp Mỡ - Điện Biên Phủ,"71/28/13 Điện Biên Phủ, P. 15",15,1150651,2,0.0,0,0,0,0,1,0,10.796696,106.701802
/ho-chi-minh/an-vat-88-le-van-duyet/binh-luan,Ăn Vặt 88 - Lê Văn Duyệt,"14 Lê Văn Duyệt, P. 1",15,1150611,2,0.0,0,0,0,0,1,0,10.7945315,106.6962499
/ho-chi-minh/salmon-world-sashimi-sushi-tang-bat-ho/binh-luan,Salmon World - Sashimi & Sushi - Tăng Bạt Hổ,"36/2/2 Tăng Bạt Hổ, P. 11",15,1150609,2,0.0,0,0,0,0,2,0,10.8111188,106.6928788
/ho-chi-minh/the-good-cup-8-32-dinh-bo-linh/binh-luan,The Good Cup - 8/32 Đinh Bộ Lĩnh,"8/32 Đinh Bộ Lĩnh, P. 24",15,1150588,2,0.0,0,0,0,0,1,0,10.8044414,106.7105246
/ho-chi-minh/bep-cua-ngoai-com-chien-mi-nui-xao-ung-van-khiem/binh-luan,"Bếp Của Ngoại - Cơm Chiên, Mì & Nui Xào - Ung Văn Khiêm","42/26H Ung Văn Khiêm, P. 25",15,1150549,2,0.0,0,0,0,0,2,0,10.8080689,106.7129504
/ho-chi-minh/tra-sua-luxury-binh-loi/binh-luan,Trà Sữa Luxury - Bình Lợi,"58B Bình Lợi, P. 13",15,1150546,2,0.0,0,0,0,0,1,0,10.827724,106.706217
/ho-chi-minh/mi-xao-bo-nui-xao-bo-be-sa-le-van-duyet/binh-luan,Mì Xào Bò & Nui Xào Bò Bé Sa - Lê Văn Duyệt,"95/189 Lê Văn Duyệt, P. 3",15,1000058031,2,0.0,0,0,0,0,2,0,10.7983049,106.6948479
/ho-chi-minh/banh-canh-cua-trang-hoang-hoa-tham/binh-luan,Bánh Canh Cua Trang - Hoàng Hoa Thám,"187A Hoàng Hoa Thám, P. 6",15,1150518,2,0.0,0,0,0,0,3,0,10.8088346,106.6862502
/ho-chi-minh/banh-croffle-bo-trung-muoi-hotdog-pho-mai-tra-sua-nha-co-ba/binh-luan,"Bánh Croffle Bơ Trứng Muối, Hotdog Phô Mai & Trà Sữa - Nhà Cô Ba","64/22A Vũ Tùng, P. 2",15,1150517,2,0.0,0,0,0,0,3,0,10.8013818,106.700828
/ho-chi-minh/mo-ba-chao-ech-singapore-cac-mon-oc-nguyen-cuu-van/binh-luan,Mợ Ba - Cháo Ếch Singapore & Các Món Ốc -  Nguyễn Cửu Vân,"75/12 Nguyễn Cửu Vân, P. 17",15,1150516,2,0.0,0,0,0,0,1,0,10.795679,106.7078798
/ho-chi-minh/oppa-kitchen-banh-ran-han-quoc-hotteok-nguyen-gia-tri/binh-luan,Oppa Kitchen - Bánh Rán Hàn Quốc Hotteok - Nguyễn Gia Trí,"37 Nguyễn Gia Trí, P. 25",15,1147869,2,10.0,6,0,1,1,20,1,10.8065448,106.716211
/ho-chi-minh/pho-chau/binh-luan,Phở Châu,"002 Lô P, Cư Xá Thanh Đa, P. 27",15,775273,2,10.0,6,0,1,1,124,1,10.815969,106.721137
/ho-chi-minh/tre-tron-coc-giang-hoang-nguyen-hong/binh-luan,Tré Trộn Cóc Giang Hoàng - Nguyên Hồng,"118 Nguyên Hồng, P. 11",15,1036760,2,10.0,2,1,1,7,463,1,10.8167558,106.6950012
/ho-chi-minh/tra-sua-mey-tea-nguyen-van-dau/binh-luan,Trà Sữa MEY TEA - Nguyễn Văn Đậu,"233 Nguyễn Văn Đậu, P. 11",15,1135985,2,10.0,23,0,3,0,45,0,10.8125327,106.6931811
/ho-chi-minh/che-bong-10k/binh-luan,Chè Bông 10K,6 Nguyễn Cửu Vân,15,709861,2,10.0,5,0,1,1,496,1,10.7951771018838,106.7087063938379
/ho-chi-minh/hello-coffee-ngo-tat-to/binh-luan,Hello Coffee - Ngô Tất Tố,"142/2 Ngô Tất Tố, P. 22",15,1033445,2,10.0,5,0,1,1,55,1,10.790153,106.715596
/ho-chi-minh/tra-sua-bb-nguyen-huu-canh.uyr8tc/binh-luan,Trà Sữa BB - Nguyễn Hữu Cảnh,"49 Nguyễn Hữu Cảnh, P. 22",15,1000044294,2,10.0,4,0,4,0,35,0,10.7913464,106.7179873
/ho-chi-minh/banh-ca-taiyaki-nguyen-xi/binh-luan,Bánh Cá Taiyaki - Nguyễn Xí,"430 Nguyễn Xí, P. 13",15,1066835,2,10.0,0,0,5,2,130,0,10.8239142,106.7022616
/ho-chi-minh/queen-tea-tra-sua-giai-khat/binh-luan,Queen Tea - Trà Sữa & Giải Khát,5B Hoàng Hoa Thám,15,793586,2,10.0,4,0,2,0,104,1,10.8044816,106.6917344
/ho-chi-minh/tra-sua-to-mup/binh-luan,Trà Sữa Tô Mụp,"Chung Cư 1050 Chu Văn An, 4 Phan Chu Trinh",15,718057,2,10.0,7,0,2,1,133,0,10.8156496668534,106.7016062512994
/ho-chi-minh/chocomilo-milo-da-bao/binh-luan,Chocomilo - Milo Đá Bào,"534/1 Điện Biên Phủ, P. 21",15,1079777,2,10.0,3,0,2,2,98,0,10.8005157,106.7139401
/ho-chi-minh/a-hung-ken-com-ga-xoi-mo/binh-luan,A Hùng Ken - Cơm Gà Xối Mỡ,"30H Phan Chu Trinh, P. 24",15,948698,2,10.0,1,0,2,0,263,1,10.8057037,106.7034392
/ho-chi-minh/ngo-do-bakery-banh-bo-thot-not-nguyen-son/binh-luan,Ngô Đỏ Bakery - Bánh Bò Thốt Nốt Nguyễn Sơn,"118/164 Bạch Đằng, P. 24",15,712585,2,1.892,168,0,167,54,3969,3,10.804918,106.707917
/ho-chi-minh/lavida-tra-sua-ca-phe-nguyen-gia-tri/binh-luan,Lavida - Trà Sữa & Cà Phê - Nguyễn Gia Trí,"19B Nguyễn Gia Trí (Đường D2), P. 25",15,284605,2,6.318,548,0,164,50,10373,25,10.802023,106.715606
/ho-chi-minh/banh-bao-chien-hoang-hoa-tham/binh-luan,Bánh Bao Chiên - Hoàng Hoa Thám,"20 Hoàng Hoa Thám , P. 7",15,95035,2,6.976,83,0,42,231,53655,25,10.8054299708725,106.6911557319412
/ho-chi-minh/hau-nuong-10k/binh-luan,Hàu Nướng 10k,"68 Phan Xích Long, P. 3",15,88887,2,6.42,343,0,72,224,27515,13,10.797373,106.693396
/ho-chi-minh/sup-cua-le-quang-dinh/binh-luan,Súp Cua & Bún Nem Cua Bể - Lê Quang Định,278 Lê Quang Ðịnh,15,10439,2,6.654,158,0,66,222,54833,49,10.8087847604388,106.6944456137694
/ho-chi-minh/luong-ky-mi-gia/binh-luan,Lương Ký Mì Gia,"1 Huỳnh Mẫn Đạt, P.19",15,29741,2,6.824,236,0,84,216,57240,21,10.791856,106.708921
/ho-chi-minh/rau-cau-flan-105-nguyen-thuong-hien/binh-luan,Rau Câu Flan 105 - Nguyễn Thượng Hiền,"105 Nguyễn Thượng Hiền, P. 5",15,1000036534,2,0.0,0,0,0,0,4,0,10.810605,106.684279
/ho-chi-minh/tra-sua-botanic/binh-luan,Trà Sữa Botanic,298B Nguyễn Thượng Hiền,15,784765,2,8.4,8,0,2,0,116,0,10.8082932,106.6841501
/ho-chi-minh/ca-phe-sinh-to-tra-sua-an-vat-hoang-hoa-tham/binh-luan,"Cà Phê, Sinh Tố, Trà Sữa & Ăn Vặt - Hoàng Hoa Thám","205B Hoàng Hoa Thám, P. 6",15,786189,2,0.0,1,1,0,1,47,0,10.8097788165419,106.6842691227793
/ho-chi-minh/co-vy-bun-thai-nguyen-thuong-hien/binh-luan,Cô Vy - Bún Thái - Nguyễn Thượng Hiền,"137 Nguyễn Thượng Hiền, P. 6",15,1000046481,2,0.0,0,0,0,0,23,0,10.8091334,106.6842373
/ho-chi-minh/banh-canh-bot-gao-di-hai-hu-tieu-bo-kho/binh-luan,Bánh Canh Bột Gạo Dì Hai - Hủ Tiếu & Bò Kho,"280C Hoàng Hoa Thám, P. 6",15,1000039179,2,0.0,0,0,0,0,23,0,10.809873,106.684286
/ho-chi-minh/quan-nuoc-covy-coffee-tea-nguyen-thuong-hien/binh-luan,Quán Nước Covy - Coffee & Tea - Nguyễn Thượng Hiền,"137 Nguyễn Thượng Hiền, P. 6",15,1000030400,2,5.3,1,0,2,1,15,0,10.8091234360783,106.6842459092762
/ho-chi-minh/tini-milk-tea-nguyen-thuong-hien/binh-luan,TiNi Milk Tea - Nguyễn Thượng Hiền,"141 Nguyễn Thượng Hiền, P. 6",15,1022356,2,0.0,0,0,0,0,27,1,10.808952,106.684244
/ho-chi-minh/thit-bo-uc-dong-lanh-nguyen-thuong-hien/binh-luan,Thịt Bò Úc Đông Lạnh - Nguyễn Thượng Hiền,"137 Nguyễn Thượng Hiền, P. 6",15,1086632,2,0.0,0,0,0,0,51,0,10.8091447853146,106.684259563309
/ho-chi-minh/267-cafe-nguyen-thuong-hien/binh-luan,267 Cafe - Nguyễn Thượng Hiền,267 Nguyễn Thượng Hiền,15,784766,2,0.0,1,0,0,0,61,0,10.8086041057694,106.6842349246144
/ho-chi-minh/a-go-com-chay-cha-bong-nguyen-thuong-hien.1sfnwd/binh-luan,A Gờ - Cơm Cháy Chà Bông - Nguyễn Thượng Hiền,"199 Nguyễn Thượng Hiền, P. 6",15,1000029421,2,0.0,0,0,0,0,6,0,10.8068264,106.6841407
/ho-chi-minh/crab-island-hai-san/binh-luan,Crab Island - Hải Sản,"151C Nguyễn Thượng Hiền, P. 6",15,1032355,2,0.0,0,1,0,0,61,0,10.8083041,106.6842583
/ho-chi-minh/andykitchen-bun-thit-nuong-nguyen-thuong-hien/binh-luan,AndyKitchen - Bún Thịt Nướng - Nguyễn Thượng Hiền,"139/5 Nguyễn Thượng Hiền, P. 6",15,1000050180,2,7.2,2,0,1,0,38,0,10.8090933,106.6843557
/ho-chi-minh/banh-uot-long-ga-hong-le/binh-luan,Bánh Ướt Lòng Gà Hồng Lê,"125/77/12 Bùi Đình Túy, P. 24",15,1062299,2,9.634,9,0,6,9,342,1,10.80538,106.706191
/ho-chi-minh/com-chay-tinh-do-vo-duy-ninh/binh-luan,Cơm Chay Tịnh Độ,"140 Võ Duy Ninh, P. 22",15,237357,2,8.256,78,0,14,32,2219,4,10.79115,106.71579
/ho-chi-minh/sup-cua-moc-van-kiep/binh-luan,Súp Cua Mộc - Vạn Kiếp,"25 Vạn Kiếp, P. 3",15,1052610,2,0.0,0,4,0,3,301,0,10.80161,106.693453
/ho-chi-minh/dat-quan-chao-ech-singapore/binh-luan,Đạt Quán - Cháo Ếch Singapore,"660 Điện Biên Phủ, P. 22",15,758951,2,7.746,32,0,18,15,1008,5,10.7982779,106.719362
/ho-chi-minh/quan-com-bapy/binh-luan,Quán Cơm Bapy,"008 Lô G Chung Cư Miếu Nổi, P. 3",15,72708,2,4.6,6,0,5,7,2611,4,10.795836,106.692692
/ho-chi-minh/steak-bin-pizza-phan-van-tri/binh-luan,Steak Bin & Pizza - Phan Văn Trị,"352K Phan Văn Trị, P. 11",15,670458,2,8.412,318,0,123,155,10791,44,10.8208274,106.6940957
/ho-chi-minh/pasta-box/binh-luan,Pasta Box - Mì Ý Truyền Thống,"246/3A3 Xô Viết Nghệ Tĩnh, P. 21",15,67317,2,6.634,394,0,84,202,54918,31,10.7989096,106.711346
/ho-chi-minh/light-up-coffee-tran-hung-dao/binh-luan,Light Up Milktea & Coffee - Vũ Tùng,"26 Vũ Tùng, P. 2",15,103800,2,7.836,831,0,114,72,50269,32,10.8013351453338,106.7001601245157
/ho-chi-minh/mi-cay-hachi-mi-cay-lau-xo-viet-nghe-tinh/binh-luan,Mì Cay HaChi - Mì Cay & Lẩu - Xô Viết Nghệ Tĩnh,"643 Xô Viết Nghệ Tĩnh, P. 26",15,1083957,2,9.802,54,0,108,3,571,5,10.8114243,106.7141489
/ho-chi-minh/coco-ichibanya-vincom-landmark-81/binh-luan,CoCo Ichibanya - Vincom Landmark 81,"Tầng 2, Vincom Landmark 81, 772 Điện Biên Phủ, P. 22",15,769192,2,8.094,384,0,34,90,9005,10,10.7947205,106.7221341
/ho-chi-minh/aka-house-buffet-nuong-lau-nhat-ban-nguyen-gia-tri/binh-luan,AKA House - Buffet Nướng & Lẩu Nhật Bản - Nguyễn Gia Trí,"124 Nguyễn Gia Trí (Đường D2), P. 25",15,790064,2,6.0,182,0,79,14,5567,11,10.8041264,106.715868
/ho-chi-minh/lang-nuong-nam-bo-tran-quy-cap/binh-luan,Làng Nướng Nam Bộ - Trần Quý Cáp,"36 Trần Quý Cáp, P. 11",15,30361,2,6.606,314,0,35,23,32218,17,10.8163629,106.696657
/ho-chi-minh/bun-dau-mam-tom-277-vu-tung/binh-luan,Bún Đậu Mắm Tôm 277 - Vũ Tùng,"122A Vũ Tùng, P. 2",15,955609,2,9.446,54,0,34,33,867,81,10.802237,106.70189
/ho-chi-minh/cay-bang-2-cac-mon-nuong-trai-cay-to/binh-luan,Cây Bàng 2 - Các Món Nướng & Trái Cây Tô,32D Vũ Huy Tấn,15,201779,2,6.46,205,0,43,111,18427,12,10.7957403,106.6949428
/ho-chi-minh/the-coffee-house-8bis-hoang-hoa-tham/binh-luan,The Coffee House - 8Bis Hoàng Hoa Thám,"8Bis Hoàng Hoa Thám, P. 7",15,281194,2,7.564,441,0,58,7,7692,11,10.804507,106.691785
/ho-chi-minh/kem-baskin-robbins-pearl-plaza/binh-luan,Kem Baskin Robbins - Pearl Plaza,"Pearl Plaza, 561A Điện Biên Phủ, P. 25",15,185372,2,7.454,557,0,45,7,2096,25,10.7990865,106.7190106
/ho-chi-minh/lang-am-thuc-van-hoa-tay-nguyen/binh-luan,Làng Ẩm Thực Văn Hóa Tây Nguyên,"1143 Bình Quới, P. 28",15,1639,2,6.924,321,0,37,44,43059,21,10.83162,106.742778
/ho-chi-minh/fitfood-vn-shop-online/binh-luan,Fitfood VN - Shop Online,475 Điện Biên Phủ,15,184535,2,7.652,223,0,50,97,11432,2,10.801028,106.714277
/ho-chi-minh/hoang-yen-buffet-pearl-plaza/binh-luan,Hoàng Yến Buffet - Pearl Plaza,"Tầng 4, Pearl Plaza, 561A Điện Biên Phủ, P. 25",15,767873,2,8.184,292,0,38,10,8370,6,10.799989419636,106.7185702174902
/ho-chi-minh/thien-ky/binh-luan,Thiện Ký - Tiệm Cơm,"304 Lê Quang Định, P. 11",15,28430,2,9.578,45,0,106,4,1375,2,10.809137,106.693634
/ho-chi-minh/com-chien-siro-hoang-bui-dinh-tuy/binh-luan,Cơm Chiên Siro Hoàng - Bùi Đình Túy,"358 Bùi Đình Tuý, P. 24",15,1136295,2,0.0,0,0,0,0,23,0,10.8072389,106.7028327
/ho-chi-minh/quan-oc-uc-dien-bien-phu/binh-luan,Quán Ốc Ục - Điện Biên Phủ,"441/30 Điện Biên Phủ, P. 25",15,1135384,2,0.0,0,0,0,0,23,0,10.8022751,106.7134538
/ho-chi-minh/anhanh-tea-tra-sua-banh-flan-quoc-lo-13/binh-luan,AnhAnh Tea - Trà Sữa & Bánh Flan - Quốc Lộ 13,"215 Quốc Lộ 13, P. 26",15,1000050991,2,0.0,0,0,0,0,26,0,10.8165481,106.7127411
/ho-chi-minh/3-tot-banh-uot-sinh-to-thanh-da.tqaqac/binh-luan,3 TỐT - Bánh Ướt & Sinh Tố - Thanh Đa,"22A2 Thanh Đa, P. 27",15,1000050641,2,0.0,0,0,0,0,17,0,10.8143728,106.7200374
/ho-chi-minh/the-flying-dutchman-bo-kho-da-heo-chien/binh-luan,The Flying Dutchman - Bò Khô & Da Heo Chiên,"290/28 Bùi Hữu Nghĩa, P. 2",15,1130177,2,0.0,0,0,0,0,20,0,10.7945339138961,106.6977938141463
/ho-chi-minh/high-ngon-bo-ne-bach-dang.syjhr9/binh-luan,High Ngon - Bò Né - Bạch Đằng,"118/118 Bạch Đằng, P. 24",15,1000046464,2,0.0,0,0,0,0,19,0,10.8039675,106.7076616
/ho-chi-minh/pho-co-mien-pho-149-nguyen-thuong-hien/binh-luan,Phở Cô Miên - Phở - 149 Nguyễn Thượng Hiền,"149 Nguyễn Thượng Hiền, P. 6",15,1000046042,2,0.0,0,0,0,0,14,0,10.8087738,106.6844568
/ho-chi-minh/huynh-ky-2-com-ga-xoi-mo-dien-bien-phu/binh-luan,Huỳnh Ký 2 - Cơm Gà Xối Mỡ - Điện Biên Phủ,"81 Điện Biên Phủ, Phường 15",15,1108375,2,0.0,0,0,0,0,9,0,10.7959449,106.7022136
/ho-chi-minh/mr-mao-ca-vien-chien/binh-luan,Mr Mão - Cá Viên Chiên,"79/9 Phạm Viết Chánh, P. 19",15,1079545,2,0.0,0,0,0,0,33,0,10.791304,106.711888
/ho-chi-minh/bu-house-banh-trang-an-vat-shop-online/binh-luan,Bư House - Bánh Tráng & Ăn Vặt - Shop Online,"58/26/9D Phan Chu Trinh, P. 24",15,1068312,2,0.0,0,1,0,1,46,0,10.8052117,106.7032277
/ho-chi-minh/quan-nuong-ti-nong/binh-luan,Quán Nướng Tí Nọng,"120 Phan Xích Long, P. 3",15,1068250,2,0.0,0,0,0,0,24,0,10.7975957,106.6922826
/ho-chi-minh/bep-cua-ca-salad-healthy-huynh-dinh-hai.jdtckb/binh-luan,Bếp Của Cá - Salad Healthy - Huỳnh Đình Hai,"5/11 Huỳnh Đình Hai, P. 14",15,1000053843,2,0.0,0,0,0,0,15,0,10.8044889,106.7009132
/ho-chi-minh/ci-cha-tra-sua-hongkong-bui-dinh-tuy/binh-luan,Ci Cha - Trà Sữa Hongkong - Bùi Đình Túy,"15 Bùi Đình Túy, P. 26",15,792027,2,7.656,199,0,65,13,1207,185,10.80826,106.70874
/ho-chi-minh/tam-bun-rieu-bun-rieu-canh-bun-phan-van-tri/binh-luan,Tâm Bún Riêu - Bún Riêu & Canh Bún - Phan Văn Trị,"190 Phan Văn Trị, P. 12",15,1107436,2,0.0,0,0,0,0,63,0,10.8133173,106.6953326
/ho-chi-minh/bo-kho-493/binh-luan,Bò Kho 493,"493/7 Bạch Đằng, P. 2",15,1055134,2,0.0,0,0,0,0,34,0,10.802822,106.699158
/ho-chi-minh/banh-mi-ha-noi-duc-hau-banh-mi-dinh-bo-linh.2fpmf4/binh-luan,Bánh Mì Hà Nội Đức Hậu - Bánh Mì - Đinh Bộ Lĩnh,"365 Đinh Bộ Lĩnh, P. 26",15,1000028648,2,0.0,0,0,0,0,25,0,10.81516,106.7102939
/ho-chi-minh/com-trua-com-tam-rio-bui-huu-nghia/binh-luan,Cơm Trưa - Cơm Tấm Rio - Bùi Hữu Nghĩa,"280/29/81 Bùi Hữu Nghĩa, P. 2",15,1145179,2,0.0,0,0,0,0,1,0,10.7997946,106.700631
/ho-chi-minh/an-vat-be-thao-van-kiep/binh-luan,Ăn Vặt Bé Thảo - Vạn Kiếp,"214/39 Vạn Kiếp, P. 3",15,1115236,2,0.0,0,0,0,0,24,0,10.7982565,106.6933307
/ho-chi-minh/nguyen-loi-mi-goc-hoa/binh-luan,Nguyên Lợi - Mì Gốc Hoa,"333 Xô Viết Nghệ Tĩnh, P. 24",15,701899,2,6.75,2,0,4,51,2737,2,10.80357,106.711305
/ho-chi-minh/banh-loc-van-khanh-banh-bot-loc-banh-mi-kep-bui-huu-nghia/binh-luan,Bánh Lọc Vân Khánh - Bánh Bột Lọc & Bánh Mì Kẹp - Bùi Hữu Nghĩa,"280/29/81 Bùi Hữu Nghĩa, P. 2",15,1129304,2,9.4,2,0,2,3,129,0,10.7998186,106.7010903
/ho-chi-minh/to-ri-food-bun-thai-cay-bach-dang/binh-luan,Tờ Rí Food - Bún Thái Cay - Bạch Đằng,"46/13 Bạch Đằng, P. 24",15,1000050988,2,0.0,0,0,0,0,31,0,10.8030822,106.7102025
/ho-chi-minh/tre-tron-coc-banh-trang-tron/binh-luan,Tré Trộn Cóc & Bánh Tráng Trộn,"Đối Diện 306 Phan Văn Trị, P. 11",15,1060849,2,0.0,0,1,0,0,60,0,10.8167639,106.6952497
/ho-chi-minh/sun-pizza-pizza-tuoi/binh-luan,Sun Pizza - Pizza Tươi,"15 Bùi Đình Tuý, P. 26",15,1127910,2,0.0,0,0,0,0,40,0,10.808333,106.708767
/ho-chi-minh/quan-han-mi-xao-bo-nui-xao-bo-bui-dinh-tuy/binh-luan,Quán Hân - Mì Xào Bò & Nui Xào Bò - Bùi Đình Túy,"324/19A Bùi Đình Tuý, P. 12",15,1133494,2,0.0,0,0,0,0,25,0,10.8069458,106.6985686
/ho-chi-minh/orcy-tra-sua-tra-chanh/binh-luan,Orcy - Trà Sữa & Trà Chanh,"06 Nguyễn Cửu Vân, P. 17",15,1123351,2,0.0,0,0,0,0,29,0,10.7955957883372,106.7085511409506
/ho-chi-minh/ca-phe-buon-me-ngo-tat-to/binh-luan,Cà Phê Buôn Mê - Ngô Tất Tố,"63 Ngô Tất Tố, P. 21",15,1123354,2,0.0,0,0,0,0,22,0,10.7932193245248,106.7112762106252
/ho-chi-minh/quan-lau-de-169-no-trang-long/binh-luan,Quán Lẩu Dê 169 - Nơ Trang Long,"169 Nơ Trang Long, P. 12",15,1121899,2,0.0,0,0,0,0,29,0,10.813254,106.697142
/ho-chi-minh/mi-sui-cao-68-nguyen-van-lac/binh-luan,Mì Sủi Cảo 68 - Nguyễn Văn Lạc,"68 Nguyễn Văn Lạc, P. 19",15,1118107,2,0.0,0,2,0,1,32,0,10.7929534,106.7089849
/ho-chi-minh/tra-sua-dam-vi-an-vat-rabbit-demon-truong-sa/binh-luan,Trà Sữa Đậm Vị & Ăn Vặt Rabbit Demon - Trường Sa,"23/5 Trường Sa, P. 3",15,1122411,2,0.0,0,0,0,0,50,0,10.7940175,106.6952075
/ho-chi-minh/lau-ga-ut-sang-le-quang-dinh/binh-luan,Lẩu Gà Út Sang - Lê Quang Định,"304 Lê Quang Định, P. 11",15,1120745,2,0.0,0,0,0,0,21,0,10.8090631386394,106.6938220712788
/ho-chi-minh/quan-tam-oi-com-suon-bi-cha-thanh-da/binh-luan,Quán Tấm Ơi - Cơm Sườn Bì Chả - Thanh Đa,"28/33/9 Thanh Đa, P. 27",15,1121793,2,0.0,0,0,0,0,25,0,10.818539564945,106.7194108527573
/ho-chi-minh/bep-co-ca-bun-rieu-ca-vien-chien-xo-viet-nghe-tinh/binh-luan,Bếp Cô Ca - Bún Riêu & Cá Viên Chiên - Xô Viết Nghệ Tĩnh,"370A Xô Viết Nghệ Tĩnh, P. 25",15,1120766,2,0.0,0,0,0,0,20,0,10.8040524,106.7116686
/ho-chi-minh/tra-sua-sacha-no-trang-long/binh-luan,Trà Sữa SaCha - Nơ Trang Long,"335 Nơ Trang Long, P. 13",15,1121358,2,0.0,0,1,0,1,25,0,10.8193402,106.7012647
/ho-chi-minh/moi-ben-food-bia-nguyen-gia-tri/binh-luan,Mồi Bén - Food & Bia - Nguyễn Gia Trí,"217 Nguyễn Gia Trí, Phường 25",15,1121317,2,0.0,0,2,0,0,247,0,10.808824,106.716732
/ho-chi-minh/bombay-kebab-curry-wraps-nguyen-cong-tru.wzeqiz/binh-luan,Bombay KEBAB Curry & Wraps - Nguyễn Công Trứ,"34 Nguyễn Công Trứ, P. 19",15,1000043757,2,0.0,0,0,0,0,22,0,10.790963,106.710049
/ho-chi-minh/tra-sua-dai-loan-long-2p/binh-luan,Trà Sữa Đài Loan - Long 2P,"40 Ngô Tất Tố, P. 19",15,1119708,2,0.0,0,0,0,0,27,0,10.7917278312452,106.7114754358916
/ho-chi-minh/gam-chan-ga-muoi-sa-ot/binh-luan,Gặm - Chân Gà Muối Sả Ớt,"8/10 Nguyễn Thiện Thuật, P. 24",15,163143,2,7.394,162,0,65,134,14978,13,10.8054348,106.7002848
/ho-chi-minh/tra-sua-thai-me-nau-to-ban/binh-luan,Trà Sữa Mẹ Nấu Tớ Bán - Chi Nhánh 1,"49 Vạn Kiếp, P. 3",15,183344,2,6.354,621,0,30,15,3453,5,10.8017267,106.6934463
/ho-chi-minh/sup-cua-chau/binh-luan,Súp Cua Châu,"29/11 Nguyễn Gia Trí, P. 25",15,958397,2,8.32,4,1,5,5,924,0,10.801588,106.715292
/ho-chi-minh/tiger-sugar-duong-nau-sua-duong-d5/binh-luan,Tiger Sugar - Đường Nâu Sữa - Đường D5,"115 Đường D5, P. 25",15,964395,2,5.284,16,0,12,1,858,3,10.805802,106.716426
/ho-chi-minh/go79-seafood-goi-oc-chao-hai-san-nha-trang-hoang-hoa-tham/binh-luan,Go79 Seafood - Gỏi Ốc & Cháo Hải Sản Nha Trang - Hoàng Hoa Thám,"94 Hoàng Hoa Thám, P. 7",15,916090,2,8.148,119,0,19,117,5357,6,10.80748,106.68956
/ho-chi-minh/sinh-to-van-kiep-van-kiep/binh-luan,Sinh Tố Vạn Kiếp,"Hẻm 33 Vạn Kiếp, P. 3",15,39806,2,6.604,237,0,68,89,13200,15,10.8019917,106.6935589
/ho-chi-minh/haocha-milk-tea/binh-luan,HAOCHA Milk Tea,"180 Xô Viết Nghệ Tĩnh, P. 21",15,1019737,2,7.57,92,0,13,6,1974,0,10.797796,106.710947
/ho-chi-minh/papaxot-duong-d2/binh-luan,Papaxốt - Nguyễn Gia Trí,"138 Nguyễn Gia Trí (Đường D2), P. 25",15,285977,2,6.976,755,0,139,66,11775,22,10.805374,106.715964
/ho-chi-minh/phuong-nam-300/binh-luan,Nhà Hàng Phương Nam - Gà Tiềm Ớt Hiểm,"300 Điện Biên Phủ, P. 17",15,109,2,6.44,187,0,20,26,54881,6,10.799472,106.706989
/ho-chi-minh/banh-bach-tuoc-takoyaki-ngo-tat-to/binh-luan,TKY Takoyaki - Nguyễn Văn Lạc,"20 Nguyễn Văn Lạc, P. 19",15,158824,2,7.278,115,0,43,164,54671,17,10.79449,106.709575
/ho-chi-minh/sinh-to-golbin-tra-sua-nuoc-ep-nguyen-cuu-van/binh-luan,Sinh Tố Golbin - Trà Sữa & Nước Ép - Nguyễn Cửu Vân,"79/7 Nguyễn Cửu Vân, P. 17",15,1150511,2,0.0,0,0,0,0,2,0,10.7949275,106.7088072
/ho-chi-minh/hong-phat-mi-gia-dien-bien-phu/binh-luan,Hồng Phát Mì Gia - Điện Biên Phủ,"27/221/27 Điện Biên Phủ, P. 15",15,1150456,2,0.0,0,0,0,0,2,0,10.7972473,106.6991822
/ho-chi-minh/com-ga-3-vi-co-tam-le-quang-dinh/binh-luan,Cơm Gà 3 Vị Cô Tấm - Lê Quang Định,"447 Lê Quang Định, P. 5",15,1150346,2,0.0,0,0,0,0,1,0,10.8152472,106.6888777
/ho-chi-minh/tra-sua-surysury-duong-so-4/binh-luan,Trà Sữa SURYSURY - Đường Số 4,"38D3 Đường Số 4, P. 26",15,1150337,2,0.0,0,0,0,0,3,0,10.8112607,106.7075881
/ho-chi-minh/thanh-binh-quan-chao-trang/binh-luan,Thanh Bình - Quán Cháo Trắng,277 Xô Viết Nghệ Tĩnh,15,271483,2,7.732,9,0,3,5,688,2,10.802174,106.711263
/ho-chi-minh/neem-sauce-nem-nuong-bach-dang/binh-luan,NEEM SAUCE - Nem Nướng - Bạch Đằng,"356/3 Bạch Đằng, P. 14",15,1000057922,2,0.0,0,0,0,0,5,0,10.8037397,106.6996488
/ho-chi-minh/ka-ffin-drinks/binh-luan,Ka'ffin Drinks,"Zeus Gaming Lounge 168/38C Nguyễn Gia Trí, P. 25",15,1000057915,2,0.0,0,0,0,0,4,0,10.8058618,106.7177303
/ho-chi-minh/double-b-dien-bien-phu/binh-luan,DOUBLE B - Điện Biên Phủ,"153/68C Điện Biên Phủ, P. 15",15,1150177,2,0.0,0,0,0,0,2,0,10.7975216,106.7020916
/ho-chi-minh/quan-suon-thai-khong-lo-thuy-truc-chu-van-an/binh-luan,Quán Sườn Thái Khổng Lồ Thuỷ Trúc - Chu Văn An,"12E1 Chu Văn An, P. 26",15,1136128,2,10.0,1,0,1,2,154,1,10.8105789,106.7080278
/ho-chi-minh/be-mim-nui-tron-mi-tron/binh-luan,Bé Mĩm - Nui Trộn & Mì Trộn,"818/59/21 Xô Viết Nghệ Tĩnh, P. 25",15,1047700,2,10.0,1,1,1,2,113,1,10.810474,106.716484
/ho-chi-minh/ga-nuong-sot-ba-yum-ga-nuong-ung-van-khiem.rnfswl/binh-luan,Gà Nướng Sốt Bà Yum - Gà Nướng - Ung Văn Khiêm,"49 Ung Văn Khiêm, P. 25",15,1000024349,2,10.0,109,1,1,1,122,0,10.8084808,106.7147221
/ho-chi-minh/kohiya-coffee-tea-dien-bien-phu.rka3g9/binh-luan,KOHIYA - Coffee & Tea - Điện Biên Phủ,"702 Điện Biên Phủ, P. 22",15,1000025727,2,10.0,48,0,2,0,78,0,10.79802,106.72011
/ho-chi-minh/the-mi-quang-house-ca-phe-tra-nguyen-huu-canh/binh-luan,The Mì Quảng House - Cà Phê & Trà - Nguyễn Hữu Cảnh,"12/9 Nguyễn Hữu Cảnh, P. 19",15,1000025553,2,10.0,2,0,2,2,173,0,10.7889783,106.7108251
/ho-chi-minh/bach-hoa-basao-pham-viet-chanh.ofvysh/binh-luan,Bách Hóa Basao - Phạm Viết Chánh,"76A Phạm Viết Chánh, P. 19",15,1000052600,2,10.0,38,0,2,0,26,0,10.7901256,106.7111463
/ho-chi-minh/salmol_2-map-shashimi-tang-bat-ho/binh-luan,Salmol_2 Mập - Shashimi - Tăng Bạt Hổ,"36/2/4 Tăng Bạt Hổ, P. 11",15,1000037740,2,10.0,14,0,1,0,55,1,10.8118039,106.6944769
/ho-chi-minh/banh-ngot-grand-marble/binh-luan,Bánh Ngọt Grand Marble,"G-BLK-4A Tầng Trệt, Tòa Nhà The Manor 1, 91 Nguyễn Hữu Cảnh, P. 22",15,1039323,2,10.0,17,0,1,3,159,0,10.793481,106.718016
/ho-chi-minh/kt-s-kitchen-banh-tiramisu-nguyen-thuong-hien/binh-luan,KT's Kitchen - Bánh Tiramisu - Nguyễn Thượng Hiền,"61/26 Nguyễn Thượng Hiền, P. 5",15,1000036454,2,10.0,10,0,1,0,51,1,10.8140959,106.685826
/ho-chi-minh/tra-chanh-tuoi-ptea-no-trang-long/binh-luan,Trà Chanh Tươi PTea - Nơ Trang Long,"411 Nơ Trang Long, P. 13",15,667946,2,10.0,0,0,1,4,613,1,10.820554,106.704397
/ho-chi-minh/bep-nha-lu-mon-ngon-gia-truyen-shop-online/binh-luan,Bếp Nhà Lu - Món Ngon Gia Truyền - Shop Online,"80/73/23 Hoàng Hoa Thám, P. 7",15,1016042,2,10.0,2,0,2,2,124,0,10.807394,106.690471
/ho-chi-minh/icoffee-coffee-tea-express/binh-luan,Icoffee - Acoustic & Food,"195/3A Điện Biên Phủ, P. 15",15,758095,2,10.0,6,0,1,0,395,1,10.7996605,106.7052923999999
/ho-chi-minh/adc-banh-mi-xoi-man-phan-van-tri/binh-luan,ADC Bánh Mì & Xôi Mặn - Phan Văn Trị,"263 Phan Văn Trị, P. 11",15,1149721,2,9.774,0,0,150,0,101,0,10.8145505,106.6951686
/ho-chi-minh/ga-nuong-o-o-o-ga-nuong-nhieu-vi-dinh-tien-hoang/binh-luan,Gà Nướng Ò Ó O - Gà Nướng Nhiều Vị - Đinh Tiên Hoàng,"110 Đinh Tiên Hoàng, P. 1",15,652328,2,6.296,478,0,125,80,24700,10,10.7969709,106.69638
/ho-chi-minh/tami-quan-am-thuc-mien-trung/binh-luan,Quán TAMI - Ẩm Thực Miền Trung,"289 Nguyễn Xí, P. 13",15,892385,2,8.888,90,0,60,205,4665,48,10.8207951567478,106.7037034695774
/ho-chi-minh/sup-cua-tran-doan-khanh/binh-luan,Súp Cua Trần Văn Ơn - Xô Viết Nghệ Tĩnh,"341/4 Xô Viết Nghệ Tĩnh, P. 24",15,77383,2,6.744,250,0,83,200,35784,38,10.803742,106.711315
/ho-chi-minh/hotdog-mini-giao-hang-tan-noi/binh-luan,Hotdog Mini - Giao Hàng Tận Nơi,"250 Phan Văn Trị, P. 12",15,96752,2,5.722,55,0,15,186,36901,22,10.815054,106.695322
/ho-chi-minh/co-beo-trung-ga-long-dao-yaua/binh-luan,Cô Béo - Trứng Gà Lòng Đào & Yaua,"169/4b Bạch Đằng, P. 15",15,696241,2,8.196,282,0,44,175,7284,17,10.8023778,106.7081465
/ho-chi-minh/banh-xeo-tom-nhay-thanh-dieu-ung-van-khiem/binh-luan,Bánh Xèo Tôm Nhảy Thanh Diệu - Ung Văn Khiêm,"80 Ung Văn Khiêm, P. 25",15,41957,2,6.186,316,0,95,171,35498,51,10.8076089,106.7167837
/ho-chi-minh/moonshop-hat-dinh-duong-macca-oc-cho-hoang-hoa-tham.gurdgi/binh-luan,Moonshop - Hạt Dinh Dưỡng Macca & Óc Chó - Hoàng Hoa Thám,"235/9 Hoàng Hoa Thám, P. 5",15,1000035750,2,0.0,0,0,0,0,9,0,10.8099127,106.6845973
/ho-chi-minh/homies-kitchen-shop-online/binh-luan,Homies Kitchen - Shop Online,"89/3A Nguyễn Thượng Hiền, P. 5",15,681552,2,8.4,34,0,2,10,684,1,10.8111912,106.6846915
/ho-chi-minh/bep-an-kiruco-chan-ga-sa-tac-rut-xuong-kim-chi/binh-luan,Bếp Ăn Kiruco - Chân Gà Sả Tắc Rút Xương & Kim Chi,"153/3 Nguyễn Thượng Hiền, P. 6",15,1055627,2,0.0,0,0,0,0,24,0,10.808032,106.684576
/ho-chi-minh/anh-thanh-goi-be-nem-chao-hoang-hoa-tham/binh-luan,Anh Thành - Gỏi Bê Nem Chạo - Hoàng Hoa Thám,268 Hoàng Hoa Thám,15,1120927,2,0.0,0,1,0,0,24,0,10.809677692307,106.6846783678247
/ho-chi-minh/bep-nha-nguyen-com-chien-chao-hao/binh-luan,Bếp Nhà Nguyên - Cơm Chiên & Cháo Hào,"89/3C Nguyễn Thượng Hiền, P. 5",15,1060450,2,0.0,1,1,0,1,106,1,10.8112417,106.6848836
/ho-chi-minh/ban-me-bun-mam-mi-quang/binh-luan,Ban Mê - Bún Mắm & Mì Quảng,"206 Hoàng Hoa Thám, P. 5",15,787045,2,0.0,5,2,0,0,46,0,10.8096346,106.6848854
/ho-chi-minh/mi-cay-samyang-shop-online-hoang-hoa-tham/binh-luan,Mì Cay Samyang - Shop Online,"270/6A Hoàng Hoa Thám, P. 5",15,266998,2,0.0,0,1,0,0,126,1,10.809798,106.6849070000001
/ho-chi-minh/com-ga-xoi-mo-20k-hoang-hoa-tham/binh-luan,Cơm Gà Xối Mỡ 20K - Hoàng Hoa Thám,"185 Hoàng Hoa Thám, P. 5",15,787040,2,0.0,6,0,0,0,145,0,10.8095852,106.6848961
/ho-chi-minh/tra-me-nhieu/binh-luan,TRÀ MẸ NHIỀU,"197 Hoàng Hoa Thám, P. 6",15,1078167,2,0.0,0,0,0,0,14,0,10.80936,106.684884
/ho-chi-minh/moon-tea-tra-sua-nguyen-thuong-hien/binh-luan,Moon Tea - Trà Sữa - Nguyễn Thượng Hiền,"89D Nguyễn Thượng Hiền, P. 5",15,1000050351,2,0.0,0,0,0,0,6,0,10.8108113905054,106.6849696262006
/ho-chi-minh/subin-pha-lau-bo-banh-beo-shop-online-hoang-hoa-tham/binh-luan,SuBin - Phá Lấu Bò & Bánh Bèo - Shop Online - Hoàng Hoa Thám,"197 Hoàng Hoa Thám, P. 6",15,893389,2,5.8,10,2,1,0,153,0,10.80937,106.684906
/ho-chi-minh/tra-sua-cocomo/binh-luan,Trà Sữa Cocomo,"294C Bạch Đằng, P. 14",15,873416,2,9.16,91,0,72,5,1232,4,10.803777,106.701012
/ho-chi-minh/sanh-an-quan-38-mi-xao-trung-muoi/binh-luan,Sành Ăn Quán 38 - Mì Xào Trứng Muối,"158/40 Nguyễn Văn Đậu, P. 7",15,1048650,2,9.268,15,2,3,6,189,2,10.809388,106.690335
/ho-chi-minh/mi-oc-hen-di-lan-nguyen-cong-tru/binh-luan,Mì Ốc Hến Dì Lan - Nguyễn Công Trứ,"53 Nguyễn Công Trứ, P. 19",15,1031771,2,5.768,9,5,6,27,1436,2,10.7914771,106.7099005
/ho-chi-minh/bun-ca-hanh-beo/binh-luan,Bún Cá Hạnh Béo,"88 Phan Xích Long, P. 3",15,879402,2,6.642,22,0,28,51,2421,9,10.797395,106.6930461
/ho-chi-minh/tra-sua-dhi-ngo-tat-to/binh-luan,Trà Sữa Dhi - Ngô Tất Tố,"71 Ngô Tất Tố, P. 21",15,1062941,2,0.0,0,1,0,0,463,0,10.7927114,106.7114841
/ho-chi-minh/banh-cuon-ba-mien-nguyen-gia-tri/binh-luan,Bánh Cuốn Ba Miền - Nguyễn Gia Trí,"54 Nguyễn Gia Trí, P. 25",15,1073284,2,7.4,12,0,2,0,153,0,10.8029139,106.7158549
/ho-chi-minh/tutimi-milo-dam-tra-sua-ngo-tat-to/binh-luan,TUTIMI - Milo Dầm - Trà Sữa - Ngô Tất Tố,"71 Ngô Tất Tố, P. 21",15,1062701,2,6.1,3,0,2,0,240,0,10.792701,106.71147
/ho-chi-minh/chang-hi-che-thot-not-che-dua-non-che-xoai-hong-kong-no-trang-long/binh-luan,"Chang Hi - Chè Thốt Nốt, Chè Dừa Non & Chè Xoài Hong Kong - Nơ Trang Long","107 Nơ Trang Long, P. 11",15,1048517,2,5.888,9,6,7,30,3521,3,10.810574,106.695109
/ho-chi-minh/com-nieu-d2/binh-luan,Cơm Niêu D2,"157/36 Nguyễn Gia Trí (Đường D2), P. 25",15,8685,2,6.972,333,0,98,133,29945,37,10.805747,106.714562
/ho-chi-minh/dong-xanh-cafe/binh-luan,Đồng Xanh Cafe - Ung Văn Khiêm,"100 Ung Văn Khiêm, P. 25",15,765,2,6.77,124,0,33,31,24817,15,10.807187,106.718017
/ho-chi-minh/vuon-cau-nha-hang-tiec-cuoi/binh-luan,Vườn Cau - Nhà Hàng Tiệc Cưới,"360 Phan Văn Trị, P. 11",15,1644,2,6.688,383,0,43,10,34649,26,10.821617,106.693605
/ho-chi-minh/cha-lui-lagi-van-kiep/binh-luan,Hồng Ân Quán - Chả Lụi Lagi & Chả Giò Cá Trích,"240 Vạn Kiếp, P. 3",15,689080,2,7.862,228,0,36,75,3587,6,10.7978775,106.6937765
/ho-chi-minh/bun-bo-mo-te/binh-luan,Bún Bò Mô Tê - Lam Sơn,"18 Lam Sơn, P. 6",15,46062,2,7.554,330,0,31,39,15510,18,10.804313,106.688114
/ho-chi-minh/mi-phuc-hung/binh-luan,Mì Phục Hưng - Chu Văn An,"2A Chu Văn An, P. 12",15,3302,2,7.802,109,0,31,89,9936,20,10.8110482293422,106.7006352099342
/ho-chi-minh/the-daily-coffee-and-food-d2/binh-luan,The Daily Coffee And Food - D2,"29/26 Nguyễn Gia Trí, (Đường D2), P. 25",15,914869,2,9.292,153,0,39,21,5974,9,10.802539,106.715249
/ho-chi-minh/dau-mia-la-dau-nanh-nuoc-mia-rau-ma/binh-luan,"Đậu Mía Lá - Đậu Nành, Nước Mía, Rau Má","33 Vạn Kiếp, P. 3",15,938200,2,9.278,46,0,56,54,2060,2,10.801666,106.6935503
/ho-chi-minh/kebaby-doner-kebab/binh-luan,Kebaby - Doner Kebab,"112 Phạm Viết Chánh, P. 19",15,1038140,2,9.15,373,1,23,45,1287,3,10.7908698,106.7124595
/ho-chi-minh/kun-waffle-and-tea-cake-vo-oanh.9cbviw/binh-luan,Kun Waffle And Tea - Cake - Võ Oanh,"121A Võ Oanh, P. 25",15,1000049458,2,0.0,0,0,0,0,44,0,10.8042754,106.7150097
/ho-chi-minh/hu-tieu-mi-bo-kho-so-5-le-truc-le-truc.vbkh1d/binh-luan,Hủ Tiếu Mì Bò Kho Số 5 Lê Trực - Lê Trực,"Số 5 Lê Trực, P. 7",15,1000044679,2,0.0,0,0,0,0,23,0,10.8099608,106.6914122
/ho-chi-minh/mon-ngon-mien-trung-banh-beo-banh-tai-dac-58-20-phan-van-tri.h4wdcm/binh-luan,Món Ngon Miền Trung - Bánh Bèo & Bánh Tai Dạc - 58/20 Phan Văn Trị,"58/20 Phan Văn Trị, P. 12",15,1000034388,2,0.0,0,0,0,0,8,0,10.807534,106.698159
/ho-chi-minh/ba-xa-food-bun-bo-hue-pho-bo-bo-kho-nguyen-xi/binh-luan,"Bà Xã Food - Bún Bò Huế, Phở Bò & Bò Kho - Nguyễn Xí","289 Nguyễn Xí, P. 13",15,1146170,2,0.0,0,0,0,0,2,0,10.8209617,106.7037361
/ho-chi-minh/bia-to/binh-luan,Nhà Hàng Bia Tô,"64 Nguyễn Văn Đậu, P. 6",15,3295,2,6.452,106,0,15,11,24837,11,10.807735,106.687696
/ho-chi-minh/miss-roses-garden-restaurant-and-cafe/binh-luan,Nhà Hàng Hát Với Nhau - Miss Roses Garden,"97 Nguyễn Cửu Vân, P. 17",15,745149,2,7.514,230,0,7,6,802,1,10.7957324,106.707251
/ho-chi-minh/nha-hang-dao-hai-san/binh-luan,Nhà Hàng Đảo Hải Sản,"101 Võ Oanh (Đường D3), P. 25",15,862199,2,6.028,507,0,15,6,4022,2,10.804245,106.716365
/ho-chi-minh/xi-muoi-quan-sup-cua-tu-chon/binh-luan,Xí Muội Quán - Súp Cua Tự Chọn,"125/35 Bùi Đình Túy, P. 24",15,913981,2,7.366,137,0,16,37,1220,1,10.806549,106.70556
/ho-chi-minh/pho-cuong-hoang-hoa-tham/binh-luan,Phở Cường - Hoàng Hoa Thám,"248/2 Hoàng Hoa Thám, P. 5",15,918730,2,0.0,1,0,0,0,33,0,10.809334,106.685228
/ho-chi-minh/d-o-m-coffee-capsule/binh-luan,D.O.M Coffee Capsule,"213/23 Nguyễn Gia Trí, P. 25",15,1023259,2,7.622,17,1,9,7,2350,3,10.8060903,106.7144553
/ho-chi-minh/bonjour-resto-beefsteak-nguyen-huy-tuong/binh-luan,Bonjour Resto' - Beefsteak Nguyễn Huy Tưởng,"6/2 Nguyễn Huy Tưởng, P. 6",15,4977,2,6.872,340,0,78,71,22694,29,10.804305,106.689531
/ho-chi-minh/sai-gon-hu-tieu-go-nguyen-gia-tri/binh-luan,Sài Gòn Hủ Tiếu Gõ - Nguyễn Gia Trí,"208 Nguyễn Gia Trí, P. 25",15,1125325,2,0.0,1,10,0,1,48,1,10.8085884,106.7168808
/ho-chi-minh/lo-banh-mi-109/binh-luan,Bánh Mì & Hamburger - Nguyễn Xí,"294 Nguyễn Xí, P. 13",15,706447,2,1.0,1,0,1,0,297,2,10.8185213,106.7050928
/ho-chi-minh/pho-bac-hai-dien-bien-phu/binh-luan,Phở Bắc Hải,486L Điện Biên Phủ,15,255861,2,7.92,24,0,5,2,874,1,10.801226,106.712114
/ho-chi-minh/3-rau-ga-ran-pizza-tra-sua-136-van-kiep/binh-luan,3 Râu - Gà Rán Pizza & Trà Sữa - 136 Vạn Kiếp,"136 Vạn Kiếp, P. 3",15,1136416,2,0.0,0,0,0,0,29,0,10.7999818,106.693426
/ho-chi-minh/3-rau-ga-ran-pizza-tra-sua-no-trang-long/binh-luan,"3 Râu - Gà Rán, Pizza & Trà Sữa - Nơ Trang Long","123 Nơ Trang Long, P. 11",15,1045692,2,4.3,3,1,2,0,88,2,10.811109,106.695375
/ho-chi-minh/nam-anh-mi-tron-ung-van-khiem/binh-luan,Nam Anh - Mì Trộn - Ung Văn Khiêm,"31/14 Ung Văn Khiêm, P. 25",15,1137273,2,0.0,0,0,0,0,29,0,10.8096346,106.7144731
/ho-chi-minh/chi-yen-do-chien/binh-luan,Chị Yến Đồ Chiên,"140/26/12 Điện Biên Phủ, P. 17",15,970989,2,9.826,13,3,8,3,326,0,10.7956425,106.7040135
/ho-chi-minh/jjang-com-tron-han-quoc-nguyen-gia-tri/binh-luan,Jjang! - Cơm Trộn Hàn Quốc - Nguyễn Gia Trí,"213/9 Nguyễn Gia Trí, P. 25",15,1137199,2,0.0,0,0,0,0,43,0,10.80685,106.71555
/ho-chi-minh/hamburger-bo-mieng-hapi-vu-huy-tan/binh-luan,Hamburger Bò Miếng Hapi - Vũ Huy Tấn,"54 Vũ Huy Tấn, P. 3",15,1001352,2,4.0,5,1,4,1,707,0,10.795925,106.693824
/ho-chi-minh/m-toi-hang-quan-an-uong-pham-van-dong.igz3kk/binh-luan,M.TÔI HÀNG QUÁN - Ăn Uống - Phạm Văn Đồng,"532 Phạm Văn Đồng, P. 13",15,1000055654,2,0.0,0,0,0,0,5,0,10.8224603,106.7028063
/ho-chi-minh/248-truong-sa-quan/binh-luan,248 Trường Sa Quán,"248 Trường Sa, P. 3",15,776191,2,4.0,25,0,5,5,4534,0,10.795375,106.694833
/ho-chi-minh/com-tam-duong-com-tam-bach-dang.9ttvrg/binh-luan,Cơm Tấm Dương - Cơm Tấm - Bạch Đằng,"260A Bạch Đằng, P.  24",15,1000037441,2,9.0,0,1,2,0,37,1,10.8036795,106.7030784
/ho-chi-minh/quan-com-ga-gia-khanh-nguyen-gia-tri/binh-luan,Quán Cơm Gà Gia Khánh - Nguyễn Gia Trí,"29/12 Nguyễn Gia Trí, P.. 25",15,1119345,2,0.0,0,0,0,0,12,0,10.8017739094114,106.7155632682163
/ho-chi-minh/mi-quang-3-anh-em-136-nguyen-xi.o1znhn/binh-luan,Mì Quảng 3 Anh Em - 136 Nguyễn Xí,"136 Nguyễn Xí, P. 26",15,1000037745,2,0.0,0,0,0,0,13,0,10.8139369,106.709198
/ho-chi-minh/quan-tu-map-81-lau-ga-noi/binh-luan,Quán Tư Mập 81 - Lẩu Gà Nòi,447 Phạm Văn Đồng,15,746670,2,7.8,66,0,1,3,1125,0,10.8215747,106.6969255
/ho-chi-minh/oni-sushi-xo-viet-nghe-tinh/binh-luan,Oni Sushi - Xô Viết Nghệ Tĩnh,"220/50A/14B Xô Viết Nghệ Tĩnh, P. 25",15,1116310,2,0.0,0,0,0,0,54,0,10.798753781579,106.7124171102653
/ho-chi-minh/richer-coffee-milk-tea-duong-d5/binh-luan,RICHER Coffee & Milk Tea - Đường D5,"12 Đường D5, P. 25",15,1115815,2,0.0,0,0,0,0,76,0,10.8066316096221,106.7123084268176
/ho-chi-minh/delica-mi-y-pizza-nguyen-van-dau/binh-luan,Delica - Mì Ý & Pizza - Nguyễn Văn Đậu,"222B Nguyễn Văn Đậu, P. 11",15,1115574,2,0.0,0,1,0,0,55,0,10.8119038,106.6921457
/ho-chi-minh/the-gioi-steak-nguyen-gia-tri/binh-luan,Thế Giới Steak - Đường D2,"213/3 Nguyễn Gia Trí (Đường D2), P. 25",15,775904,2,7.31,87,0,35,53,5412,1,10.8035421,106.7158240999999
/ho-chi-minh/quan-cafe-de-chiu-xo-viet-nghe-tinh/binh-luan,Quán CAFE DE CHIU - Xô Viết Nghệ Tĩnh,"11A2 Xô Viết Nghệ Tĩnh, P. 17",15,1114416,2,0.0,0,0,0,0,25,0,10.7938816627494,106.7059093711948
/ho-chi-minh/book-com-go-vap-com-van-phong-com-ga-xoi-mo/binh-luan,Book Cơm Gò Vấp - Cơm Văn Phòng & Cơm Gà Xối Mỡ ,"42E Đặng Thùy Trâm, P. 13",15,1113777,2,0.0,0,0,0,0,30,0,10.8264942852001,106.7033593613315
/ho-chi-minh/tra-sua-an-vat-mely-tea/binh-luan,Trà Sữa & Ăn Vặt - Mely Tea,"371 Phạm Văn Đồng, P. 11",15,1112765,2,0.0,0,0,0,0,24,0,10.821254629536,106.6946450258278
