ReviewUrl,name,Address,districtid,RestaurantId,RestaurantStatus,avgrating,TotalPictures,TotalSaves,TotalReviews,TotalFavourites,TotalViews,TotalCheckIns,Latitude,Longitude
/ho-chi-minh/hanuri-quan-an-han-quoc/binh-luan,Hanuri - Quán Ăn Hàn Quốc - Sư Vạn Hạnh,"736 Sư Vạn Hạnh, P. 12",12,42888,2,7.036,6376,0,1457,2982,459331,514,10.772088,106.6696668
/ho-chi-minh/monkey-in-black-milo-dam-tra-sua-ca-phe/binh-luan,"Monkey In Black - Milo Dầm, Trà Sữa & Cà Phê",698 Sư Vạn Hạnh,12,152809,2,7.63,4924,0,1150,839,121507,425,10.771058,106.6700968
/ho-chi-minh/say-coffee/binh-luan,Say Coffee 24H - Sư Vạn Hạnh,756 Sư Vạn Hạnh,12,187688,2,6.878,4649,0,867,467,115800,282,10.7724995,106.6694
/ho-chi-minh/hancook-korean-fast-food/binh-luan,Hancook Korean Fast Food - Đường 3 Tháng 2,181/2 Đường 3 Tháng 2,12,32423,2,6.954,4263,0,731,1193,175815,232,10.772004,106.675128
/ho-chi-minh/cow-express-su-van-hanh/binh-luan,BeefSteak - Mì Ý - Salad Cow Express - Sư Vạn Hạnh,"457 Sư Vạn Hạnh, P. 12",12,87295,2,7.688,2991,0,652,673,103898,279,10.773383,106.668679
/ho-chi-minh/the-1986-coffee-bakery/binh-luan,The 1986 - Coffee & Bakery,"285/20 Cách Mạng Tháng 8, P.12",12,92025,2,7.454,4655,0,527,1036,123735,195,10.7772521,106.6799592
/ho-chi-minh/lau-tom-cang-xien-tran-nhan-ton/binh-luan,Lẩu Tôm Càng Xiên - Trần Nhân Tôn,"142 Trần Nhân Tôn, P. 2",12,92132,2,7.022,2184,0,373,947,202039,173,10.7660684,106.6741106
/ho-chi-minh/sakura-viet-nam-sushi-nhat-ban/binh-luan,Sakura Việt Nam - Sushi Nhật Bản,505 Sư Vạn Hạnh,12,45218,2,7.18,3298,0,532,785,140657,160,10.774175,106.668146
/ho-chi-minh/lang-nuong-nam-bo-to-hien-thanh/binh-luan,Làng Nướng Nam Bộ - Tô Hiến Thành,"302A Tô Hiến Thành, P. 15",12,6,2,7.216,2748,0,366,371,248992,204,10.777384,106.664817
/ho-chi-minh/tra-sua-xien-que-hot-cold-su-van-hanh/binh-luan,Trà Sữa Xiên Que Hot & Cold - Sư Vạn Hạnh,"744 Sư Vạn Hạnh, P. 12",12,17314,2,6.528,1870,0,461,281,68875,175,10.772253,106.669454
/ho-chi-minh/dallas-cakes-coffee-3-thang-2/binh-luan,Dallas Cakes & Coffee - 3 Tháng 2,"233 Đường 3 Tháng 2, P. 10",12,129958,2,8.874,1483,0,485,450,136851,96,10.7710302,106.6732686
/ho-chi-minh/alifoodcorner-chung-cu-ngo-gia-tu/binh-luan,Alifood Corner - Chung Cư Ngô Gia Tự,"009 Lô T Chung cư Ngô Gia Tự, P. 2",12,73219,2,6.244,1635,0,434,940,123124,141,10.763401,106.673349
/ho-chi-minh/hawaii-kia/binh-luan,Hawaii Kìa,401 Sư Vạn Hạnh,12,70374,2,7.03,1679,0,278,803,174414,179,10.771935,106.669497
/ho-chi-minh/tra-sua-bobapop-cao-thang/binh-luan,Trà Sữa Bobapop - Cao Thắng,"115 Cao Thắng, P. 11",12,36450,2,6.714,1253,0,334,224,160962,102,10.77351,106.678061
/ho-chi-minh/kleine-ecke-cafe-to-hien-thanh/binh-luan,Kleine Ecke Cafe - Tô Hiến Thành,"339/34A1 Tô Hiến Thành, P. 12",12,36467,2,7.356,2111,0,271,837,157150,143,10.775623,106.666041
/ho-chi-minh/oc-nhu/binh-luan,Ốc Như - Điện Biên Phủ,"650/4/29D Điện Biên Phủ, P. 11",12,1726,2,6.546,2032,0,329,439,149430,96,10.77081,106.676321
/ho-chi-minh/con-ga-nuong-thanh-thai/binh-luan,Con Gà Nướng - Thành Thái,"152/7 Thành Thái, P. 12",12,161575,2,6.748,1372,0,368,1080,148515,96,10.7754351,106.664152
/ho-chi-minh/banh-canh-cua-vinh-vien/binh-luan,Bánh Canh Cua Hoàng Lan - Vĩnh Viễn,484 Vĩnh Viễn,12,1393,2,6.754,499,0,193,823,138474,87,10.763272,106.66518
/ho-chi-minh/khanh-vy-che-mam/binh-luan,Khánh Vy - Chè Mâm,"032 Lô H Chung Cư Ngô Gia Tự, P. 2",12,4539,2,6.64,647,0,257,891,137282,142,10.7619108,106.6729622
/ho-chi-minh/quan-ca-loc-nuong-ga-nuong-mat-ong-thu-linh-cut-nuong/binh-luan,"Quán Cá Lóc Nướng - Gà Nướng Mật Ong, Thú Linh & Cút Nướng","601 Cách Mạng Tháng Tám, P. 5",12,1151789,2,0.0,0,0,0,0,1,0,10.7828694923172,106.6675974258959
/ho-chi-minh/emerald-tea-nguyen-tri-phuong/binh-luan,Emerald Tea - Nguyễn Tri Phương,"437 Nguyễn Tri Phương, P. 8",12,1151744,2,0.0,0,0,0,0,1,0,10.7642801321409,106.6676908389885
/ho-chi-minh/lau-thai-ship-3s-nguyen-ngoc-loc/binh-luan,Lẩu Thái Ship 3S - Nguyễn Ngọc Lộc,"51 Hẻm 15/18 Nguyễn Ngọc Lộc, P. 14",12,1151698,2,0.0,0,0,0,0,1,0,10.7677184,106.6612458
/ho-chi-minh/banh-mi-oi-519-cach-mang-thang-tam/binh-luan,Bánh Mì Ơi - 519 Cách Mạng Tháng Tám,"519 Cách Mạng Tháng 8, P. 13",12,1151667,2,0.0,0,0,0,0,4,0,10.7827494198801,106.6726309676031
/ho-chi-minh/banh-canh-cua-29-banh-canh-hai-san-sup-cua-oc-heo-nguyen-tri-phuong/binh-luan,Bánh Canh Cua 29 - Bánh Canh Hải Sản & Súp Cua Óc Heo - Nguyễn Tri Phương,"206 Nguyễn Tri Phương, P. 4",12,1151564,2,0.0,0,0,0,0,2,0,10.7609613705387,106.66887023853
/ho-chi-minh/chang-modern-thai-cuisine-van-hanh-mall/binh-luan,Chang - Modern Thai Cuisine - Vạn Hạnh Mall,"Tầng 05, Trung Tâm Thương Mại Vạn Hạnh Mall, 11 Sư Vạn Hạnh, P. 12",12,1151525,2,0.0,0,0,0,0,8,0,10.7706175504821,106.6694750157311
/ho-chi-minh/bun-thit-nuong-co-ngoc-thanh-thai/binh-luan,Bún Thịt Nướng Cô Ngọc - Thành Thái,"3/38/6 Thành Thái, P. 14",12,1151510,2,0.0,0,0,0,0,1,0,10.7687,106.664316
/ho-chi-minh/vua-dua-307-dua-nuoc-dua-tac-nguyen-duy-duong/binh-luan,Vựa Dừa 307 - Dừa Nước & Dừa Tắc - Nguyễn Duy Dương,"307 Nguyễn Duy Dương, P. 4",12,1151462,2,0.0,0,0,0,0,1,0,10.7645522,106.6700374
/ho-chi-minh/dimsum-homemade-ha-cao-dac-biet-ho-ba-kien/binh-luan,Dimsum Homemade - Há Cảo Đặc Biệt - Hồ Bá Kiện,"164 Hồ Bá Kiện, P. 15",12,1151382,2,0.0,0,0,0,0,6,0,10.7835611949627,106.6663199683078
/ho-chi-minh/pho-nhat-tam-pho-bap-hoa-bo-kho-banh-mi-hu-tieu-bo-kho/binh-luan,"Phở Nhất Tâm - Phở Bắp Hoa, Bò Kho Bánh Mì & Hủ Tiếu Bò Kho","635 Cách Mạng Tháng 8, P. 15",12,1151378,2,0.0,0,0,0,0,2,0,10.7855803,106.6670001
/ho-chi-minh/vua-banh-crepe-vinh-vien/binh-luan,Vua Bánh Crepe - Vĩnh Viễn,"119 Vĩnh Viễn, P. 4",12,1151343,2,0.0,0,0,0,0,3,0,10.764507,106.671291
/ho-chi-minh/quan-my-quang-43-nhat-tao/binh-luan,Quán Mỳ Quảng 43 - Nhật Tảo,"2A Nhật Tảo, P. 9",12,1151305,2,0.0,0,0,0,0,1,0,10.7650297,106.6688476
/ho-chi-minh/sua-chua-2-co-gai/binh-luan,Sữa Chua 2 Cô Gái,"269/33 Vĩnh Viễn, P. 5",12,1045149,2,10.0,13,0,4,2,85,2,10.762443,106.667935
/ho-chi-minh/co-phuong-cafe-3-thang-2/binh-luan,Cô Phượng Cafe - 3 Tháng 2,"52 Đường 3 Tháng 2, P. 12",12,697547,2,10.0,8,0,3,2,307,1,10.7742578399822,106.678678393364
/ho-chi-minh/nha-hang-xom-chai-ong-nau/binh-luan,Nhà Hàng Xóm Chài Ông Nẫu,"30-32 Đồng Nai, P. 15",12,791334,2,10.0,40,0,1,4,2845,5,10.7776229,106.6640411999999
/ho-chi-minh/hoang-nam-cafe-com-trua-van-phong/binh-luan,Hoàng Nam - Cafe & Cơm Trưa Văn Phòng,U12B Bạch Mã,12,708011,2,10.0,9,0,2,2,488,1,10.7811478,106.6633509
/ho-chi-minh/bia-tuoi-sai-gon-che-buoi-lucy/binh-luan,Bia Tươi Sài Gòn - Chè Bưởi Lucy,"83/23G Hòa Hưng, P. 12",12,987167,2,10.0,2,0,2,4,295,3,10.778787,106.675655
/ho-chi-minh/mate-our-kitchen-milktea/binh-luan,Mate Our Kitchen - Milktea,"606/147/16 Đường 3 Tháng 2, P. 14",12,1054144,2,10.0,3,0,3,0,73,2,10.76821,106.661659
/ho-chi-minh/amy-coffee/binh-luan,Amy Coffee,"87C Hòa Hưng, P. 12",12,700575,2,10.0,11,0,2,0,276,3,10.7793136,106.6748325999999
/ho-chi-minh/young-young-mon-an-han-quoc-tokbokki-kimbap/binh-luan,Young Young Món Ăn Hàn Quốc- Tokbokki & Kimbap ,"39 Trường Sơn, P. 15",12,1122255,2,10.0,7,13,1,8,1656,0,10.784981,106.6661155
/ho-chi-minh/kim-xuyen-nha-dam-duong-phen-hat-chia-shop-online/binh-luan,Kim Xuyến - Nha Đam Đường Phèn Hạt Chia - Shop Online,"Lô H Chung Cư Lê Thị Riêng, Nguyễn Giản Thanh, P. 15",12,715264,2,10.0,10,0,1,2,286,3,10.78324,106.663215
/ho-chi-minh/banh-trang-hien-dang/binh-luan,Bánh Tráng Hiền Đặng,"480E Cao Thắng, P. 12",12,712636,2,10.0,27,0,2,2,315,0,10.775541,106.670687
/ho-chi-minh/ind-cafe-cold-brew-nguyen-tri-phuong.wayat2/binh-luan,IND Cafe - Cold Brew - Nguyễn Tri Phương,"541/2 Nguyễn Tri Phương, P. 8",12,1000026237,2,10.0,3,0,3,2,200,0,10.7671698,106.6669142
/ho-chi-minh/che-thai-y-phuong/binh-luan,Chè Thái Ý Phương,"380 Nguyễn Tri Phương, P. 4",12,1631,2,5.704,1189,0,528,424,105853,178,10.764312,106.668057
/ho-chi-minh/co-nam-cut-chien-bo/binh-luan,Cô Năm - Cút Chiên Bơ,"54 Đồng Nai, P. 15",12,1086,2,7.006,1358,0,481,972,122261,191,10.778295,106.663584
/ho-chi-minh/cheese-coffee-su-van-hanh/binh-luan,Cheese Coffee - Sư Vạn Hạnh,"782 Sư Vạn Hạnh, P. 12",12,652833,2,7.284,2859,0,474,191,66553,73,10.773724,106.668639
/ho-chi-minh/gia-bao-com-van-phong-nguyen-ngoc-loc/binh-luan,Gia Bảo Cơm Văn Phòng - Cách Mạng Tháng Tám,"463b/56 Cách Mạng Tháng Tám, P.13",12,1069141,2,9.476,5,201,465,6,729,1,10.7798552,106.6732906
/ho-chi-minh/banh-sau-rieng-kem-lanh-to-hien-thanh/binh-luan,The Jade - Bánh Sầu Riêng Kem Lạnh - 3/2,"45/1 Đường 3 Tháng 2, P. 11",12,102503,2,6.78,456,0,194,877,132886,76,10.774558,106.679264
/ho-chi-minh/oc-sao-oc-cac-mon-hai-san/binh-luan,Ốc Sao - Ốc & Các Món Hải Sản,270 Nguyễn Chí Thanh,12,670004,2,7.2,8,0,1,0,296,3,10.823099,106.629664
/ho-chi-minh/t7-win-coffee/binh-luan,T7 Win Coffee,Đối Diện 50 Nguyễn Ngọc Lộc,12,648053,2,0.0,3,0,0,0,33,0,10.823099,106.629664
/ho-chi-minh/bun-rieu-tom-kho/binh-luan,Bún Riêu Tôm Khô,"29 Nguyễn Kim, P. 7",12,930020,2,0.0,0,2,0,1,73,1,10.772597,106.637252
/ho-chi-minh/quan-nhu-ngoc-bun-moc-pho-bo/binh-luan,Quán Như Ngọc - Bún Mọc & Phở Bò,"Hẻm 666/64 3 Tháng 2, P. 14",12,198478,2,7.4,4,0,2,2,574,1,10.754937,106.643499
/ho-chi-minh/hu-tieu-nam-vang-lo-sieu/binh-luan,Hủ Tiếu Nam Vang - Lò Siêu,"90A Lò Siêu, P. 16",12,136279,2,7.4,4,0,2,1,360,0,10.757393,106.649091
/ho-chi-minh/men-vi-sinh-bifina-nhat-ban-shop-online/binh-luan,Men Vi Sinh Bifina Nhật Bản - Shop Online,"606/11 Đường 3 Tháng 2, P. 14",12,656474,2,0.0,17,0,0,0,163,0,10.7580695,106.6492231
/ho-chi-minh/banh-mi-ma-hai-chung-cu-phu-tho-thuan-viet/binh-luan,Bánh Mì Má Hải - Chung Cư Phú Thọ Thuận Việt,"C0.10 Chung Cư Phú Thọ Thuận Việt, 319 Lý Thường Kiệt, P. 15",12,913059,2,6.8,16,0,1,0,134,2,10.7761244,106.6537946
/ho-chi-minh/hu-tieu-my-tho-thien-phuoc/binh-luan,Hủ Tiếu Mỹ Tho - Thiên Phước,Thiên Phước,12,97812,2,6.65,12,0,4,6,1430,3,10.776239,106.653823
/ho-chi-minh/vuon-xanh-nuoc-cam-nuoc-ep-nguyen-chat/binh-luan,Vườn Xanh - Nước Cam & Nước Ép Nguyên Chất,"40 Tự Lập, P. 4",12,1106675,2,0.0,0,0,0,0,11,0,10.792235,106.655617
/ho-chi-minh/com-ga-hai-nam-nguyen-tri-phuong/binh-luan,Cơm Gà Hải Nam - Nguyễn Tri Phương,"379 Nguyễn Tri Phương, P. 5",12,1148,2,6.386,873,0,217,329,68832,80,10.7630497,106.6679754
/ho-chi-minh/koi-the-nguyen-tri-phuong/binh-luan,KOI Thé - Nguyễn Tri Phương,266 Nguyễn Tri Phương,12,773454,2,7.158,284,0,33,29,6564,4,10.76212,106.668443
/ho-chi-minh/com-tam-hau-to-hien-thanh/binh-luan,Cơm Tấm Hậu - Tô Hiến Thành,"235 Tô Hiến Thành, P. 13",12,1128717,2,0.0,0,0,0,0,145,0,10.779115,106.6672503
/ho-chi-minh/quan-chay-thoi-ke-le-hong-phong/binh-luan,Quán Chay Thôi Kệ - Lê Hồng Phong,"727 Lê Hồng Phong, P. 12",12,188485,2,7.462,460,0,79,127,18282,6,10.7714681,106.6726521
/ho-chi-minh/tra-sua-maycha-nguyen-tri-phuong/binh-luan,Trà Sữa Maycha - Nguyễn Tri Phương,"250 Nguyễn Tri Phương, P. 4",12,1021507,2,6.512,278,1,49,9,3845,6,10.761754,106.668589
/ho-chi-minh/phan-le-bun-ca-loc-cao-thang/binh-luan,Phan Lê - Bún Cá Lóc - Cao Thắng,"159 Cao Thắng, P. 11",12,767327,2,7.278,127,0,46,74,4299,4,10.773447,106.678147
/ho-chi-minh/tien-hai-quan-bun-dau-mam-tom-ha-noi/binh-luan,Tiến Hải Quán - Bún Đậu Mắm Tôm Hà Nội,"409 Nguyễn Tri Phương, P. 5",12,130730,2,6.95,1733,0,458,391,51048,132,10.7637114,106.6679475
/ho-chi-minh/mcdonald-s-saigon-supermarket/binh-luan,McDonald’s Saigon Supermarket,"Siêu Thị Sài Gòn, 460 Đường 3 Tháng 2, P. 12",12,247390,2,6.664,660,0,84,46,4854,17,10.7681131,106.6674131
/ho-chi-minh/o-tu-bun-bo-hue-nguyen-tri-phuong/binh-luan,O Tú - Bún Bò Huế - Nguyễn Tri Phương,"466A Nguyễn Tri Phương, P. 9",12,1037686,2,7.35,50,0,16,14,1427,3,10.766275,106.667573
/ho-chi-minh/mi-tron-ten-lua-cach-mang-thang-8/binh-luan,Mì Trộn Tên Lửa - Cách Mạng Tháng 8,"283/22 Cách Mạng Tháng 8, P. 12",12,933170,2,5.564,143,1,50,67,10036,3,10.778702,106.679833
/ho-chi-minh/ni-map-com-tam-com-van-phong/binh-luan,Ni Mập - Cơm Tấm & Cơm Văn Phòng,"102 Hoà Hưng, P. 13",12,952092,2,6.58,59,0,21,9,2664,1,10.7796437,106.6750584
/ho-chi-minh/lau-thai-de-vuong-food-house-nguyen-tri-phuong/binh-luan,Lẩu Thái Đế Vương - Food House - Nguyễn Tri Phương,"230 Nguyễn Tri Phương, P. 4",12,725488,2,6.464,459,0,139,139,32846,22,10.761451,106.668591
/ho-chi-minh/king-bbq-buffet-su-van-hanh/binh-luan,King BBQ Buffet - Sư Vạn Hạnh,"716 Sư Vạn Hạnh (Nối Dài), P. 12",12,300793,2,6.942,797,0,133,92,33422,18,10.775569,106.666011
/ho-chi-minh/buffet-lau-chay/binh-luan,Buffet Lẩu Chay,"727 Lê Hồng Phong (Nối Dài), P. 12",12,801509,2,8.764,51,0,11,26,4442,0,10.771309,106.672735
/ho-chi-minh/tiem-mi-y-mua-he/binh-luan,Tiệm Mì Ý Mùa Hè,"371 Vĩnh Viễn, P. 5",12,778106,2,8.24,758,0,118,362,14108,7,10.763222,106.665701
/ho-chi-minh/papa-s-chicken-nguyen-tri-phuong/binh-luan,Papas' Chicken - Gà Rán Hàn Quốc - Nguyễn Tri Phương,"427 Nguyễn Tri Phương, P. 8",12,317158,2,6.992,1844,0,206,252,23590,29,10.7641169,106.6678001
/ho-chi-minh/hutong-hotpot-paradise-van-hanh-mall/binh-luan,Hutong - Hotpot Paradise - Vạn Hạnh Mall,"Tầng 5 Vạn Hạnh Mall, 11 Sư Vạn Hạnh, P. 12",12,718293,2,8.194,513,0,182,33,8077,21,10.770227,106.670389
/ho-chi-minh/nha-hang-phap-bistrot-de-saigon/binh-luan,Nhà Hàng Bistrot De Saigon,"Q9 Bạch Mã, P. 15",12,30345,2,8.326,890,0,153,384,68051,60,10.780813,106.663041
/ho-chi-minh/lau-hong-kong-bone-pot-nguyen-tri-phuong/binh-luan,Lẩu Hồng Kông Bone & Pot - Nguyễn Tri Phương,"386 Nguyễn Tri Phương, P. 4",12,18934,2,7.268,1240,0,104,137,65321,55,10.764361,106.667987
/ho-chi-minh/emoji-pizza/binh-luan,Emoji Pizza - Pizza Lò Củi,"4/1 Hoàng Dư Khương, P. 12",12,938779,2,8.804,622,2,48,128,4720,9,10.775353,106.672353
/ho-chi-minh/taco-bistro/binh-luan,Taco Bistro,"163/14/5 Tô Hiến Thành, P. 13",12,907995,2,8.19,362,0,52,119,3483,19,10.779377,106.66932
/ho-chi-minh/nha-hang-hai-san-phi-pho-bien/binh-luan,Nhà Hàng Hải Sản Phi Phố Biển,16A Góc Cao Thắng Nối Dài,12,4802,2,6.746,357,0,41,32,61087,19,10.774853,106.672257
/ho-chi-minh/ga-9-quy-nguyen-kim/binh-luan,Gà 9 Quý - Nguyễn Kim,"65A Nguyễn Kim, P. 7",12,922207,2,6.96,105,0,25,41,4283,2,10.7590243,106.6623101
/ho-chi-minh/kohaku-sushi-van-hanh-mall/binh-luan,Kohaku Sushi - Vạn Hạnh Mall,"Vạn Hạnh Mall, 11 Sự Vạn Hạnh, P. 12",12,719684,2,7.274,213,0,49,12,3180,8,10.77087,106.669714
/ho-chi-minh/nha-hang-sa-yen-nguyen-tri-phuong/binh-luan,Nhà Hàng Sa Yến - Nguyễn Tri Phương,"533 Nguyễn Tri Phương, P. 8",12,1063510,2,7.9,157,0,6,1,240,0,10.7668829656781,106.6671515948697
/ho-chi-minh/ga-ran-chicken-plus-su-van-hanh/binh-luan,Gà Rán Chicken Plus - Sư Vạn Hạnh,"850 Sư Vạn Hạnh, P. 13",12,1034210,2,3.474,62,4,14,5,1774,0,10.777536,106.665918
/ho-chi-minh/bam-bam-korean-pub/binh-luan,Bam Bam - Korean Pub,"355/13 Sư Vạn Hạnh, P. 12",12,1030358,2,8.0,3,0,1,4,348,0,10.770698,106.669779
/ho-chi-minh/thai-togo-mon-thai/binh-luan,Thai ToGo - Món Thái - Sư Vạn Hạnh,"824/25A Sư Vạn Hạnh, P. 13",12,855450,2,6.412,141,0,53,34,3684,9,10.776493,106.667995
/ho-chi-minh/lau-bo-sai-gon-vivu-van-hanh-mall/binh-luan,Lẩu Bò Sài Gòn Vivu - Vạn Hạnh Mall,"Tầng Hầm B2, Vạn Hạnh Mall, 11 Sư Vạn Hạnh, P. 12",12,717066,2,6.77,537,0,44,12,7130,1,10.7706058,106.669803
/ho-chi-minh/sao-bien-nha-hang-hai-san/binh-luan,Sao Biển - Nhà Hàng Hải Sản,"15 Nguyễn Giản Thanh, P. 15",12,1003936,2,7.8,12,0,2,0,880,0,10.7818,106.666268
/ho-chi-minh/bep-nha-ba-xa-dien-bien-phu/binh-luan,Bếp Nhà Bà Xã - Điện Biên Phủ,"324/1 Điện Biên Phủ, P. 11",12,968497,2,7.292,70,3,31,22,1326,19,10.775088,106.681781
/ho-chi-minh/all-in-quan-an-gia-dinh/binh-luan,All In - Beer Garden,91/1 Hoà Hưng,12,721554,2,9.258,114,0,7,18,2901,0,10.779222,106.6744585
/ho-chi-minh/nha-hang-am-thuc-que-nha-thanh-thai/binh-luan,Nhà Hàng Ẩm Thực Quê Nhà - Thành Thái,"5 Thành Thái, P. 14",12,965586,2,7.886,65,0,33,2,5923,10,10.769513,106.666225
/ho-chi-minh/kichi-kichi-lau-bang-chuyen-su-van-hanh/binh-luan,Kichi Kichi Lẩu Băng Chuyền - Sư Vạn Hạnh,"830 Sư Vạn Hạnh, P. 13",12,4235,2,8.056,1023,0,389,78,44347,105,10.77645,106.666684
/ho-chi-minh/bun-dau-mam-tom-a-chanh/binh-luan,Bún Đậu Mắm Tôm A Chảnh - Tô Hiến Thành,"367 Tô Hiến Thành, P. 14",12,105856,2,7.026,1044,0,276,295,93441,86,10.776327,106.663541
/ho-chi-minh/nha-hang-nuong-barbecue-garden/binh-luan,Nhà Hàng Nướng BARBECUE GARDEN,448 Đường 3 Tháng 2,12,158,2,7.298,826,0,152,395,85784,107,10.7689002,106.6683481
/ho-chi-minh/con-voi-vang-maximark-3-thang-2/binh-luan,Con Voi Vàng - Vincom Maximark 3/2,"Tầng 4, Food Court Vincom Maximark Đường 3 Tháng 2",12,39052,2,7.152,1440,0,153,223,62562,86,10.776316,106.681076
/ho-chi-minh/toilet-kingdom-coffee-food/binh-luan,Toilet Kingdom Coffee & Food,"328 Nguyễn Chí Thanh, P. 5",12,91418,2,6.828,1242,0,169,436,124353,118,10.759677,106.666876
/ho-chi-minh/iron-steak/binh-luan,Iron Steak - Lê Hồng Phong,624 Lê Hồng Phong,12,746974,2,6.824,726,0,237,643,44877,22,10.769403,106.67389
/ho-chi-minh/haru-sushi-nguyen-tri-phuong/binh-luan,Haru Sushi - Nguyễn Tri Phương,"371 Nguyễn Tri Phương, P. 5",12,730486,2,7.988,1244,0,160,328,22399,50,10.76285,106.668018
/ho-chi-minh/ba-la-tra-nguyen-tri-phuong/binh-luan,Ba Lá Trà - Nguyễn Tri Phương,"515A Nguyễn Tri Phương, P. 8",12,123017,2,6.414,1048,0,231,121,64410,77,10.7660473,106.6674292
/ho-chi-minh/banh-9-sach-banh-sau-rieng-bac-hai/binh-luan,Bánh 9 Sạch - Bánh Sầu Riêng - Bắc Hải,"7B Bắc Hải, P. 15",12,1145116,2,9.03,4,0,104,4,233,0,10.786583,106.664389
/ho-chi-minh/chada-thai-nha-hang-an-thai-lan-su-van-hanh.3jf2tf/binh-luan,Chada Thai - Nhà Hàng Ăn Thái Lan - Sư Vạn Hạnh,"796/17 Sư Vạn Hạnh, P. 12",12,1000026248,2,6.45,6,9,4,9,806,2,10.77398,106.6684771
/ho-chi-minh/yaourt-sua-chua-pho-mai-da-lat-shop-online/binh-luan,Yaourt - Sữa Chua Phô Mai Đà Lạt - Shop Online,37/32 Nguyễn Ngọc Lộc,12,799983,2,7.2,13,0,1,10,465,0,10.768156,106.662312
/ho-chi-minh/hien-nhung-seafood-lau-sup-hai-san/binh-luan,Hiền Nhung Seafood - Lẩu & Súp Hải Sản,"449/21 Sư Vạn Hạnh, P. 12",12,1117951,2,0.0,0,0,0,0,29,0,10.7708153,106.6696969
/ho-chi-minh/den-da-cafe-tra-sua-tra-dao-su-van-hanh/binh-luan,Đen Đá Cafe - Trà Sữa & Trà Đào - Sư Vạn Hạnh,543 Sư Vạn Hạnh,12,745022,2,6.412,651,0,126,43,11344,14,10.775753,106.667183
/ho-chi-minh/goi-cuon-280-nguyet-hy-an-vat-272b-nguyen-tri-phuong.zookbh/binh-luan,GỎI CUỐN 280 NGUYỆT HỶ - Ăn Vặt - 272b Nguyễn Tri Phương,"272B Nguyễn Tri Phương, P. 4",12,1000045128,2,0.0,0,0,0,0,33,0,10.76232,106.668528
/ho-chi-minh/lau-nhung-nguyet-hy/binh-luan,Lẩu Nhúng Nguyệt Hỷ,"3/38/6 Thành Thái, P. 14",12,1058286,2,0.0,0,2,0,2,53,0,10.7685568630916,106.6649833274371
/ho-chi-minh/quan-ong-gia-quan-an-binh-dan/binh-luan,Quán Ông Già - Quán Ăn Bình Dân,"189 Nhật Tảo, P. 6",12,894732,2,0.0,2,3,0,0,140,0,10.76375,106.664253
/ho-chi-minh/xe-lam-bistro/binh-luan,Xe Lam Bistro,"218A 10-11-12-13 Thành Thái, P. 15",12,47913,2,5.774,453,0,76,39,56055,36,10.7769449,106.6633374
/ho-chi-minh/banh-9-sach-banh-sau-rieng-bac-hai/binh-luan,Bánh 9 Sạch - Bánh Sầu Riêng - Bắc Hải,"7B Bắc Hải, P. 15",12,1145116,2,9.03,4,0,103,4,233,0,10.786583,106.664389
/ho-chi-minh/di-lan-mi-oc-hen/binh-luan,Mì Ốc Hến Dì Lan - Cư Xá Đồng Tiến,"1A Cư Xá Đồng Tiến, P. 10",12,687692,2,5.332,160,0,100,149,24297,14,10.769879,106.66463
/ho-chi-minh/quan-sieu-cua-bun-rieu-cua-oc-bun-rieu-ba-hat/binh-luan,Quán Siêu Cua - Bún Riêu Cua Ốc & Bún Riêu - Bà Hạt,"005 Lô A Chung Cư Ấn Quang Bà Hạt , P. 9",12,1143614,2,0.0,0,0,0,0,4,0,10.7661586,106.6708892
/ho-chi-minh/a-tai-bun-thit-nuong-tam-dao/binh-luan,A Tài - Bún Thịt Nướng - Tam Đảo,"92 Tam Đảo, P. 14",12,1136387,2,0.0,0,1,0,0,20,0,10.7755637,106.6591798
/ho-chi-minh/chao-suon-chu-chen-to-hien-thanh/binh-luan,Cháo Sườn Chú Chen - Tô Hiến Thành,"523 Tô Hiến Thành, P.14",12,1122016,2,0.0,0,1,0,0,79,0,10.7723936,106.660606
/ho-chi-minh/quan-bun-ca-chau-doc-bong-dien-dien-ba-hat.e7nzx3/binh-luan,Quán Bún Cá Châu Đốc Bông Điên Điển - Bà Hạt,"188 Bà Hạt, P. 9",12,1000040421,2,0.0,0,0,0,0,21,0,10.7664909,106.6707674
/ho-chi-minh/hu-tieu-nam-vang-thanh-dat-hu-tieu-nam-vang-hoa-hao.uonnh2/binh-luan,Hủ Tiếu Nam Vang Thành Đạt - Hủ tiếu nam vang -  Hoà Hảo,"452  Hòa Hảo, P. 5",12,1000026737,2,0.0,1,1,0,0,64,0,10.7614498,106.6661598
/ho-chi-minh/bun-thang-pho-thanh/binh-luan,Bún Thang - Phở Thanh,"018 Lô F Chung Cư Ngô Gia Tự, P. 2",12,1030246,2,8.6,3,0,2,4,285,1,10.7631641,106.6725122
/ho-chi-minh/mi-xa-xiu-a-phu-hoa-hao-hoa-hao.hyiowp/binh-luan,Mì Xá Xíu A Phú - Hoà Hảo - Hoà Hảo,"236 Hòa Hảo, P. 3",12,1000024819,2,0.0,0,8,0,3,135,0,10.7630155,106.6729526
/ho-chi-minh/com-tam-phuc-loc-tho-ly-thuong-kiet/binh-luan,Cơm Tấm Phúc Lộc Thọ - Lý Thường Kiệt,"144 Lý Thường Kiệt, P. 14",12,1031801,2,6.724,20,1,16,4,534,1,10.764434,106.659684
/ho-chi-minh/hu-tieu-suon-bo-kho-quan-co-sau/binh-luan,"Hủ Tiếu Sườn, Bò Kho - Quán Cô Sáu","428 Nguyễn Chí Thanh, P. 6",12,1072277,2,0.0,0,0,0,0,92,0,10.7594728,106.6647737
/ho-chi-minh/banh-bao-tho-phat-182-nguyen-tri-phuong/binh-luan,Bánh Bao Thọ Phát - 182 Nguyễn Tri Phương,"182 Nguyễn Tri Phương, P. 4",12,1000000785,2,4.136,4,0,3,0,163,0,10.760261,106.668875
/ho-chi-minh/ghien-banh-canh-dien-bien-phu/binh-luan,Ghiền Bánh Canh - Điện Biên Phủ,"460 Điện Biên Phủ, P. 11",12,1148221,2,0.0,0,0,0,0,2,0,10.772838,106.678967
/ho-chi-minh/quan-ut7-chao-bo-mi-bo-vien-dien-bien-phu/binh-luan,Quán UT7 - Cháo Bò & Mì Bò Viên - Điện Biên Phủ,"702/53 Điện Biên Phủ, P. 10",12,1144515,2,0.0,0,0,0,0,2,0,10.7701969,106.6745615
/ho-chi-minh/bun-dau-mam-tom-ha-noi-tuan-anh-su-van-hanh/binh-luan,Bún Đậu Mắm Tôm Hà Nội TUẤN ANH - Sư Vạn Hạnh,"491 Sư Vạn Hạnh, P. 12",12,1141408,2,0.0,0,1,0,0,4,0,10.7739951,106.6684952
/ho-chi-minh/dien-gia-food-drink-nguyen-tri-phuong/binh-luan,Điền Gia Food & Drink - Nguyễn Tri Phương,"Lakai Building, 98 - 126 Nguyễn Tri Phương",12,1137672,2,8.9,6,0,2,0,31,0,10.75411,106.6695973
/ho-chi-minh/tau-hu-xe-lam-buu-long/binh-luan,Tàu Hủ Xe Lam - Bửu Long,"B1B Bửu Long, P.15",12,286077,2,6.824,286,0,46,72,8113,13,10.7826985,106.6618117
/ho-chi-minh/get-sweet-che-an-vat-nguyen-tri-phuong/binh-luan,Get Sweet - Chè & Ăn Vặt - Nguyễn Tri Phương,"420 Nguyễn Tri Phương, P. 4",12,1138244,2,0.0,0,1,0,0,26,0,10.7650149,106.6678319
/ho-chi-minh/analog-cafe-hung-vuong/binh-luan,Analog Cafe - Hùng Vương,"40 Hùng Vương, P. 1",12,648515,2,8.8,6,0,2,4,691,1,10.7632015,106.677892
/ho-chi-minh/nha-hang-loc-thai-nguyen-tri-phuong/binh-luan,Nhà Hàng Lộc Thái - Nguyễn Tri Phương,"369 Nguyễn Tri Phương, P. 5",12,1136829,2,0.0,0,2,0,0,68,0,10.7628296,106.6680296
/ho-chi-minh/quan-tra-sua-sociu-1997-thanh-thai/binh-luan,Quán Trà Sữa Sociu 1997 - Thành Thái,"7A/154 Thành Thái, P. 14",12,1136043,2,0.0,0,3,0,1,91,0,10.7719238,106.6619059
/ho-chi-minh/tra-dau-mr-do-thanh-thai/binh-luan,Trà Dâu Mr. Đỏ - Thành Thái,"128 Thành Thái, P. 10",12,1134367,2,0.0,0,0,0,0,28,0,10.7747713,106.6643071
/ho-chi-minh/tra-sua-sacha-bac-hai/binh-luan,Trà Sữa SaCha - Bắc Hải,"186 Bắc Hải, P. 6",12,1134133,2,0.0,0,0,0,0,24,0,10.7844456,106.6623931
/ho-chi-minh/quan-oc-xu-nau-to-hien-thanh/binh-luan,Quán Ốc Xứ Nẫu - Tô Hiến Thành,"163/21 Tô Hiến Thành, P. 13",12,1132322,2,0.0,0,5,0,0,195,0,10.7796747802195,106.6687942688882
/ho-chi-minh/hancook-korean-fast-food-nguyen-tri-phuong/binh-luan,Hancook Korean Fast Food - Nguyễn Tri Phương,"263 Nguyễn Tri Phương, P. 5",12,159587,2,6.786,3410,0,543,603,76453,123,10.7604686,106.6687019
/ho-chi-minh/hoi-an-quan/binh-luan,Hội An Quán - Cách Mạng Tháng 8,"285/94A Cách Mạng Tháng 8, P. 12",12,5716,2,6.282,192,0,30,42,16418,8,10.777915,106.679649
/ho-chi-minh/banh-mi-ma-hai-vinh-vien/binh-luan,Bánh Mì Má Hải - Vĩnh Viễn,"187 Vĩnh Viễn, P. 4",12,95580,2,7.71,92,0,31,50,8801,5,10.764122,106.669815
/ho-chi-minh/cong-rau-ma/binh-luan,Cộng Rau Má - Lê Hồng Phong,"725 Lê Hồng Phong, P. 12",12,991579,2,7.496,60,0,17,7,3166,7,10.771422,106.672632
/ho-chi-minh/com-ong-ngua-ho-thi-ky/binh-luan,Cơm Ông Ngựa - Hồ Thị Kỷ,"51/4 Hồ Thị Kỷ, P. 1",12,725257,2,8.706,205,0,70,95,4895,4,10.7646709,106.6771512
/ho-chi-minh/thom-tra-trai-cay/binh-luan,Thơm - Trà Trái Cây,"42CT Tam Đảo, Cư Xá Bắc Hải, P. 15",12,1003914,2,7.26,46,0,33,67,4316,1,10.780088,106.6641746
/ho-chi-minh/young-coffee-tea-hong-linh/binh-luan,Young Coffee & Tea - Hồng Lĩnh,"Y12 Hồng Lĩnh, P. 15",12,757483,2,7.786,353,0,109,80,14340,11,10.7803556,106.6638104
/ho-chi-minh/hanoi-ngon-nem-chua-ran-an-vat-chuan-ha-noi-to-hien-thanh/binh-luan,Hanoi Ngon - Nem Chua Rán Ăn Vặt Chuẩn Hà Nội - Tô Hiến Thành,"243/7 Tô Hiến Thành, P. 13",12,767367,2,7.142,451,0,113,181,10308,7,10.778617,106.6673
/ho-chi-minh/tra-sua-wecha-vinh-vien/binh-luan,Trà Sữa Wecha - Vĩnh Viễn,"209B Vĩnh Viễn, P. 4",12,1013033,2,9.042,353,0,59,65,1777,18,10.7642616,106.669456
/ho-chi-minh/salad-poki-katuri/binh-luan,Salad Poki Katuri,"456 Bà Hạt, P. 8",12,774528,2,8.2,140,0,81,172,5210,25,10.765469,106.6657545
/ho-chi-minh/che-thai-y-phuong/binh-luan,Chè Thái Ý Phương,"380 Nguyễn Tri Phương, P. 4",12,1631,2,5.704,1189,0,528,424,105854,178,10.764312,106.668057
/ho-chi-minh/hallyu-korean-fast-food-tran-minh-quyen/binh-luan,Hallyu - Korean Fast Food - Trần Minh Quyền,"07 Trần Minh Quyền, P. 10",12,229759,2,7.466,2684,0,347,535,69702,94,10.7697821,106.6754787
/ho-chi-minh/domino-s-pizza-nguyen-tri-phuong/binh-luan,Domino’s Pizza - Nguyễn Tri Phương,"313 Nguyễn Tri Phương, P. 5",12,4639,2,7.404,1196,0,281,141,39540,104,10.761739,106.668376
/ho-chi-minh/tiktak-tra-sua-tra-dao-cmt8/binh-luan,TikTak - Trà Sữa & Trà Đào - Cách Mạng Tháng 8,"503B Cách Mạng Tháng 8, P. 13",12,132210,2,6.876,1163,0,346,584,122083,106,10.782381,106.672776
/ho-chi-minh/britea-english-tea-house-nguyen-tri-phuong/binh-luan,Britea - English Tea House - Nguyễn Tri Phương,"243 Nguyễn Tri Phương, P. 5",12,701019,2,7.192,2396,0,449,148,40118,48,10.7601344923326,106.6686160262552
/ho-chi-minh/banh-sau-rieng-nhu-y-tiem-banh-online/binh-luan,Cửa Hàng Như Ý Food,"575/22 Cách Mạng Tháng 8, P. 15",12,92556,2,6.87,358,0,95,439,130789,79,10.7833429251788,106.6709536314011
/ho-chi-minh/banh-canh-cua-gia-truyen-25k/binh-luan,Bánh Canh Cua Gia Truyền - Vĩnh Viễn,"79 Vĩnh Viễn, P. 2",12,127690,2,6.976,795,0,213,599,120539,83,10.7651162,106.67339
/ho-chi-minh/banh-canh-ghe-nguyen-tri-phuong/binh-luan,Bánh Canh Ghẹ Muối Ớt Xanh - Nguyễn Tri Phương,"484A Nguyễn Tri Phương, P. 9",12,3150,2,5.634,832,0,347,375,115391,124,10.767089,106.667303
/ho-chi-minh/m-city-coffee-hoa-hung/binh-luan,M City Coffee - Hoà Hưng,"91/6H1 Hòa Hưng, P. 12",12,1150809,2,0.0,0,0,0,0,1,0,10.778404,106.673642
/ho-chi-minh/thanh-xuan-tre-tra-hoa-hung/binh-luan,Thanh Xuân - Tré & Trà - Hòa Hưng,"61 Hoà Hưng, P. 12",12,1150684,2,0.0,0,0,0,0,3,0,10.7797980405904,106.675443797587
/ho-chi-minh/nuoc-ep-co-quynh-to-hien-thanh/binh-luan,NƯỚC ÉP CÔ QUỲNH - Tô Hiến Thành,"339/11 Tô Hiến Thành, P. 13",12,1150659,2,0.0,0,0,0,0,3,0,10.7766980159494,106.6651390183524
/ho-chi-minh/com-van-phong-hao-cuisine-cao-thang/binh-luan,Cơm Văn Phòng Hào Cuisine - Cao Thắng,"152 Cao Thắng, P. 11",12,1150544,2,0.0,0,0,0,0,1,0,10.7731556,106.6786242
/ho-chi-minh/mom-bot-chien-ho-thi-ky-nui-xao-banh-he-chien-le-hong-phong/binh-luan,Móm Bột Chiên Hồ Thị Kỷ - Nui Xào & Bánh Hẹ Chiên - Lê Hồng Phong,"382/47A Lê Hồng Phong, P. 1",12,1150486,2,0.0,0,0,0,0,1,0,10.764469,106.676667
/ho-chi-minh/tra-sua-cong-dong-su-van-hanh/binh-luan,Trà Sữa Cộng Đồng - Sư Vạn Hạnh,"451 Sư Vạn Hạnh, P. 12",12,1150459,2,0.0,0,0,0,0,5,0,10.7732064,106.6691896
/ho-chi-minh/banh-mi-hoa-hoa-thuc-pham-210b-ba-hat/binh-luan,Bánh Mì Hoà Hoà - Thực Phẩm - 210B Bà Hạt,"210B Bà Hạt, P. 9",12,1000057955,2,0.0,0,0,0,0,1,0,10.7663933,106.6703467
/ho-chi-minh/banh-trang-tron-co-lan-banh-trang-tron-goi-kho-bo-268-ly-thuong-kiet-p-14-q-10-tphcm.osvdlt/binh-luan,Bánh Tráng Trộn Cô Lan - Gỏi Khô Bò - Lý Thường Kiệt ,"( Trường Đại Học Bách Khoa ) 268 Lý Thường Kiệt, P.14",12,1000057953,2,0.0,0,0,0,0,3,0,10.7733743,106.6606193
/ho-chi-minh/bun-oc-suon-co-sau-nguyen-tri-phuong/binh-luan,Bún Ốc Sườn Cô Sáu - Nguyễn Tri Phương,"466C Nguyễn Tri Phương, P. 9",12,1150274,2,0.0,0,3,0,1,9,0,10.7662512,106.6675899
/ho-chi-minh/quan-banh-flan-679-1-duong-3-2/binh-luan,Quán Bánh Flan 679/1 - Đường 3/2,"679/1 Đường 3/2, P. 6",12,1150226,2,0.0,0,0,0,0,1,0,10.7653717,106.6631235
/ho-chi-minh/three-o-clock-coffee-tea-van-hanh-mall/binh-luan,Three O'clock - Coffee & Tea - Vạn Hạnh Mall,"Tầng 6-18A, Trung Tâm Thương Mại Vạn Hạnh, 11 Sư Vạn Hạnh, P. 12",12,1150204,2,0.0,0,0,0,0,4,0,10.7707863,106.6695257
/ho-chi-minh/mannye-kem-vien-xien-que-banh-tam-bi-hoa-hung/binh-luan,"Mannye - Kem Viên, Xiên Que & Bánh Tằm Bì - Hoà Hưng","66 Hoà Hưng, P. 13",12,1150140,2,0.0,0,0,0,0,4,0,10.780087,106.6758125
/ho-chi-minh/ca-vien-chien-23-ca-vien-chien-ho-thi-ky.ovskok/binh-luan,Cá Viên Chiên 23 - Cá Viên Chiên - Hồ Thị Kỷ,"23/7C Hồ Thị Kỷ, P. 1",12,1000023190,2,10.0,11,2,1,1,68,1,10.7635579,106.6775499
/ho-chi-minh/ny-coffee-milk-tea/binh-luan,NY Coffee & Milk Tea,239A Bắc Hải,12,708018,2,10.0,33,0,1,0,364,3,10.7835554,106.6615998
/ho-chi-minh/truong-giang-ca-phe-bds-8888/binh-luan,Trường Giang - Cà Phê BDS 8888,"68/46 Đồng Nai, P. 15",12,1070504,2,10.0,2,0,2,0,49,1,10.779515,106.663995
/ho-chi-minh/tra-sua-thoi-ke/binh-luan,Trà Sữa Thôi Kệ,"733 Lê Hồng Phong, P. 12",12,738906,2,10.0,21,0,1,0,205,1,10.7715168,106.6726297
/ho-chi-minh/banhngot-vn-cua-hang-banh-ngot/binh-luan,Banhngot.vn - Cửa Hàng Bánh Ngọt,"69/4 Hồ Thị Kỷ, P. 1",12,945890,2,10.0,12,1,1,0,118,1,10.765223,106.676947
/ho-chi-minh/cua-ca-mau-69-nguyen-duy-duong/binh-luan,Cua Cà Mau 69 - Nguyễn Duy Dương,"160/30K Nguyễn Duy Dương, P. 3",12,1139803,2,10.0,26,0,2,0,20,0,10.761518,106.671917
/ho-chi-minh/bkl-coffee-book/binh-luan,BKL Coffee & Book,"240 Đường 3 Tháng 2, P. 12",12,1047975,2,10.0,11,0,1,0,73,1,10.7723016023085,106.6738668045654
/ho-chi-minh/banh-trang-nuong-ba-hat/binh-luan,Bánh Tráng Nướng - Bà Hạt,193/16 Bà Hạt,12,752637,2,10.0,13,4,1,6,1030,0,10.765638,106.670428
/ho-chi-minh/com-banh-mi-sai-gon-cao-thang/binh-luan,Cơm & Bánh Mì Sài Gòn - Cao Thắng,"456/30A Cao Thắng, P. 12",12,971420,2,10.0,6,0,3,0,135,0,10.7760643,106.6712774
/ho-chi-minh/banh-bong-lan-nha-lam-ho-thi-ky/binh-luan,Bánh Bông Lan Nhà Làm - Hồ Thị Kỷ,"33 Hồ Thị Kỷ, P. 1",12,860560,2,10.0,4,0,1,7,319,0,10.764088,106.677395
/ho-chi-minh/hu-tieu-cho-nho/binh-luan,Hủ Tiếu Chợ Nhỏ,"83/18B Hoà Hưng, P.12",12,263543,2,10.0,13,0,1,2,615,0,10.780144,106.676666
/ho-chi-minh/sen-trang-bistro-hoa-hung/binh-luan,Sen Trắng Bistro - Hòa Hưng,"91/14 Hoà Hưng, P. 13",12,1038002,2,10.0,7,0,1,1,212,0,10.778232,106.674865
/ho-chi-minh/tra-sua-comebuy-su-van-hanh/binh-luan,Trà Sữa Comebuy - Sư Vạn Hạnh,"682 Sư Vạn Hạnh, P. 12",12,686913,2,8.084,1920,0,349,56,11350,25,10.7702386,106.6705607
/ho-chi-minh/chi-3-bun-nuoc/binh-luan,Chị 3 - Bún Nước - Tô Hiến Thành,"495/2 Tô Hiến Thành, P. 14",12,254683,2,6.762,1164,0,346,759,67932,78,10.7734516,106.6616477
/ho-chi-minh/ga-cay-cay-dkdk/binh-luan,Hduys - Gà Sốt Mật Ong Hàn Quốc,"438/44 Lê Hồng Phong, P. 1",12,890338,2,7.236,152,0,110,710,19770,42,10.7654809,106.6753712
/ho-chi-minh/quan-banh-can-da-lat/binh-luan,Quán Bánh Căn Đà Lạt & Bánh Ướt Lòng Gà,"58/8 Đồng Nai, P. 15",12,647460,2,6.998,758,0,206,692,40731,24,10.778504,106.663621
/ho-chi-minh/rove-banh-ca-nuong-taiyaki/binh-luan,Rove - Bánh Cá Nướng Taiyaki,"207/84 Đường 3 Tháng 2, P. 11",12,223547,2,7.524,560,0,169,668,69707,59,10.7703648,106.6753759
/ho-chi-minh/banh-canh-cua-to-hien-thanh/binh-luan,Bánh Canh Cua Út Lệ - Tô Hiến Thành,204 - 210 Tô Hiến Thành P. 15,12,17307,2,7.078,720,0,329,604,71271,111,10.779214,106.667013
/ho-chi-minh/sushi-vien-ong-chu-nho-78-nguyen-tieu-la/binh-luan,Sushi Viên Ông Chủ Nhỏ - 78 Nguyễn Tiểu La,"78 Nguyễn Tiểu La, P. 5",12,205274,2,5.932,642,0,129,572,73363,46,10.761797,106.666894
/ho-chi-minh/anti-milktea-tra-sua-trai-cay-ly-thuong-kiet/binh-luan,Anti Milktea - Trà Sữa & Trái Cây - Lý Thường Kiệt,"284/71 Lý Thường Kiệt, P. 14",12,1113973,2,0.0,0,0,0,0,29,0,10.7794288049255,106.6556113790811
/ho-chi-minh/xi-trum-cafe-ly-thuong-kiet/binh-luan,Xì Trum Cafe,Hẻm 373 Lý Thường Kiệt,12,280949,2,7.3,16,0,4,0,415,4,10.776713580311,106.6567674279213
/ho-chi-minh/bun-bo-hu-tieu-banh-canh/binh-luan,Bún Bò Hủ Tiếu & Bánh Canh,"268 Lý Thường Kiệt, P. 14",12,295972,2,0.0,0,0,0,0,80,1,10.775188,106.656756
/ho-chi-minh/a-dung-hu-tieu-bo-kho-hu-tieu-my-heo-thap-cam/binh-luan,A Dũng - Hủ Tiếu Bò Kho & Hủ Tiếu Mỳ Heo Thập Cẩm,"528 Đường 3 Tháng 2, P. 14",12,1018981,2,0.0,0,0,0,0,16,0,10.7677892,106.6563368
/ho-chi-minh/tra-sua-hani-le-van-tho/binh-luan,Trà Sữa HaNi - Cao Thắng,"392/8/32 Cao Thắng, P. 12",12,854574,2,0.0,1,0,0,0,79,0,10.77538,106.656943
/ho-chi-minh/com-tam-270/binh-luan,Cơm Tấm 270,"270 Lý Thường Kiệt, P. 14",12,892318,2,8.0,13,0,1,1,146,0,10.7754805983401,106.6569700882224
/ho-chi-minh/tra-sua-be-men-an-vat-nuoc-ep-ly-thuong-kiet.s90nub/binh-luan,Trà Sữa Bé Mén - Ăn Vặt & Nước Ép - Lý Thường Kiệt,"202/60 Lý Thường Kiệt, P. 14",12,1000037055,2,0.0,0,0,0,0,6,0,10.773533,106.6572695
/ho-chi-minh/eve-fruits-chuyen-trai-cay-nhap-khau-trai-cay-354-46-ly-thuong-kiet/binh-luan,EVE Fruits Chuyên Trái Cây Nhập Khẩu - Trái Cây - 354/46 Lý Thường Kiệt,"354/46 Lý Thường Kiệt, P. 14",12,1099137,2,0.0,0,0,0,0,24,0,10.7756804349808,106.6575954140581
/ho-chi-minh/snack-ca-soi-thai-lan-shop-online/binh-luan,Snack Cá Sợi Thái Lan - Shop Online,"Kho 1B, Bắc Hải, P. 14",12,284536,2,7.066,9,0,3,3,1287,0,10.7797821,106.6580216
/ho-chi-minh/bun-bo-hue-ly-thuong-kiet/binh-luan,Bún Bò Huế - Lý Thường Kiệt,"268 Lý Thường Kiệt, P. 14",12,865162,2,0.0,5,0,0,0,138,0,10.7724996666401,106.6576144180597
/ho-chi-minh/quan-ky-linh-lau-via-he/binh-luan,Quán Kỳ Linh - Lẩu Vỉa Hè,"270 Lý Thường Kiệt, P. 14",12,47139,2,6.24,54,0,5,3,1807,2,10.772381767351,106.6578393056988
/ho-chi-minh/s2-cafe-cafe-san-thuong/binh-luan,S2 Cafe - Cafe Sân Thượng,"Tầng 9, 614 - 618 Đường 3 Tháng 2, P. 14",12,48285,2,7.346,179,0,15,28,11024,14,10.762339,106.657288
/ho-chi-minh/phuc-long-to-hien-thanh/binh-luan,Phúc Long Tô Hiến Thành,"218A Thành Thái, P. 15",12,726588,2,6.418,832,0,116,30,12390,14,10.777094,106.662899
/ho-chi-minh/sushi-co-chu-nho-ba-thang-hai/binh-luan,Sushi Cô Chủ Nhỏ - Ba Tháng Hai,"543 Ba Tháng Hai, P. 8",12,91800,2,6.5,1844,0,292,305,88079,81,10.7675722,106.6668697
/ho-chi-minh/2-chi-em-com-ga-nha-trang-truong-son/binh-luan,2 Chị Em - Cơm Gà Nha Trang - Trường Sơn,"CC19 Trường Sơn, P. 15",12,924264,2,6.746,168,0,26,53,2821,5,10.782088,106.664162
/ho-chi-minh/quan-79-nem-nuong/binh-luan,Quán 79 Nem Nướng,"626 Bà Hạt, P. 6",12,15984,2,5.86,69,0,33,198,12019,9,10.7645042,106.6622006
/ho-chi-minh/bun-bo-149-to-hien-thanh/binh-luan,Bún Bò Huế 149 - Tô Hiến Thành,"273/19 Tô Hiến Thành, P. 13",12,675640,2,4.852,111,0,38,53,5777,4,10.778083,106.666747
/ho-chi-minh/mi-y-double-b-to-hien-thanh/binh-luan,Mì Ý Double B - Tô Hiến Thành,"266/70 Tô Hiến Thành, P. 15",12,764840,2,7.152,283,0,87,144,11419,10,10.779685,106.665172
/ho-chi-minh/sup-cua-moc/binh-luan,Súp Cua Mộc - Hòa Hưng,"32 Hòa Hưng, P. 13",12,144927,2,7.316,165,0,52,93,12307,36,10.780032,106.67637
/ho-chi-minh/banh-cuon-thien-huong-3-2/binh-luan,Bánh Cuốn Thiên Hương - 3 Tháng 2,"179A Đường 3 Tháng 2, P. 11",12,5016,2,5.93,565,0,168,243,39044,89,10.772233,106.67548
/ho-chi-minh/com-van-phong-ten-lua/binh-luan,Cơm Văn Phòng Tên Lửa,"283/22 Cách Mạng Tháng 8, P. 12",12,1030043,2,4.766,7,0,6,0,1214,0,10.778245,106.679406
/ho-chi-minh/sugoi-hot-pot-su-van-hanh/binh-luan,Sugoi - Hot Pot - Sư Vạn Hạnh,"Tầng 1, 816 Sư Vạn Hạnh, P. 12",12,856300,2,6.276,120,5,26,43,6062,4,10.774602,106.6682909999999
/ho-chi-minh/nha-hang-hai-san-ty-tom/binh-luan,Nhà Hàng Hải Sản Tỷ Tôm,58A Đồng Nai,12,276509,2,7.468,41,0,6,9,10230,2,10.778407,106.663232
/ho-chi-minh/gastown-cafe-restaurant/binh-luan,Gastown - Cafe & Restaurant,"285/56 Cách Mạng Tháng 8, P. 12",12,963679,2,8.478,83,0,8,35,1996,0,10.777839,106.678381
/ho-chi-minh/redline-club/binh-luan,RedLine Club,175B Cao Thắng Nối Dài,12,795914,2,8.45,76,0,12,5,5636,7,10.7746330059028,106.6763626285631
/ho-chi-minh/otoke-chicken-ga-ran-han-quoc-dao-duy-tu/binh-luan,Otoké Chicken - Gà Rán Hàn Quốc - Đào Duy Từ,31 Đào Duy Từ,12,754247,2,7.97,374,0,159,39,3280,6,10.7606135,106.6678235
/ho-chi-minh/com-nieu-thien-ly-cuu-long/binh-luan,Cơm Niêu Thiên Lý - Cửu Long,"87A Cửu Long, P. 15",12,97744,2,6.924,831,0,272,380,83396,67,10.782683,106.661636
/ho-chi-minh/gogi-house-quan-nuong-han-quoc-van-hanh-mall/binh-luan,Gogi House - Quán Nướng Hàn Quốc - Vạn Hạnh Mall,"02 Vạn Hạnh Mall, 11 Sư Vạn Hạnh, P. 12",12,719615,2,8.906,707,0,248,8,7422,54,10.770582,106.669406
/ho-chi-minh/aka-house-buffet-nuong-lau-nhat-ban-van-hanh-mall/binh-luan,AKA House - Buffet Nướng & Lẩu Nhật Bản - Vạn Hạnh Mall,"09 Tầng 6 Vạn Hạnh Mall, 11 Sư Vạn Hạnh, P. 12",12,717738,2,6.322,482,0,221,30,17237,20,10.770227,106.670389
/ho-chi-minh/bao-bei-chinese-restaurant/binh-luan,Bao Bei - Chinese Restaurant - Viettel Tower,"Tầng 2 Viettel Tower, 285 Cách Mạng Tháng 8, P. 12",12,858249,2,8.096,1613,0,92,190,14112,10,10.7787670512437,106.6795969484795
/ho-chi-minh/friends-by-pontian-mi-singapore-nguyen-tri-phuong/binh-luan,Friends By Pontian - Mì Singapore - Nguyễn Tri Phương,"416 Nguyễn Tri Phương, P. 4",12,221116,2,6.184,548,0,98,324,46478,26,10.7648969,106.6678602
/ho-chi-minh/deja-vu-coffee/binh-luan,Deja Vu Coffee,"314/2 Điện Biên Phủ, P.11",12,1251,2,7.34,484,0,92,130,63922,40,10.775797,106.682096
/ho-chi-minh/phuong-hoang-nguyen-tri-phuong/binh-luan,Trà Sữa Trân Châu Phượng Hoàng,"317B Nguyễn Tri Phương, P. 5",12,19561,2,6.428,295,0,152,157,51245,58,10.762026,106.668336
/ho-chi-minh/effoc-cafe-nguyen-tri-phuong/binh-luan,Effoc Cafe - Nguyễn Tri Phương,"212 Nguyễn Tri Phương, P. 4",12,106291,2,7.08,652,0,150,60,13134,32,10.7610072,106.668811
/ho-chi-minh/auntie-kim-tra-sua-3-thang-2/binh-luan,Auntie Kim - Trà Sữa - 3 Tháng 2,"643 Đường 3 Tháng 2, P. 6",12,674088,2,7.516,1114,0,139,67,9884,17,10.7658088,106.6638827
/ho-chi-minh/flour-no-8-coffee-shop/binh-luan,Flour 89 - Coffee Shop,59/4 Đào Duy Từ,12,211091,2,7.542,915,0,111,116,58912,31,10.760207,106.66745
/ho-chi-minh/che-thai-co-phuong-nguyen-tri-phuong/binh-luan,Chè Thái Cô Phương - Nguyễn Tri Phương,"302 Nguyễn Tri Phương, P. 4",12,907624,2,9.9,7,0,2,0,126,0,10.762766,106.668532
/ho-chi-minh/sushi-kei-van-hanh-mall/binh-luan,Sushi Kei Vạn Hạnh Mall,"5-03A Tầng 5, Vạn Hạnh Mall, 11 Sư Vạn Hạnh, P. 12",12,719617,2,6.224,202,0,37,13,5638,2,10.770823,106.669862
/ho-chi-minh/ga-nuong-o-o-o-ga-nuong-nhieu-vi-hoang-du-khuong/binh-luan,Gà Nướng Ò Ó O - Gà Nướng Nhiều Vị - Hoàng Dư Khương,"4/7 Hoàng Dư Khương, P. 12",12,1137881,2,0.0,0,0,0,0,29,0,10.7754575,106.6723921
/ho-chi-minh/banh-sau-rieng-durio-le-thi-rieng/binh-luan,Bánh Sầu Riêng Durio - Lê Thị Riêng,"Kiot Công viên Lê Thị Riêng, Cách Mạng Tháng 8",12,10937,2,6.924,220,0,89,205,27014,63,10.785714,106.666324
/ho-chi-minh/chicken-hot-space-ga-ran-khong-lo-dai-loan-nguyen-tri-phuong/binh-luan,Chicken Hot Space - Gà Rán Khổng Lồ Đài Loan - Nguyễn Tri Phương,"439A Nguyễn Tri Phương, P. 8",12,1144387,2,0.0,0,3,0,0,89,0,10.7645684,106.6676687
/ho-chi-minh/quan-com-trua-2q/binh-luan,Hải Sản & Món Nhậu 2Q,"3/2 Thành Thái, P. 14",12,852357,2,0.0,13,6,0,0,132,0,10.768861,106.66602
/ho-chi-minh/mi-y-napoli-pizza-singapore/binh-luan,Mì Ý Napoli & Pizza Singapore,606/97 Đường 3 Tháng 2,12,643518,2,8.066,56,0,6,40,1538,5,10.7675018649351,106.661832175988
/ho-chi-minh/y-thien/binh-luan,Ý Thiên - Bánh Cuốn & Bánh Ướt,"274 Bà Hạt, P. 9",12,1690,2,6.946,208,0,48,123,21180,47,10.766047,106.669135
/ho-chi-minh/xanh-019-sua-dau-nanh-tau-hu-nong/binh-luan,Xanh 019 - Sữa Đậu Nành & Tàu Hủ Nóng,"11 Nguyễn Ngọc Lộc, P. 14",12,1004097,2,0.0,0,1,0,0,135,0,10.767549,106.663112
/ho-chi-minh/pho-nga-bo-kho-hu-tieu-muc-ho-thi-ky/binh-luan,Phở Nga - Bò Kho & Hủ Tiếu Mực - Hồ Thị Kỷ,"77/17 Hồ Thị Kỷ, P. 1",12,1128382,2,0.0,0,0,0,0,4,0,10.765241,106.676447
/ho-chi-minh/co-ut-bun-mi-xao/binh-luan,Cô Út - Mì & Nui Xào Bò,"490/126A Lý Thái Tổ, P. 10",12,1025358,2,0.0,0,0,0,0,171,0,10.76893,106.672084
/ho-chi-minh/hoang-long-banh-mi-gio-cha-le-hong-phong/binh-luan,Hoàng Long - Bánh Mì & Giò Chả - Lê Hồng Phong,"841 Lê Hồng Phong, P. 12",12,1086951,2,0.0,0,0,0,0,22,0,10.773751,106.6715711
/ho-chi-minh/banh-mi-ga-an-an-to-hien-thanh/binh-luan,Bánh Mì Gà An An - Tô Hiến Thành,"49 Tô Hiến Thành, P. 13",12,1129767,2,0.0,0,0,0,0,14,0,10.7822649,106.671441
/ho-chi-minh/banh-cuon-banh-uot-ho-thi-ky/binh-luan,Bánh Cuốn & Bánh Ướt - Hồ Thị Kỷ,"23 Hồ Thị Kỷ, P. 1",12,902060,2,0.0,1,0,0,0,57,0,10.763904,106.677466
/ho-chi-minh/banh-mi-tien-loi/binh-luan,Bánh Mì Tiến Lợi,"102 Nguyễn Lâm, P. 6",12,1072349,2,0.0,0,0,0,0,18,0,10.7649706,106.6631702
/ho-chi-minh/ngoc-hu-tieu/binh-luan,Quán Cô Ngọc - Hủ Tiếu,"Hẻm 428 Nguyễn Chí Thanh, P. 6",12,1033436,2,0.0,0,1,0,1,96,0,10.759139,106.664902
/ho-chi-minh/banh-cuon-nong-van-hanh-su-van-hanh/binh-luan,Bánh Cuốn Nóng Vạn Hạnh - Sư Vạn Hạnh,"407/2 Sư Vạn Hạnh, P. 12",12,1125757,2,0.0,0,0,0,0,26,0,10.7719998256782,106.6702842968297
/ho-chi-minh/tiem-banh-mi-nhung-chang-trai-thanh-thai/binh-luan,Tiệm Bánh Mì Những Chàng Trai - Thành Thái,"10 Thành Thái, P. 12",12,1020313,2,4.858,13,0,7,7,1401,0,10.769317,106.666522
/ho-chi-minh/terra-coffee-duong-3-2/binh-luan,Terra Coffee - Đường 3/2,"666/46/11 Đường 3/2, P. 14",12,1133594,2,0.0,0,0,0,0,27,0,10.7673462,106.6609914
/ho-chi-minh/quan-an-mien-trung-thanh-dat-bun-gio-mi-quang/binh-luan,Quán Ăn Miền Trung Thành Đạt - Bún Giò & Mì Quảng,"CT10 Tam Đảo, P. 15",12,1132622,2,0.0,0,0,0,0,11,0,10.7793221,106.6629268
/ho-chi-minh/lau-chay-dong-gia-to-hien-thanh/binh-luan,Lẩu Chay Đồng Giá - Tô Hiến Thành,"215 Tô Hiến Thành, P. 13",12,1126394,2,0.0,0,7,0,2,777,0,10.7794182,106.6676265
/ho-chi-minh/bun-rieu-chay-ly-thai-to-banh-xeo-chay/binh-luan,Bún Riêu Chay Lý Thái Tổ - Bánh Xèo Chay,"500 Lý Thái Tổ, P. 10",12,1125411,2,10.0,0,0,1,0,61,0,10.7678536942874,106.6717630725022
/ho-chi-minh/tiem-tra-chanh-dau-dau-cao-thang/binh-luan,Tiệm Trà Chanh Đậu Đậu - Cao Thắng,"105 Cao Thắng, P. 11",12,1122731,2,0.0,0,0,0,0,33,0,10.7727764136101,106.6787910562376
/ho-chi-minh/tra-sua-r-b-tea-cao-thang/binh-luan,Trà Sữa R&B Tea - Cao Thắng,"160 Cao Thắng, P. 11",12,1122272,2,0.0,0,0,0,0,148,0,10.7733087,106.6784749
/ho-chi-minh/thai-ship-chung-cu-ngo-gia-tu/binh-luan,Thai Ship - Chung Cư Ngô Gia Tự,"003 Lô K Chung Cư Ngô Gia Tự, Sư Vạn Hạnh, P. 2",12,1121087,2,0.0,0,3,0,0,113,0,10.763779,106.6723925
/ho-chi-minh/con-soi-ho-thi-ky/binh-luan,Con Sói - Hồ Thị Kỷ,"107 Hồ Thị Kỷ, P. 1",12,1117559,2,0.0,0,0,0,0,42,0,10.7665276448187,106.6763379136147
/ho-chi-minh/tra-sua-maycha-to-hien-thanh/binh-luan,Trà sữa Maycha - Tô Hiến Thành,"177 Tô Hiến Thành, P. 13",12,1119671,2,1.0,2,1,1,0,138,0,10.780132,106.6686466
/ho-chi-minh/get-tea-tra-sua-tra-trai-cay/binh-luan,Get Tea - Trà Sữa & Trà Trái Cây,"416 Nguyễn Tri Phương, P. 4",12,1118493,2,8.4,3,0,1,1,66,0,10.7648945,106.6678584
/ho-chi-minh/quan-com-339/binh-luan,Bún Thịt Nướng Quán 339,"339/7 Tô Hiến Thành, P. 13",12,28860,2,7.55,199,0,56,96,7601,7,10.776494,106.665406
/ho-chi-minh/banh-mi-nuong-muoi-ot-co-nam/binh-luan,Bánh Mì Nướng Muối Ớt Cô Năm - Đường 3 Tháng 2,"281 Đường 3 Tháng 2, P. 10",12,232679,2,7.338,151,0,49,255,43726,9,10.770318,106.672071
/ho-chi-minh/com-mi-ga-da-gion/binh-luan,Cơm - Mì Gà Da Giòn,"310 Bà Hạt, P. 9",12,789846,2,8.042,67,0,19,46,2147,5,10.765993,106.668725
/ho-chi-minh/rau-ma-ba-gia-duong-3-thang-2/binh-luan,Rau Má Bà Già - Đường 3 Tháng 2,"692 Đường 3 Tháng 2, P. 14",12,965347,2,7.404,78,1,37,14,3006,37,10.764106,106.660274
/ho-chi-minh/bun-thit-nuong-kieu-bao-to-hien-thanh/binh-luan,Bún Thịt Nướng Kiều Bảo - Tô Hiến Thành,339/12 Tô Hiến Thành,12,213374,2,7.094,591,0,179,242,69509,27,10.776341,106.665532
/ho-chi-minh/ha-cao-ngoc-lan/binh-luan,Há Cảo Ngọc Lan - Vĩnh Viễn,"500 Vĩnh Viễn, P. 8",12,49770,2,7.074,638,0,144,487,54176,53,10.762991,106.664726
/ho-chi-minh/quan-chay-thanh-ai/binh-luan,Quán Chay Thanh Ái,"264 Bà Hạt, P. 9",12,3364,2,6.838,191,0,17,38,12438,3,10.766347,106.669739
/ho-chi-minh/co-nam-cut-chien-bo/binh-luan,Cô Năm - Cút Chiên Bơ,"54 Đồng Nai, P. 15",12,1086,2,7.006,1358,0,481,972,122262,191,10.778295,106.663584
/ho-chi-minh/moc-vi-quan-mi-quang-com-dia-nong-su-van-hanh/binh-luan,Mộc Vị Quán - Mì Quảng & Cơm Dĩa Nóng - Sư Vạn Hạnh,"732 Sư Vạn Hạnh, P. 12",12,697004,2,7.03,1928,0,324,472,22316,22,10.772028,106.669608
/ho-chi-minh/take-cafe-to-hien-thanh/binh-luan,Take Coffee - Tô Hiến Thành,"339/22 Tô Hiến Thành, P. 12",12,4388,2,7.006,1012,0,246,329,52027,106,10.7764969,106.665444
/ho-chi-minh/the-milktea-guy/binh-luan,The Milktea Guy,"006 Lô F, Chung Cư Ngô Gia Tự, P. 3",12,94631,2,6.174,846,0,264,436,112723,89,10.7637865,106.6722948
/ho-chi-minh/di-hong-banh-trang-cuon-cham-me-ba-hat/binh-luan,Dì Hồng - Bánh Tráng Cuốn Chấm Me - Bà Hạt,"205 Bà Hạt, P. 9",12,83841,2,5.59,669,0,205,433,100451,73,10.7662,106.670042
/ho-chi-minh/tra-sua-365-dao-duy-tu/binh-luan,Trà Sữa 365 - Đào Duy Từ,59/4 Đào Duy Từ,12,23031,2,6.444,365,0,101,237,97775,73,10.760524,106.667448
/ho-chi-minh/teobokki-ly-thai-to/binh-luan,Tèobokki - Lý Thái Tổ,"448/1 Lý Thái Tổ, P. 10",12,73168,2,5.694,255,0,93,372,90692,38,10.7679176,106.6728393
/ho-chi-minh/sup-cua-oc-heo-ho-thi-ky/binh-luan,Súp Cua Thảo - Hồ Thị Kỷ,68/8 Hồ Thị Kỷ,12,88314,2,6.444,496,0,167,477,90660,55,10.764858,106.677264
/ho-chi-minh/lau-bo-co-thao-ho-thi-ky/binh-luan,Lẩu Bò Cô Thảo - Hồ Thị Kỷ,84/10 Hồ Thị Kỷ,12,26363,2,5.866,697,0,180,264,86904,43,10.766137,106.676704
/ho-chi-minh/tocotoco-tra-sua/binh-luan,TocoToco Bubble Tea - Sư Vạn Hạnh,"770B Sư Vạn Hạnh, P. 10",12,274442,2,6.472,1394,0,285,133,83960,48,10.7730632,106.6690402
/ho-chi-minh/mimosa-tra-sua-bo-pink-lemonade-su-van-hanh/binh-luan,Mimosa - Trà Sữa Bơ & Pink Lemonade - Sư Vạn Hạnh,"40 Lô M, Sư Vạn Hạnh, P. 10",12,1150124,2,0.0,0,0,0,0,2,0,10.7622069,106.6748426
/ho-chi-minh/min-t-hong-linh/binh-luan,Min.T - Hồng Lĩnh,"RR15 Hồng Lĩnh, P. 15",12,930980,2,7.1,43,0,2,1,233,1,10.779372,106.66207
/ho-chi-minh/com-ga-de-nhat-ly-thuong-kiet/binh-luan,Cơm Gà Đệ Nhất - Lý Thường Kiệt,"144 Lý Thường Kiệt, P. 14",12,1150040,2,0.0,0,0,0,0,7,0,10.7641272,106.6600987
/ho-chi-minh/tiem-chay-nha-minh-cac-mon-an-chay-48-ho-ba-kien/binh-luan,Tiệm Chay Nhà Mình - Các Món Ăn Chay - 48 Hồ Bá Kiện,"48 Hồ Bá Kiện, P. 15",12,1000057798,2,0.0,0,0,0,0,9,0,10.7814538,106.6687483
/ho-chi-minh/tra-sua-maytea-bac-hai/binh-luan,Trà Sữa MAYTEA - Bắc Hải,"3A Bắc Hải, P. 15",12,1149778,2,0.0,0,0,0,0,3,0,10.786658,106.66444
/ho-chi-minh/tra-sua-mot-chut-ca-phe-tra-le-hong-phong/binh-luan,Trà Sữa Một Chút - Cà phê & Trà - Lê Hồng Phong,"670/1 Lê Hồng Phong, P. 10",12,1149761,2,0.0,0,0,0,0,3,0,10.770378,106.673646
/ho-chi-minh/bun-bo-thien-an-le-hong-phong/binh-luan,Bún Bò Thiên An - Lê Hồng Phong,"789 Lê Hồng Phong, P. 12",12,1149696,2,0.0,0,0,0,0,1,0,10.7726277635754,106.6720872309302
/ho-chi-minh/ca-vien-chien-sot-nuoc-mam-207-su-van-hanh/binh-luan,Cá Viên Chiên Sốt Nước Mắm - 207 Sư Vạn Hạnh,"207/11 Sư Vạn Hạnh, P. 9",12,1149639,2,0.0,0,0,0,0,2,0,10.7632845,106.6718848
/ho-chi-minh/tra-sua-tra-dau-cuppy-cow-ho-ba-kien-to-hien-thanh.kzfeeb/binh-luan,Cuppy Cow Hồ Bá Kiện - Trà Sữa & Trà Dâu - Tô Hiến Thành,"154/1 Hồ Bá Kiện, P. 15",12,1000057682,2,0.0,0,0,0,0,1,0,10.781021,106.66917
/ho-chi-minh/moshi-sushi-duong-3-2/binh-luan,Moshi Sushi - Đường 3/2,"181/3 Đường 3/2, P. 11",12,1149502,2,0.0,0,3,0,0,10,0,10.7721132,106.6751624
/ho-chi-minh/hu-tieu-pi-thai-su-van-hanh/binh-luan,Hủ Tiếu Pi Thai - Sư Vạn Hạnh,"802 Sư Vạn Hạnh, P. 12",12,1149490,2,0.0,1,0,0,0,5,0,10.7741276,106.6684695
/ho-chi-minh/su-su-hu-tieu-chay-cach-mang-thang-8/binh-luan,Su Su - Hủ Tiếu Chay - Cách Mạng Tháng 8,"601/24 Cách Mạng Tháng 8, P. 15",12,1000057614,2,0.0,0,0,0,0,5,0,10.780097,106.675651
/ho-chi-minh/com-tam-phuc-an-to-hien-thanh/binh-luan,Cơm Tấm Phúc An - Tô Hiến Thành,"237 Tô Hiến Thành, P. 13",12,1141331,2,10.0,9,0,2,0,31,0,10.7792689619737,106.6671667819815
/ho-chi-minh/ai-ngan-banh-mi-heo-quay/binh-luan,Ái Ngân - Bánh Mì Heo Quay,"536 Bà Hạt, P. 8",12,730573,2,10.0,5,0,1,3,317,0,10.765957381658,106.6684709116816
/ho-chi-minh/co-hoa-tau-hu-nong/binh-luan,Cô Hoa - Tàu Hủ Nóng,"282 Tô Hiến Thành, P. 15",12,760714,2,10.0,6,14,1,6,689,0,10.777614,106.664996
/ho-chi-minh/banh-trang-cuon-cu-xa-nguyen-trung-truc/binh-luan,Bánh Tráng Cuộn - Cư Xá Nguyễn Trung Trực,436A/81 Đường 3 Tháng 2,12,718028,2,10.0,4,0,1,3,446,0,10.7706111,106.6675352
/ho-chi-minh/yoko-milk-tea-tra-sua-tra-thanh-nhiet-nguyen-gian-thanh/binh-luan,YOKO Milk Tea - Trà Sữa & Trà Thanh Nhiệt - Nguyễn Giản Thanh,"38A Nguyễn Giản Thanh, P. 15",12,1134408,2,10.0,2,0,1,0,27,1,10.7807011,106.6676071
/ho-chi-minh/banh-xeo-chi-xuan/binh-luan,Bánh Xèo Chị Xuân,"344 Vĩnh Viễn, P. 8",12,780228,2,10.0,5,0,1,2,492,0,10.763668,106.667467
/ho-chi-minh/cat-cuc-nong-ngon-nhu-com-nha-760-su-van-hanh/binh-luan,Cát Cúc – Nóng Ngon Như Cơm Nhà – 760 Sư Vạn Hạnh,"760 Sư Vạn Hạnh, P. 12",12,1076784,2,10.0,5,3,1,2,71,0,10.7727985,106.6693457
/ho-chi-minh/ca-vien-chien-nuoc-mam-kem-kep-singapore-tam-dao/binh-luan,Cá Viên Chiên Nước Mắm & Kem Kẹp Singapore - Tam Đảo,"140 Tam Đảo, P. 14",12,1067341,2,10.0,1,16,1,8,753,0,10.7767388,106.6608351
/ho-chi-minh/trung-vit-lon-tin-real-su-van-hanh/binh-luan,Trứng Vịt Lộn Tín Real - Sư Vạn Hạnh,"700 Sư Vạn Hạnh, P. 12",12,1147912,2,10.0,1,0,1,0,5,1,10.7715668,106.6700869
/ho-chi-minh/quan-bui-minh-mien-luon-bun-ca-gia-truyen-ha-noi/binh-luan,Quán Bùi Minh - Miến Lươn & Bún Cá Gia Truyền Hà Nội,"F5 Trường Sơn, P. 15",12,984075,2,10.0,1,0,1,5,206,0,10.781176,106.66185
/ho-chi-minh/mi-cay-mi-tuong-den-a-woong-ngo-gia-tu/binh-luan,Mì Cay & Mì Tương Đen A Woong - Ngô Gia Tự,"008 Lô R CC Ngô Gia Tự Đường Hòa Hảo, P. 2",12,1135499,2,10.0,5,0,1,1,61,0,10.76298,106.673923
/ho-chi-minh/tam-duc-bun-ca-chao-long/binh-luan,Tâm Đức - Bún Cá & Cháo Lòng,"54 CT Tam Đảo, P. 15",12,1013729,2,10.0,5,0,1,1,98,0,10.780238,106.664662
/ho-chi-minh/gogi-house-quan-nuong-han-quoc-nguyen-tri-phuong/binh-luan,Gogi House - Quán Nướng Hàn Quốc - Nguyễn Tri Phương,"521 Nguyễn Tri Phương, P. 8",12,676906,2,8.756,625,0,286,9,9598,25,10.766283,106.667382
/ho-chi-minh/banh-plan-xay-nguyen-tri-phuong/binh-luan,Tạ Tuyết Ngân - Ăn Vặt & Trà Sữa,308/10/8  Nguyễn Tri Phương,12,88316,2,6.152,1050,0,219,549,65209,40,10.76309,106.66918
/ho-chi-minh/mato-house-taiwan-healthy-tea-su-van-hanh/binh-luan,Mato House - Taiwan Healthy Tea - Sư Vạn Hạnh,"780/14D Sư Vạn Hạnh, P. 12",12,665414,2,7.99,997,0,212,535,24945,32,10.7738500241623,106.6693638242738
/ho-chi-minh/kem-dua-nguyen-chi-thanh/binh-luan,Kem Miếng Dừa - Nguyễn Chí Thanh,"450 Nguyễn Chí Thanh, P. 6",12,30253,2,6.852,194,0,87,475,63902,53,10.759058,106.66459
/ho-chi-minh/dallas-cakes-coffee-3-thang-2/binh-luan,Dallas Cakes & Coffee - 3 Tháng 2,"233 Đường 3 Tháng 2, P. 10",12,129958,2,8.874,1483,0,485,450,136852,96,10.7710302,106.6732686
/ho-chi-minh/moutain-pearl-coffee/binh-luan,Moutain Pearl Coffee,"268 Lý Thường Kiệt, P. 14",12,952877,2,0.0,0,0,0,0,18,0,10.771759,106.657914
/ho-chi-minh/com-binh-dan-dong-gia-20k/binh-luan,Cơm Bình Dân Đồng Giá 20k,270/1/7 Lý Thường Kiệt,12,699770,2,8.0,6,0,1,0,433,0,10.7766641758613,106.6583740711212
/ho-chi-minh/banh-mi-hem-354/binh-luan,Bánh Mì Hẻm 354,"354/60 Lý Thường Kiệt, P. 14",12,923099,2,0.0,0,0,0,0,47,1,10.77599,106.658382
/ho-chi-minh/pe-pun-bun-ly-thuong-kiet.xnsjap/binh-luan,Pé Pún - Bún - Lý Thường Kiệt,"206/7 Lý Thường Kiệt, P. 14",12,1000038735,2,0.0,0,0,0,0,23,0,10.770489,106.6580779
/ho-chi-minh/bun-bo-chi-ngan/binh-luan,Bún Bò Chị Ngan,"354/54 Lý Thường Kiệt, P. 14",12,926658,2,0.0,1,0,0,0,15,0,10.776065,106.658461
/ho-chi-minh/bob-khoai-bong-bong-ly-thuong-kiet.stxiub/binh-luan,BOB - Khoai Bong Bóng - Lý Thường Kiệt,"284/41/12 Lý Thường Kiệt, P. 14",12,1000026523,2,8.8,0,0,1,1,26,0,10.7709095,106.6582195
/ho-chi-minh/kem-cuon-thai-lan-bac-hai/binh-luan,Kem Cuộn Thái Lan - Bắc Hải,"Bắc Hải, P. 6",12,145145,2,4.068,11,0,3,4,1219,0,10.780962,106.658832
/ho-chi-minh/nhat-cafe/binh-luan,Nhặt Cafe ,"354/30 Lý Thường Kiệt, P. 14",12,86803,2,8.0,103,0,24,46,45974,10,10.776113,106.658583
/ho-chi-minh/home-cafe-ly-thuong-kiet/binh-luan,Home Cafe - Lý Thường Kiệt,"354/11A Lý Thường Kiệt, P. 14",12,852472,2,0.0,1,0,0,0,44,0,10.776332,106.658684
/ho-chi-minh/tuong-cafe-thanh-thai/binh-luan,Tượng Cafe - Thành Thái,"152/9 Thành Thái, P. 12",12,718140,2,9.2,10,0,4,5,1862,0,10.7751027,106.6587319
/ho-chi-minh/cafe-253-tan-phuoc/binh-luan,Cafe 253 - Tân Phước,"247 Tân Phước, P. 6",12,894722,2,0.0,1,0,0,0,20,0,10.760329,106.657907
/ho-chi-minh/quan-co-thuy-banh-mi-nui-xao-ly-thuong-kiet.0i7ecc/binh-luan,Quán Cô Thủy - Bánh Mì & Nui Xào - Lý Thường Kiệt,"354/40 Lý Thường Kiệt, P. 14",12,1000029230,2,0.0,0,0,0,0,28,0,10.77682,106.6588535
/ho-chi-minh/busan-korean-food-mon-han-quoc-dong-nai/binh-luan,Busan Korean Food - Món Hàn Quốc - Đồng Nai,"4 Đồng Nai, P. 15",12,761200,2,7.022,561,0,115,143,13290,16,10.7779686,106.6636618
/ho-chi-minh/quan-chu-dung-hu-tieu-bo-kho-mi-bo-kho/binh-luan,"Quán Chú Dũng - Hủ Tiếu Bò Kho, Hủ Tiếu Sườn & Mì Xào Bò - Nguyễn Chí Thanh","428/8A Nguyễn Chí Thanh, P. 6",12,899917,2,7.386,43,0,14,19,1555,0,10.759494,106.664748
/ho-chi-minh/bien-vuong-banh-trang-cuon-tron-an-vat/binh-luan,Biển Vương - Bánh Tráng Cuốn Trộn & Ăn Vặt,"62 Trần Nhân Tôn, P. 2",12,737605,2,7.412,276,0,85,229,6614,7,10.76301,106.674719
/ho-chi-minh/hu-tieu-chay-truong-son/binh-luan,Hủ Tiếu Chay - Trường Sơn,"49 Trường Sơn, P. 15",12,897670,2,8.4,7,3,2,0,628,0,10.784922,106.6659767
/ho-chi-minh/com-tam-31-ba-hat/binh-luan,Cơm Tấm 31 - Bà Hạt,"428 Bà Hạt, P. 8",12,859864,2,0.0,4,1,0,1,639,1,10.7657394,106.6665289
/ho-chi-minh/mot-buoi-sang-bun-thang-xoi-339-nguyen-tri-phuong/binh-luan,Một Buổi Sáng - Bún Thang & Xôi - 339 Nguyễn Tri Phương,"339 Nguyễn Tri Phương, P. 5",12,1135839,2,6.344,8,4,7,3,568,0,10.7622664,106.6681509
/ho-chi-minh/no-96-lau-nuong-nguyen-tri-phuong/binh-luan,No.96 - Quán 96 Lẩu & Nướng - Nguyễn Tri Phương,481 Nguyễn Tri Phương,12,279926,2,7.31,696,0,111,242,23836,18,10.764416,106.667844
/ho-chi-minh/happy-bbq-4-xien-nuong-su-van-hanh/binh-luan,Happy BBQ 1 Xiên Nướng Đồng Giá 5K - Sư Vạn Hạnh,"824/28Q Sư Vạn Hạnh, P. 12",12,192519,2,7.064,867,0,125,255,47824,27,10.7758609,106.6681098
/ho-chi-minh/tomato-xien-que-nuong-lau-tu-chon/binh-luan,Tomato - Xiên Que Nướng & Lẩu Tự Chọn,357 Nguyễn Tri Phương,12,29342,2,4.86,840,0,155,81,70485,39,10.767339,106.667137
/ho-chi-minh/chicc-chicc-ga-ran-han-quoc/binh-luan,Chícc Chícc - Gà Rán Hàn Quốc," 384/16 Lý Thái Tổ, P. 10",12,1050940,2,8.388,107,0,123,162,2293,28,10.7684479,106.673509
/ho-chi-minh/osaka-ohsho-van-hanh-mall-quan-mi-ramen-gyoza-nhat-ban/binh-luan,Osaka Ohsho Vạn Hạnh Mall - Quán Mì Ramen - Gyoza Nhật Bản,"Tầng 5 Vạn Hạnh Mall, 11 Sư Vạn Hạnh, P. 12",12,717432,2,8.57,500,0,135,27,4791,14,10.7704741,106.6701061
/ho-chi-minh/misaki-sushi/binh-luan,Misaki House - Món Nhật,"Kios 12J, 334 Tô Hiến Thành, P.14",12,164966,2,6.52,872,0,115,158,59787,33,10.7752186,106.662328
/ho-chi-minh/ding-tea-thanh-thai/binh-luan,Ding Tea - Thành Thái,84 Thành Thái,12,300951,2,6.932,389,0,126,49,8044,26,10.7732006,106.6649278
/ho-chi-minh/an-duoc-phuc-hotpot-bbq-nguyen-tri-phuong/binh-luan,Ăn Được Phúc - Hotpot & BBQ - Nguyễn Tri Phương,"533 Nguyễn Tri Phương, P. 8",12,985307,2,7.088,219,0,140,37,11004,19,10.767181,106.667106
/ho-chi-minh/sushi-que-thanh-thai/binh-luan,Sushi & Que - Thành Thái,"190 Thành Thái, P. 12",12,1039,2,6.146,532,0,86,102,58468,40,10.775976,106.663765
/ho-chi-minh/bun-bo-co-thu-465b-cach-mang-thang-8/binh-luan,Bún Bò Cô Thu - 463B Cách Mạng Tháng 8,"463B Cách Mạng Tháng Tám, P. 13",12,1121076,2,0.0,0,0,0,0,42,0,10.7816087,106.6742125
/ho-chi-minh/sinh-to-hang-sinh-to-nuoc-ep-su-van-hanh/binh-luan,Sinh Tố Hằng - Sinh Tố & Nước Ép - Sư Vạn Hạnh,"497/11 Sư Vạn Hạnh, P. 12",12,1123641,2,0.0,0,0,0,0,25,0,10.7705855,106.6691335
/ho-chi-minh/the-1983-coffee-nguyen-tri-phuong/binh-luan,The 1983 Coffee - Nguyễn Tri Phương,"366 Nguyễn Tri Phương, P. 4",12,1115689,2,0.0,0,0,0,0,33,0,10.7641055,106.6680829
/ho-chi-minh/banh-mi-ha-noi-465-ba-hat/binh-luan,Bánh Mì Hà Nội 465 - Bà Hạt,"465 Bà Hạt, Phường 8",12,1000012271,2,0.0,2,0,0,0,63,0,10.7655084,106.6669743
/ho-chi-minh/ca-vien-chien-vinh-ky-hoa-hao/binh-luan,Cá Viên Chiên Vinh Ký - Hòa Hảo,"500 Hòa Hảo, P.5",12,164474,2,6.94,204,0,23,52,5764,6,10.761072,106.665298
/ho-chi-minh/hue-ky-hu-tieu-mi/binh-luan,Huê Ký - Hủ Tiếu Mì,444 Hòa Hảo,12,89130,2,5.666,22,0,6,6,1098,2,10.7614157,106.666338
/ho-chi-minh/muoi-thuong-lau-ga-la-e-phu-yen-su-van-hanh.xwfzp2/binh-luan,MƯỜI THƯƠNG - Lẩu Gà Lá É Phú Yên - Sư Vạn Hạnh,"415 Vạn Sư Hạnh, P. 12",12,1000046084,2,9.4,14,0,6,0,152,0,10.7723183,106.6691684
/ho-chi-minh/pappa-roti-sg-coopmart-ly-thuong-kiet/binh-luan,Pappa Roti SG - Coopmart Lý Thường Kiệt,"497 Hoà Hảo, P. 7",12,4521,2,6.386,57,0,14,16,6449,14,10.759892,106.661207
/ho-chi-minh/banh-mi-ha-noi-289-banh-mi-ba-hat.rtgrof/binh-luan,Bánh Mì Hà Nội 289 - Bánh Mì - Bà Hạt,"168  Bà Hạt, P. 9",12,1000024949,2,0.0,0,1,0,0,17,0,10.766701,106.671085
/ho-chi-minh/ola-ngon-nha-tra-tra-sua-vinh-vien/binh-luan,OLA Ngon Nha - Trà & Trà Sữa - Vĩnh Viễn,"214 Vĩnh Viễn, P. 4",12,1056218,2,7.32,7,0,5,1,217,0,10.764309,106.669958
/ho-chi-minh/com-tam-ngoc-chau/binh-luan,Cơm Tấm Ngọc Châu,"436B/52 Đường 3 tháng 2, P. 12",12,1059794,2,0.0,0,2,0,0,72,0,10.770563,106.668508
/ho-chi-minh/bun-bo-hue-149-to-hien-thanh/binh-luan,Bún Bò Huế 149 - Tô Hiến Thành,"273/17 Tô Hiến Thành, P. 13",12,1078049,2,0.0,0,0,0,0,55,0,10.7786202,106.6664553
/ho-chi-minh/banh-mi-kim-dung/binh-luan,Bánh Mì Kim Dung,"118A Lý Thường Kiệt, P. 7",12,758478,2,7.24,24,1,5,20,1767,1,10.7617051,106.660707
/ho-chi-minh/hai-quy-hu-tieu-mi-nuoc-mia-nguyen-tri-phuong/binh-luan,Hai Quy - Hủ Tiếu Mì & Nước Mía - Nguyễn Tri Phương,"Đầu Hẻm 394 Nguyễn Tri Phương, P. 4",12,953580,2,6.2,1,0,1,1,109,0,10.764517,106.667955
/ho-chi-minh/ngoc-anh-banh-mi-ha-noi-ngo-quyen/binh-luan,Ngọc Ánh Bánh Mì Hà Nội - Ngô Quyền,"225 Ngô Quyền, P. 6",12,1039341,2,6.2,2,0,2,0,121,0,10.764846,106.664195
/ho-chi-minh/banh-mi-ha-noi-607a-cach-mang-thang-8/binh-luan,Bánh Mì Hà Nội - 607A Cách Mạng Tháng 8,"607A Cách Mạng Tháng 8, P. 15",12,897674,2,7.6,28,0,5,4,240,1,10.784821,106.668471
/ho-chi-minh/van-ngoc-com-ga-xoi-mo-thanh-thai/binh-luan,Vân Ngọc - Cơm Gà Xối Mỡ - Thành Thái,"7A/5 Thành Thái, P. 14 ",12,969556,2,8.0,4,0,1,1,205,0,10.770015,106.661901
/ho-chi-minh/co-ut-ca-vien-chien-le-hong-phong/binh-luan,Cô Út - Cá Viên Chiên - Lê Hồng Phong,"Đối Diện 723 Lê Hồng Phong, (Bên Hong Việt Nam Quốc Tự), P. 12",12,975278,2,9.4,5,0,1,1,135,0,10.771432,106.672674
/ho-chi-minh/an-uong-vat-cuong-ngan-hoa-hung/binh-luan,Ăn Uống Vặt Cường Ngân - Hòa Hưng,"228A Hòa Hưng, P. 13",12,927635,2,6.536,14,6,3,14,254,0,10.778769,106.672677
/ho-chi-minh/com-tam-thanh-cong-to-hien-thanh/binh-luan,Cơm Tấm Thành Công - Tô Hiến Thành,"131/50 Tô Hiến Thành, P. 13",12,1021803,2,2.25,1,1,4,0,267,1,10.7826694,106.6711801
/ho-chi-minh/an-vat-ngon-gia-re-ho-ba-kien/binh-luan,Ăn Vặt Như Quỳnh,"154/17 Hồ Bá Kiện, P. 15",12,155618,2,4.518,402,0,130,155,17235,26,10.783128,106.666631
/ho-chi-minh/tra-sua-hi-tea-town-nguyen-tri-phuong/binh-luan,Trà Sữa Hi Tea Town - Nguyễn Tri Phương,"496 Nguyễn Tri Phương, P. 9",12,1117779,2,0.0,0,1,0,0,66,0,10.7673424,106.6673509
/ho-chi-minh/com-ga-ta-khai-tac-com-van-phong-cmt8/binh-luan,Cơm Gà Ta Khai Tác - Cơm Văn Phòng - CMT8,"517 CMT8, P. 13",12,1116295,2,0.0,0,0,0,0,57,0,10.7826838,106.6726015
/ho-chi-minh/ki-ot-coffee-tra-sua-do-an-vat-ba-hat/binh-luan,Ki-ốt Coffee - Trà Sữa & Đồ Ăn Vặt - Bà Hạt,"594 Bà Hạt, P. 6 (Ngay Kios 2A)",12,1114010,2,0.0,0,0,0,0,28,0,10.7649211,106.6630147
/ho-chi-minh/nha-hang-hoang-gia-hai-san-pho-ly-thuong-kiet/binh-luan,Nhà Hàng Hoàng Gia - Hải Sản & Phở - Lý Thường Kiệt,"324/12 Lý Thường Kiệt, P. 14",12,1113325,2,0.0,0,0,0,0,98,0,10.7691487230002,106.6593260648497
/ho-chi-minh/lau-de-vinh-rau-su-van-hanh/binh-luan,Lẩu Dê Vinh Râu - Sư Vạn Hạnh,"001 Lô L Chung Cư Ngô Gia Tự, Sư Vạn Hạnh, P. 2",12,733573,2,7.728,50,0,8,6,1468,5,10.763818,106.672492
/ho-chi-minh/com-chien-huy-ky-bac-hai.pnszmt/binh-luan,Cơm Chiên Huy Ký - Bắc Hải,"VP1 Bắc Hải, P. 15",12,1000034719,2,0.0,0,0,0,0,13,0,10.7828209,106.6610784
/ho-chi-minh/banh-khot-267/binh-luan,Bánh Khọt 267,"606/42 Đường 3 Tháng 2, P. 14",12,680975,2,6.404,151,0,50,85,4942,6,10.766633,106.662246
/ho-chi-minh/tofu-kingdom-dau-hu-singapore-van-hanh-mall/binh-luan,Tofu Kingdom - Đậu Hủ Singapore - Vạn Hạnh Mall,"Tầng 6 TTTM Vạn Hạnh Mall, 11 Sư Vạn Hạnh, P. 12",12,165723,2,7.22,80,0,10,7,2461,2,10.7709184,106.6696658
/ho-chi-minh/teenie-milk-tea-ngo-gia-tu/binh-luan,Teenie Milk Tea - Ngô Gia Tự,"204 Lô T Chung Cư Ngô Gia Tự, Ngô Gia Tự, P. 2",12,1110060,2,0.0,0,0,0,0,14,0,10.7629363,106.6736474
/ho-chi-minh/thanh-truc-lau-ca/binh-luan,Thanh Trúc - Lẩu Cá,"473 Tô Hiến Thành, P. 14",12,23954,2,6.406,258,0,54,62,21380,34,10.773942,106.66185
/ho-chi-minh/co-diep-nem-nuong-nha-trang-nguyen-tri-phuong/binh-luan,Cô Điệp - Nem Nướng Nha Trang - Nguyễn Tri Phương,370 Nguyễn Tri Phương,12,743165,2,4.944,94,0,14,17,3153,3,10.76414,106.668089
/ho-chi-minh/the-lo-an-vat-sai-gon-to-hien-thanh/binh-luan,The Lọ - Ăn Vặt Sài Gòn - Tô Hiến Thành,"350 Tô Hiến Thành, P. 14",12,1103882,2,0.0,0,1,0,0,73,0,10.7748251,106.6616442
/ho-chi-minh/tra-sua-heekcaa-viet-nam/binh-luan,Trà Sữa Heekcaa Việt Nam - Nguyễn Tri Phương,"220 Nguyễn Tri Phương, P. 4",12,871027,2,7.568,378,0,50,10,3443,3,10.76113,106.668653
/ho-chi-minh/chao-dinh-duong-viet-soup-hoa-hao/binh-luan,Cháo Dinh Dưỡng Việt Soup - Hòa Hảo,"007 Lô F Chung Cư Ngô Gia Tự, Hòa Hảo, P. 2",12,758484,2,6.49,39,0,9,10,1223,1,10.7628779,106.6724764
/ho-chi-minh/rau-ma-mix-nguyen-tri-phuong/binh-luan,Rau Má Mix - Nguyễn Tri Phương,"269 Nguyễn Tri Phương, P. 5",12,916454,2,6.37,81,5,26,14,6461,6,10.760703,106.668601
/ho-chi-minh/tocotoco-bubble-tea-nguyen-tri-phuong/binh-luan,TocoToco Bubble Tea - Nguyễn Tri Phương,"306 Nguyễn Tri Phương, P. 4",12,316290,2,6.268,1294,0,235,61,9622,47,10.762822,106.66842
/ho-chi-minh/tra-sua-sharetea-su-van-hanh/binh-luan,Trà Sữa Sharetea - Sư Vạn Hạnh,"353 Sư Vạn Hạnh, P. 12",12,797426,2,6.19,597,0,67,6,4219,13,10.770243,106.67043
/ho-chi-minh/beefsteak-cu-hanh-tay-su-van-hanh/binh-luan,Beefsteak Củ Hành Tây - Sư Vạn Hạnh,"391/6 Sư Vạn Hạnh, P. 12",12,26976,2,6.978,1163,0,244,336,57849,60,10.7717935,106.6693404
/ho-chi-minh/tokyo-deli-duong-3-thang-2/binh-luan,Tokyo Deli Express - Sushi - 3 Tháng 2,386 - 388 Đường 3 Tháng 2,12,182042,2,7.618,1780,0,170,83,23234,59,10.7695277,106.670299
/ho-chi-minh/sushi-masa-3-thang-2/binh-luan,Sushi Masa - 3 Tháng 2,"400 Đường 3 Tháng 2, P. 12",12,646085,2,7.282,1393,0,255,206,23550,47,10.769268,106.669736
/ho-chi-minh/tous-les-jours-3-thang-2/binh-luan,TOUS les JOURS - 3 Tháng 2,"302 Đường 3 Tháng 2, P. 12",12,18095,2,6.94,1156,0,163,135,57721,59,10.7700678,106.6713451
/ho-chi-minh/sorrento-cafe/binh-luan,Sorrento Cafe - Cafe Lãng Mạn,"91/6 Hòa Hưng, P.12",12,1013,2,7.186,878,0,120,389,82338,89,10.7787924,106.6745695
/ho-chi-minh/chut-chit-quan/binh-luan,Chút Chít Quán - Đặc Sản Ốc,285/36/1 Cách Mạng Tháng Tám,12,32753,2,7.066,1034,0,153,361,80347,54,10.778123,106.6786
/ho-chi-minh/jcat-steak-pasta/binh-luan,JCat - Cá Hồi Đút Lò,"575/31/14 Cách Mạng Tháng 8, P. 15",12,162281,2,7.556,700,0,120,399,78754,35,10.7825899,106.6695462
/ho-chi-minh/say-cafe/binh-luan,Say Cafe - Acoustic,"60 Trần Minh Quyền, P. 11",12,6336,2,7.264,421,0,99,184,78221,47,10.770477,106.674723
/ho-chi-minh/dat-set-quan-an-hoa-vien/binh-luan,Đất Sét - Quán Ăn Hoa Viên,"16B Lê Hồng Phong, P. 12",12,5714,2,6.412,357,0,51,16,76214,17,10.775001,106.671914
/ho-chi-minh/oc-quang-anh-to-hien-thanh/binh-luan,Ốc Quang Anh - Tô Hiến Thành,"189 Tô Hiến Thành, P. 13",12,1138,2,6.732,903,0,218,208,75056,97,10.779864,106.668274
/ho-chi-minh/mon-an-mien-que-giao-hang-tan-noi/binh-luan,Món Ăn Miền Quê - Giao Hàng Tận Nơi,"575/22 Cách Mạng Tháng 8, P. 15",12,123859,2,6.702,307,0,37,165,74143,17,10.783493,106.669351
/ho-chi-minh/phieu-acoustic-cafe-to-hien-thanh/binh-luan,Phiêu Acoustic Cafe - Tô Hiến Thành,343/6 Tô Hiến Thành,12,37969,2,7.292,226,0,72,162,72432,33,10.7763658,106.6640496
/ho-chi-minh/hot-vit-lon-bien-hoa-nguyen-duy-duong/binh-luan,Hột Vịt Lộn Biên Hòa - Nguyễn Duy Dương,"210 Nguyễn Duy Dương, P. 3",12,220922,2,7.4,23,0,2,54,71862,6,10.7620389309958,106.6708079319465
/ho-chi-minh/pha-lau-bo-macau-yummy-pha-lau-bo-105c-ho-thi-ky/binh-luan,Phá Lấu Bò Macau Yummy - Phá Lấu Bò - 105C Hồ Thị Kỷ,"105C Hồ Thị Kỷ, P. 1",12,1000057607,2,0.0,0,0,0,0,0,0,10.7660517,106.6760552
/ho-chi-minh/xoi-thit-phuong-u-sua-dau-nanh-chao-suon/binh-luan,Xôi Thịt Phương Ú - Sữa Đậu Nành & Cháo Sườn,"702/45/9 Tổ 45 Khu Phố 3 Điện Biên Phủ, P. 10",12,1000057593,2,0.0,0,0,0,0,6,0,10.769857,106.674539
/ho-chi-minh/ga-quay-banh-bao-bo-ken-3-bac-hai/binh-luan,Gà Quay Bánh Bao Bồ Ken 3 - Bắc Hải,"15A Bắc Hải, P. 15",12,1149316,2,0.0,0,0,0,0,1,0,10.7864642,106.6641101
/ho-chi-minh/h-coffee-cmt8/binh-luan,H-Coffee - CMT8,"283/1-3-5-7 Cách Mạng Tháng 8, P. 12",12,1149281,2,0.0,0,0,0,0,1,0,10.7787604,106.6794856
/ho-chi-minh/tiem-tra-no-u-to-hien-thanh.b9cmuc/binh-luan,Tiệm Trà Nô Ú - Tô Hiến Thành,"525/6 Tô Hiến Thành, P. 14",12,1000057522,2,0.0,0,0,0,0,1,0,10.775923,106.66347
/ho-chi-minh/bao-bao-mi-tron-top-mo-gion-tra-dau-tay-nguyen-gian-thanh/binh-luan,Bao Bao - Mì Trộn Tóp Mỡ Giòn & Trà Dâu Tây - Nguyễn Giản Thanh,"38A/1 Nguyễn Giản Thanh, P. 15",12,1148898,2,0.0,0,0,0,0,6,0,10.780648,106.667719
/ho-chi-minh/bun-cha-ca-bun-sua-banh-canh-nha-trang-a-cuoi-vinh-vien/binh-luan,Bún Chả Cá & Bún Sứa & Bánh Canh Nha Trang A Cười - Vĩnh Viễn,"476 Vĩnh Viễn, P. 8",12,1148856,2,9.8,1,0,1,0,7,0,10.763492,106.6653573
/ho-chi-minh/bun-thit-nuong-nem-nuong-nha-trang-a-cuoi-vinh-vien/binh-luan,Bún Thịt Nướng & Nem Nướng Nha Trang A Cười - Vĩnh Viễn,"474 Vĩnh Viễn, P. 8",12,1148759,2,0.0,0,0,0,0,2,0,10.763492,106.6653573
/ho-chi-minh/tra-sua-kim-chill-chill-hoang-du-khuong/binh-luan,Trà Sữa KIM Chill Chill - Hoàng Dư Khương,"14/4 Hoàng Dư Khương, P. 12",12,1148700,2,0.0,0,0,0,0,2,0,10.7753712,106.6723546
/ho-chi-minh/kom-kon-kua-su-van-hanh/binh-luan,Kơm Kon Kua - Sư Vạn Hạnh,"573/2 Sư Vạn Hạnh, P. 13",12,1148655,2,0.0,0,3,0,2,7,0,10.7762696,106.6663972
/ho-chi-minh/dodo-kitchen-tran-nhan-ton/binh-luan,DODO Kitchen - Trần Nhân Tôn,Số 6 Trần Nhân Tôn,12,1148606,2,0.0,0,0,0,0,2,0,10.7624633,106.6749494
/ho-chi-minh/chao-long-banh-hoi-binh-dinh-banh-canh-cha-ca-quy-nhon-ong-dia/binh-luan,"Cháo Lòng, Bánh Hỏi Bình Định & Bánh Canh Chả Cá Quy Nhơn Ông Địa","638/2 Lê Hồng Phong, P. 10",12,1000057341,2,0.0,0,0,0,0,8,0,10.7699949,106.6733687
/ho-chi-minh/oc-vy-hai-san-tuoi-ngon-ho-thi-ky.t1yuva/binh-luan,Ốc Vy - Hải Sản Tươi Ngon - Hồ Thị Kỷ,"23 Hồ Thị Kỷ, P. 1",12,1000031897,2,10.0,1,0,1,2,71,0,10.7639009,106.6774376
/ho-chi-minh/suri-mi-y-nui-tran-minh-quyen/binh-luan,Suri - Mì Ý & Nui - Trần Minh Quyền,"6 Trần Minh Quyền, P. 11",12,1024483,2,10.0,24,0,1,0,69,0,10.7697056,106.6752305
/ho-chi-minh/chany-milk-tea/binh-luan,Chany Milk Tea,"285/188 Cách Mạng Tháng 8, P. 12",12,1074765,2,10.0,2,0,1,1,713,0,10.775598,106.67642
/ho-chi-minh/tan-hoa-ky-hu-tieu-mi-gia-nguyen-tri-phuong/binh-luan,Tân Hòa Ký - Hủ Tiếu Mì Gia - Nguyễn Tri Phương,"362 Nguyễn Tri Phương, P. 4",12,1080869,2,10.0,2,1,1,1,122,0,10.7641197,106.6680849
/ho-chi-minh/tau-hu-chi-ri-o-vinh-vien/binh-luan,Tàu Hủ Chi Ri O - Vĩnh Viễn,"17 Vĩnh Viễn, P. 2 (Đối Diện 40 Vĩnh Viễn)",12,1138745,2,10.0,16,0,1,0,26,0,10.7651142,106.6744069
/ho-chi-minh/quan-chay-phuoc-duyen-bun-bo-hue-chay-thanh-thai/binh-luan,Quán Chay Phước Duyên - Bún Bò Huế Chay - Thành Thái,"3/114 Thành Thái, P. 14",12,1143230,2,10.0,14,0,1,0,13,0,10.767913,106.66359
/ho-chi-minh/le-hoi-am-thuc-vedan-biet-nau-an-la-chuan-oppa/binh-luan,Lễ Hội Ẩm Thực Vedan Biết Nấu Ăn Là Chuẩn Oppa,"Công Viên Lê Thị Riêng, 875 Cách Mạng Tháng 8, P. 7",12,891543,2,10.0,13,0,1,0,218,0,10.785088,106.665426
/ho-chi-minh/a-oi-sinh-to-trai-cay-tuoi/binh-luan,À Ơi - Sinh Tố & Trái Cây Tươi,"163/6 Tô Hiến Thành, P. 13",12,803082,2,10.0,1,0,1,1,102,0,10.7803088850304,106.6691324114799
/ho-chi-minh/tini-banh-mi-thit-nuong/binh-luan,Tini - Bánh Mì Thịt Nướng,"595/001 Cách Mạng Tháng 8, P. 15",12,936919,2,10.0,1,0,1,1,231,0,10.783386,106.668003
/ho-chi-minh/tiem-tra-cody-tra-trai-cay-tuoi-bac-hai/binh-luan,Tiệm Trà Cody - Trà Trái Cây Tươi - Bắc Hải,"27 Bắc Hải, P. 15",12,1133476,2,10.0,0,0,1,0,26,1,10.785594,106.663591
/ho-chi-minh/vi-xanh-eat-clean-salad-healthy-food/binh-luan,Vị Xanh - Eat Clean Salad & Healthy Food,"724/4 Điện Biên Phủ, P. 10",12,1000037701,2,10.0,0,0,1,0,57,1,10.7693608,106.6749219
/ho-chi-minh/bun-bo-hue-xua-cao-thang/binh-luan,Bún Bò Huế Xưa - Cao Thắng,169 Cao Thắng,12,671777,2,6.738,570,0,251,86,11393,33,10.7741206,106.6775032
/ho-chi-minh/lavida-tra-sua-ca-phe-su-van-hanh/binh-luan,Lavida - Trà Sữa & Cà Phê - Sư Vạn Hạnh,"509 Sư Vạn Hạnh, P. 12",12,284221,2,6.452,1264,0,249,120,39673,51,10.774264,106.668155
/ho-chi-minh/chicken-kitchen-cac-mon-ga/binh-luan,Gà Nướng Chicken Kitchen,"38 Đồng Nai, P. 15",12,251505,2,7.16,727,0,183,415,44579,58,10.7779246,106.6639849
/ho-chi-minh/mi-vit-tiem-thuong-hai-481/binh-luan,Mì Vịt Tiềm Thượng Hải 481,"Hẻm 481 Nguyễn Tri Phương, P. 8",12,115476,2,7.496,240,0,71,404,30936,20,10.765299,106.6676598999999
/ho-chi-minh/quan-nuong-co-khanh/binh-luan,Quán Nướng Cô Khanh,"177B Cao Thắng, P. 12",12,48037,2,7.012,614,0,110,378,65994,54,10.7747479,106.6748831
/ho-chi-minh/jan-s-farmmades-bot-can-tay-say-lanh/binh-luan,Jan’s Farmmades - Bột Cần Tây Sấy Lạnh,"354/35 Lý Thường Kiệt, P. 14",12,1068525,2,0.0,0,0,0,0,47,0,10.7766677817923,106.658872322165
/ho-chi-minh/a-phat-bo-ne-ly-thuong-kiet/binh-luan,A Phát - Bò Né - Lý Thường Kiệt,"284 Lý Thường Kiệt, P. 14",12,130096,2,0.0,6,9,0,2,719,2,10.7689988,106.6584798
/ho-chi-minh/the-guitar-cafe/binh-luan,The Guitar Cafe,"525/14 Tô Hiến Thành, P. 14",12,252016,2,9.0,31,0,1,2,518,2,10.7725465,106.6587273
/ho-chi-minh/pink-lady-coffee-tam-dao/binh-luan,Pink Lady Coffee - Tam Đảo,"76 Tam Đảo, P. 14",12,896084,2,0.0,1,0,0,0,15,0,10.775107,106.658988
/ho-chi-minh/oc-hem-hai-san-nghia-hoa.ru7wpp/binh-luan,Ốc Hẻm - Hải Sản - Nghĩa Hòa,"15 Nghĩa Hòa, P. 6",12,1000040442,2,0.0,0,0,0,0,3,0,10.7845782,106.6595844
/ho-chi-minh/oc-dem-dat-thanh/binh-luan,Ốc Đêm - Đất Thánh,142 Đất Thánh,12,11346,2,5.072,36,0,11,13,9381,7,10.7825,106.659672
/ho-chi-minh/quan-168-bac-hai/binh-luan,Quán Ăn Gia Đình 168,350 Bắc Hải,12,13944,2,7.056,302,0,25,35,18596,5,10.7813897,106.6596659
/ho-chi-minh/quan-xoi-6b/binh-luan,Quán Xôi 6B,"168 Bắc Hải, P. 6",12,692081,2,0.0,0,0,0,0,34,0,10.7812923,106.6596641999999
/ho-chi-minh/thien-an-food-thit-bo-heo-nhap-khau-ly-thuong-kiet/binh-luan,THIÊN ÂN FOOD - Thịt Bò & Heo Nhập Khẩu - Lý Thường Kiệt,"324/9/12 Lý Thường Kiệt, P. 14",12,1092850,2,0.0,0,0,0,0,33,0,10.769718,106.659038
/ho-chi-minh/nha-beo-tra-sua-an-vat-ly-thuong-kiet/binh-luan,"Nhà Béo - Trà Sữa, Ăn Vặt - Lý Thường Kiệt","284/5 Lý Thường Kiệt, P. 14",12,1000022687,2,0.0,0,0,0,0,14,0,10.7681814530882,106.6589676911283
/ho-chi-minh/foodfest-com-tam-nguyen-tam-dao-noi-dai-nowfood-x-coca/binh-luan,FoodFest - Cơm Tấm Nguyễn - Tam Đảo Nối Dài - Nowfood x Coca,"110 Tam Đảo Nối Dài, P. 14",12,1028479,2,10.0,3,0,1,0,44,0,10.775649,106.659393
/ho-chi-minh/hoang-ty-dac-san-trang-bang-thanh-thai/binh-luan,Hoàng Ty - Đặc Sản Trảng Bàng - Thành Thái,120 Thành Thái,12,4475,2,6.214,875,0,70,48,23752,34,10.77446,106.664499
/ho-chi-minh/ga-ran-va-mi-y-jollibee-hoa-hao/binh-luan,Gà rán và Mì Ý - Jollibee - Hòa Hảo,"Tầng 3, Coopmart Lý Thường Kiệt, 497 Hòa Hảo, P. 7",12,4382,2,6.088,293,0,53,22,8143,11,10.75995,106.661559
/ho-chi-minh/tra-sua-sunday-basic-dong-nai/binh-luan,Trà Sữa Sunday Basic - Đồng Nai,"104 Đồng Nai, P. 15",12,1050676,2,8.198,6,3,3,2,792,2,10.7807245,106.6618868
/ho-chi-minh/tiem-che-bao-lam-che-bo-tau-hu-sua-chua-ly-thai-to/binh-luan,"Tiệm Chè Bảo Lâm - Chè Bơ, Tàu Hũ, Sữa Chua - Lý Thái Tổ","380 Lý Thái Tổ, P. 10",12,1072857,2,7.868,1,0,3,2,520,0,10.7679023,106.6741401
/ho-chi-minh/oc-cam-oc-hai-san-tran-nhan-ton/binh-luan,Ốc Cẩm - Ốc & Hải Sản - Trần Nhân Tôn,"162 Trần Nhân Tôn, P. 2",12,273125,2,6.164,166,0,32,72,13439,1,10.76626,106.674091
/ho-chi-minh/kfc-ngo-gia-tu/binh-luan,Gà Rán KFC - Ngô Gia Tự,"1 - 3 Ngô Gia Tự, P. 2",12,31829,2,6.746,406,0,97,28,9887,37,10.7672566,106.6742617
/ho-chi-minh/highlands-coffee-nguyen-chi-thanh/binh-luan,Highlands Coffee - 82 Nguyễn Chí Thanh,"82 Nguyễn Chí Thanh, P. 3",12,1060580,2,7.7,21,0,2,1,474,0,10.7608955,106.6729416
/ho-chi-minh/tiem-tra-thang-tu-hong-linh/binh-luan,Tiệm Trà Tháng Tư - Hồng Lĩnh,"Y12 Hồng Lĩnh, P. 15",12,1068916,2,9.156,50,4,32,20,3451,2,10.7804,106.66381
/ho-chi-minh/quan-com-chay-thanh-luong/binh-luan,Quán Cơm Chay Thanh Lương,"545A Đường 3 Tháng 2, P. 8",12,1375,2,6.836,231,0,27,82,23754,20,10.767313,106.666694
/ho-chi-minh/com-ga-hai-nam-nguyen-tri-phuong/binh-luan,Cơm Gà Hải Nam - Nguyễn Tri Phương,"379 Nguyễn Tri Phương, P. 5",12,1148,2,6.386,873,0,217,329,68833,80,10.7630497,106.6679754
/ho-chi-minh/com-ga-phu-yen-rom/binh-luan,Cơm Gà Phú Yên Rơm,"595/015 Chung Cư 96 Căn, Cách Mạng Tháng 8, P. 15",12,267632,2,7.732,340,0,94,178,15645,8,10.78327,106.668076
/ho-chi-minh/lavida-tra-sua-ca-phe-nguyen-tri-phuong/binh-luan,Lavida - Trà Sữa & Cà Phê - Nguyễn Tri Phương,311 Nguyễn Tri Phương,12,666360,2,6.516,722,0,137,21,6433,12,10.761768,106.668401
/ho-chi-minh/itune-coffee-su-van-hanh/binh-luan,iTune Coffee - Sư Vạn Hạnh,"573/10 Sư Vạn Hạnh, P. 13",12,107358,2,7.434,428,0,75,130,65221,25,10.7761354,106.666256
/ho-chi-minh/mi-cay-ot-ma/binh-luan,Mì Cay Ớt Ma,"268 Tô Hiến Thành, P. 14",12,237286,2,7.038,403,0,86,62,12686,37,10.778031,106.665672
/ho-chi-minh/ryucha-tra-sua-nhat-ban-su-van-hanh/binh-luan,Ryucha - Japanese Tea & Juice - Sư Vạn Hạnh,"770D Sư Vạn Hạnh, P. 12",12,765726,2,7.654,791,0,122,22,4209,7,10.773092,106.668965
/ho-chi-minh/kem-bud-s-duong-3-thang-2/binh-luan,Kem BUD’S - Đường 3 Tháng 2,"547B Đường 3 Tháng 2, P. 8",12,4331,2,7.37,246,0,67,45,18595,25,10.7670697317669,106.6663958808899
/ho-chi-minh/crystal-jade-kitchen-van-hanh-mall-nha-hang-quang-dong/binh-luan,Crystal Jade Kitchen - Vạn Hạnh Mall - Nhà Hàng Quảng Đông,"06 Vạn Hạnh Mall, 11 Sư Vạn Hạnh, P. 12",12,719619,2,8.166,643,0,68,30,5868,8,10.770823,106.669862
/ho-chi-minh/sumo-bbq-van-hanh-mall-buffet-nuong-lau/binh-luan,Sumo BBQ - Vạn Hạnh Mall - Buffet Nướng & Lẩu,"Tầng 5 Vạn Hạnh Mall, 11 Sư Vạn Hạnh, P. 12",12,718130,2,8.256,448,0,64,26,9732,14,10.770843,106.6699317
/ho-chi-minh/young-coffee-tea-vinh-vien/binh-luan,Young Coffee & Tea - Vĩnh Viễn,"152/12 Vĩnh Viễn, P. 9",12,987158,2,7.832,272,0,92,37,4824,15,10.764776,106.671228
/ho-chi-minh/bo-ne-3-ngon-su-van-hanh/binh-luan,Bò Né 3 Ngon - Bò Quanh Lửa Hồng - Sư Vạn Hạnh,776 Sư Vạn Hạnh,12,131142,2,6.796,272,0,86,73,13277,17,10.7736726,106.6687227
/ho-chi-minh/tra-sua-te-amo-vinh-vien/binh-luan,Trà Sữa Te Amo - Vĩnh Viễn,"185 Vĩnh Viễn, P. 4",12,1025022,2,0.0,1,1,0,0,152,0,10.7642972,106.6698225
/ho-chi-minh/banh-mi-chay-thoi-ke-le-hong-phong/binh-luan,Bánh Mì Chay Thôi Kệ - Lê Hồng Phong,"773 Lê Hồng Phong, P. 12",12,113615,2,7.42,114,0,11,32,13569,8,10.772268,106.672202
/ho-chi-minh/banh-mi-chay-vinh-vien/binh-luan,Bánh Mì Chay Vĩnh Viễn,203	Vĩnh Viễn,12,207764,2,7.026,27,0,14,29,3539,4,10.764056,106.669513
/ho-chi-minh/hoang-yen-buffet-van-hanh-mall/binh-luan,Hoàng Yến Buffet - Vạn Hạnh Mall,"Lầu 5, 13 Vạn Hạnh Mall, 11 Sư Vạn Hạnh, P. 12",12,719680,2,7.208,347,0,79,12,10209,7,10.770774,106.66973
/ho-chi-minh/le-castella-viet-nam-banh-bong-lan-dai-loan-nguyen-tri-phuong/binh-luan,Le Castella Viet Nam - Bánh Bông Lan Đài Loan - Nguyễn Tri Phương,"304 Nguyễn Tri Phương, P. 4",12,684289,2,5.926,325,0,133,185,31366,15,10.762764,106.668416
/ho-chi-minh/banh-mi-ha-hoi-quynh-huong-hoa-hao/binh-luan,BÁNH MÌ HÀ HỘI QUỲNH HƯƠNG - HÒA HẢO,"005 LÔ F Chung Cư Ngô Gia Tự, P. 3",12,1081533,2,0.0,0,0,0,0,17,0,10.7627318823794,106.6714104576722
/ho-chi-minh/chan-ga-xoc-muoi-an-la-ghien-chung-cu-an-quang/binh-luan,Chân Gà Xóc Muối Ăn Là Ghiền - Chung Cư Ấn Quang,"001 Lô A Chung Cư Ấn Quang, Bà Hạt, P. 9",12,1000759,2,0.0,0,24,0,8,151,0,10.764661,106.671066
/ho-chi-minh/chi-phuong-banh-mi-thit-nuong/binh-luan,Chị Phượng - Bánh Mì Thịt Nướng,"9A Bắc Hải, P. 15",12,991519,2,9.4,3,0,1,0,81,0,10.786717,106.664163
/ho-chi-minh/banh-mi-que-chip-hoa-hao/binh-luan,Bánh Mì Que Chip - Hòa Hảo,"355 Hòa Hảo, P. 5",12,939911,2,9.9,22,1,2,13,325,3,10.7616588,106.6679991
/ho-chi-minh/ky-hoa-quan/binh-luan,Kỳ Hòa Quán,"16A Lê Hồng Phong, P. 12",12,9990,2,6.486,278,0,42,23,36442,31,10.7738889,106.6716591
/ho-chi-minh/bun-bo-hue-thanh-tran-bun-bo-goc-hue-595-2-cmt8.ibgmxy/binh-luan,Bún Bò Huế Thanh Trần  - Bún Bò Gốc Huế  - 595/2 CMT8,"595/2 Cách Mạng Tháng 8, P. 15",12,1000048456,2,0.0,0,0,0,0,39,0,10.78394,106.668997
/ho-chi-minh/an-vat-sai-gon-nguyen-tieu-la-shop-online/binh-luan,Ăn Vặt Sài Gòn - Nguyễn Tiểu La - Shop Online,"117 Nguyễn Tiểu La, P. 5",12,1037567,2,7.4,1,8,1,3,95,0,10.7622908,106.6665596
/ho-chi-minh/soup-tran-mai-cach-mang-thang-8/binh-luan,Soup Trần Mai - Cách Mạng Tháng 8,"601/25/14 Cách Mạng Tháng 8, P. 15",12,1128329,2,0.0,0,0,0,0,28,0,10.7832033,106.6703505
/ho-chi-minh/d-n-food-com-van-phong-do-an-dem/binh-luan,D&N Food - Cơm Văn Phòng & Đồ Ăn Đêm,"601/23 Lô A Cách Mạng Tháng 8, P. 15",12,966840,2,3.764,14,0,16,5,1143,11,10.783833,106.668664
/ho-chi-minh/kem-bo-trai-cay-to-251/binh-luan,Kem Bơ - Trái Cây Tô 251 - Tô Hiến Thành,"163/19 Tô Hiến Thành, P. 13",12,203474,2,7.134,497,0,101,139,17117,32,10.779759,106.669339
/ho-chi-minh/lyly-house-tra-sua-an-vat/binh-luan,LyLy House - Trà Sữa & Ăn Vặt,"003 Lô H Chung Cư Lê Thị Riêng, P. 15",12,916697,2,0.0,3,6,0,1,226,3,10.7832241,106.6629301
/ho-chi-minh/com-tam-198-ngo-gia-tu/binh-luan,Cơm Tấm 198 - Ngô Gia Tự,"323A Ngô Gia Tự, P. 3 ",12,1050190,2,0.0,0,3,0,1,82,0,10.7620543,106.6706076
/ho-chi-minh/nha-me-tom-hot-ga-nuong-tra-tac-mat-ong/binh-luan,Nhà Mẹ Tom - Hột Gà Nướng & Trà Tắc Mật Ong,"154/17 Hồ Bá Kiện, P. 15",12,1110399,2,0.0,0,1,0,0,49,0,10.7829379,106.66677
/ho-chi-minh/banh-cuon-133/binh-luan,Bánh Cuốn 133,"133 Tô Hiến Thành, P. 13",12,760730,2,7.932,9,4,3,18,451,1,10.780907,106.669631
/ho-chi-minh/chocofe-cafe-bun-bo-bo-kho/binh-luan,"Chocofé - Cafe, Bún Bò & Bò Kho","154/25 Nguyễn Kim, P. 6",12,1000027488,2,0.0,0,0,0,0,35,0,10.7608101,106.6623419
/ho-chi-minh/hong-phat-tra-cafe-duong-3-2/binh-luan,Hồng Phát - Trà & Cafe - Đường 3/2,"655 Đường 3/2, P. 6",12,1091813,2,0.0,0,0,0,0,22,0,10.765684,106.663582
/ho-chi-minh/tra-sua-gao-thanh-thai/binh-luan,Trà Sữa Gạo - Thành Thái,"7/56 Thành Thái, P. 14",12,1078389,2,0.0,0,38,0,13,507,0,10.7692886,106.66611
/ho-chi-minh/luon-xu-nghe-37-ly-thuong-kiet/binh-luan,Lươn Xứ Nghệ - 37 - Lý Thường Kiệt,"282 Lý Thường Kiệt, P. 14",12,1072490,2,0.0,0,1,0,0,139,0,10.7680156,106.6592857
/ho-chi-minh/smile-bun-thit-xao-com-trua-van-phong-nguyen-chi-thanh/binh-luan,Smile - Bún Thịt Xào & Cơm Trưa Văn Phòng - Nguyễn Chí Thanh,"266 Nguyễn Chí Thanh, P. 5",12,1072180,2,8.2,14,0,1,1,95,0,10.7599937413266,106.6683674288734
/ho-chi-minh/hp-com-tam-hoa-hung/binh-luan,HP Cơm Tấm - Hoà Hưng,"208 Hoà Hưng, P. 13",12,1068778,2,0.0,0,0,0,0,65,0,10.7791099,106.6730005
/ho-chi-minh/tem-tea-coffee/binh-luan,Tem - Tea & Coffee,"002-004 Cao Ốc A Ngô Gia Tự, P. 3",12,1068335,2,0.0,0,0,0,0,37,0,10.7621750166166,106.6720230838625
/ho-chi-minh/am-thuc-de-vang-su-van-hanh/binh-luan,Ẩm Thực Dê Vàng - Sư Vạn Hạnh,"702/3C Sư Vạn Hạnh, P. 12",12,1061284,2,0.0,0,1,0,0,74,0,10.7718364,106.6700776
/ho-chi-minh/o-the-2020-tra-sua-da-bao-hoang-du-khuong/binh-luan,O The 2020 - Trà Sữa & Đá Bào - Hoàng Dư Khương,"64 Hoàng Dư Khương, P. 12, ",12,1065668,2,0.0,0,0,0,0,47,0,10.7772944,106.6724769
/ho-chi-minh/dau-nha-ken/binh-luan,Dâu Nhà Ken,"Tầng 1, 7/56 Thành Thái, P. 14",12,1062313,2,8.744,2,20,14,32,2223,0,10.7692177,106.6627281
/ho-chi-minh/sap-da-me-thanh-xuan/binh-luan,Sạp Đá Me Thanh Xuân,"87/21 Hồ Thị Kỷ, P. 1",12,1060856,2,6.2,5,0,2,4,174,2,10.7638249,106.6774776
/ho-chi-minh/passio-coffee-vinh-vien/binh-luan,Passio Coffee - Vĩnh Viễn,"6B Vĩnh Viễn, P. 2",12,998998,2,8.7,18,0,2,0,278,0,10.765405,106.674899
/ho-chi-minh/quan-goi-cuon-hanh/binh-luan,Quán Gỏi Cuốn Hạnh,"420A Hoà Hảo, P. 5",12,166031,2,7.834,59,0,37,106,9927,6,10.7615832,106.6669162
/ho-chi-minh/bun-bo-a-hung/binh-luan,Bún Bò A Hùng,"68/106 Đồng Nai, P. 15",12,185635,2,6.816,159,0,42,96,8817,5,10.7805542574127,106.6652308031917
/ho-chi-minh/anh-chi-em/binh-luan,Cá Viên Chiên Anh Chị Em - Ăn Vặt,"498 Hoà Hảo, P. 5",12,108596,2,6.818,1049,0,150,311,23652,42,10.761091,106.665346
/ho-chi-minh/tra-sua-te-amo-tran-nhan-ton/binh-luan,Trà Sữa Te Amo - Trần Nhân Tôn,"91 Trần Nhân Tôn, P. 2",12,986210,2,6.88,77,0,10,5,660,8,10.761724,106.674874
/ho-chi-minh/tre-tron-ba-hat-shop-online/binh-luan,Tré Trộn - Bà Hạt,"193/17 Bà Hạt, P. 9",12,1041165,2,6.3,1,1,2,4,232,1,10.766035,106.67035
/ho-chi-minh/bun-bo-hue-dong-ba-hoa-hung/binh-luan,Bún Bò Huế Đông Ba - Hòa Hưng,"93 Hòa Hưng, P. 12",12,974296,2,0.0,0,0,0,0,214,0,10.779187,106.674397
/ho-chi-minh/chao-ech-singapore-ok-lah-foodstruck-chung-cu-830-su-van-hanh/binh-luan,Cháo Ếch Singapore Ok Lah Foodstruck - Chung Cư 830 Sư Vạn Hạnh,"6 Lô 6A2, Chung cư 830 Sư Vạn Hạnh, P. 13",12,1125484,2,9.88,0,0,30,1,141,0,10.776583,106.666806
/ho-chi-minh/iron-steak/binh-luan,Iron Steak - Lê Hồng Phong,624 Lê Hồng Phong,12,746974,2,6.824,726,0,237,643,44878,22,10.769403,106.67389
/ho-chi-minh/cimi-nha-may-trai-cay-3-thang-2/binh-luan,Cimi Fruit - 3 Tháng 2,"165/5 Đường 3 Tháng 2, P. 11",12,232730,2,7.046,808,0,217,249,58394,44,10.77214,106.67591
/ho-chi-minh/tomato-xien-que-nuong-lau-tu-chon/binh-luan,Tomato - Xiên Que Nướng & Lẩu Tự Chọn,357 Nguyễn Tri Phương,12,29342,2,4.86,840,0,155,81,70486,39,10.767339,106.667137
/ho-chi-minh/banh-trung-thu-lanh-ngo-gia-tu/binh-luan,Bánh Trung Thu Lạnh - Ngô Gia Tự,"402 Ngô Gia Tự, P. 4",12,155670,2,7.436,322,0,33,210,70352,39,10.761596,106.670023
/ho-chi-minh/ton-cafe/binh-luan,Tôn Cafe - Acoustic,283/89 Cách Mạng Tháng 8,12,50078,2,7.25,391,0,84,179,67899,31,10.7772377,106.678859
/ho-chi-minh/hoang-thu-lau-bo-ho-thi-ky/binh-luan,Lẩu Bò Hoàng Thu - Hồ Thị Kỷ,"84/1 Hồ Thị Kỷ, P. 1",12,94387,2,6.27,673,0,71,111,66872,23,10.766137,106.676704
/ho-chi-minh/chang-hi-quan-10-che-ngon-sang-tao-dong-nai/binh-luan,Chang Hi Quận 10 - Chè Ngon Sáng Tạo - Đồng Nai,"22 Đồng Nai, P. 15",12,1148246,2,0.0,0,0,0,0,6,0,10.777597,106.664132
/ho-chi-minh/a-l-food-ga-u-muoi-hoa-tieu-su-van-hanh/binh-luan,A.L Food - Gà Ủ Muối Hoa Tiêu - Sư Vạn Hạnh,"207/9 Sư Vạn Hạnh, P. 9",12,1148213,2,0.0,0,0,0,0,1,0,10.7704041,106.6703276
/ho-chi-minh/tra-sua-che-buoi-dac-biet-lucky-chung-cu-ngo-gia-tu/binh-luan,Trà Sữa - Chè Bưởi Đặc Biệt Lucky - Chung Cư Ngô Gia Tự,"003 Lô X, Chung Cư Ngô Gia Tự, P. 2",12,1147866,2,0.0,0,0,0,0,2,0,10.763789,106.673071
/ho-chi-minh/ga-u-muoi-hoa-tieu-de-nhat-su-van-hanh/binh-luan,Gà Ủ Muối Hoa Tiêu Đệ Nhất - Sư Vạn Hạnh,"207/11 Sư Vạn Hạnh, P. 9",12,1147840,2,0.0,0,0,0,0,3,0,10.7632424,106.6718526
/ho-chi-minh/quan-banh-flan-679-duong-3-2/binh-luan,Quán Bánh Flan 679 - Đường 3/2,"679 Đường 3/2, P. 6",12,1147758,2,0.0,0,0,0,0,1,0,10.7653717,106.6631235
/ho-chi-minh/stop-n-salad-nguyen-tieu-la/binh-luan,Stop N Salad - Nguyễn Tiểu La,"131 Nguyễn Tiểu La, P. 5",12,1147594,2,9.8,4,0,2,0,11,1,10.7628006,106.6664625
/ho-chi-minh/ki-coffee-tra-nuoc-ep/binh-luan,KI Coffee - Trà & Nước Ép,"83A Cửu Long, P. 15",12,1147559,2,0.0,0,0,0,0,1,0,10.78261,106.661666
/ho-chi-minh/ca-vien-chien-ut-phuong.l0p08a/binh-luan,Cá Viên Chiên Út Phượng - Hồ Thị Kỷ ,"23/7A Hồ Thị Kỷ, P. 1 ",12,1000056952,2,0.0,0,0,0,0,2,0,10.7635579,106.6775499
/ho-chi-minh/mi-suon-cho-lon-120-duong-dong-nai/binh-luan,Mì Sườn Chợ Lớn - 120 Đường Đồng Nai,"120 Đồng Nai, P. 15",12,1000056923,2,0.0,0,0,0,0,3,0,10.7810363,106.6616681
/ho-chi-minh/ngoc-bich-hai-san-kho-to-hien-thanh/binh-luan,Ngọc Bích - Hải Sản Khô - Tô Hiến Thành,"266/68 Tô Hiến Thành, P 15",12,1000056864,2,0.0,0,0,0,0,1,0,10.7821167,106.6710002
/ho-chi-minh/bap-rang-bo-bapbi-american-popcorn/binh-luan,Bắp Rang Bơ Bapbi - American Popcorn,"80 Đồng Nai, P. 15",12,1003780,2,10.0,6,0,1,0,198,0,10.779729,106.662295
/ho-chi-minh/bun-bo-hue-77-15-ho-thi-ky/binh-luan,BÚN BÒ HUẾ 77/15 - Hồ Thị Kỷ,"77/15 Hồ Thị Kỷ, P. 1",12,1132448,2,10.0,5,0,1,0,36,0,10.765227,106.676562
/ho-chi-minh/ca-vien-chien-lu-gia-2/binh-luan,Cá Viên Chiên Lữ Gia 2,"468 Đường 3 Tháng 2, P. 12",12,930618,2,10.0,0,1,1,2,189,0,0.768165,106.667575
/ho-chi-minh/ga-nuong-mac-khen/binh-luan,Gà Nướng Mắc Khén,"153 Lý Thái Tổ, P. 9",12,1069571,2,10.0,0,0,1,2,35,0,10.767628,106.673876
/ho-chi-minh/chef-gau-com-ca-ri-vi-nhat/binh-luan,Chef Gấu - Cơm Cà Ri Vị Nhật,"41/28 Ngô Quyền, P. 6",12,1127932,2,10.0,4,0,1,0,114,0,10.760923,106.664432
/ho-chi-minh/tra-sua-huy-s-duong-3-thang-2/binh-luan,Trà Sữa Huy's - Đường 3 Tháng 2,"406 3 Tháng 2, P. 12",12,1076563,2,10.0,0,3,1,2,148,0,10.769241,106.669416
/ho-chi-minh/ga-con-bun-cha-bun-dau/binh-luan,Gà Con - Bún Chả & Bún Đậu,"243/1/26 Tô Hiến Thành, P. 13",12,1020844,2,10.0,3,0,1,0,88,0,10.779244,106.66796
/ho-chi-minh/sua-hat-mix-sua-hat-nguyen-chat-3-thang-2.wmqlwj/binh-luan,Sữa Hạt Mix - Sữa Hạt Nguyên Chất - Đường 3 Tháng 2,"606/168 Đường 3 Tháng 2, P. 14",12,1000051201,2,10.0,2,0,1,0,83,0,10.7679874,106.6615628
/ho-chi-minh/co-trang-banh-xeo/binh-luan,Cô Trang - Bánh Xèo,"375 Trần Bình Trọng, P. 1",12,1053535,2,10.0,0,0,2,0,91,0,10.7649889270688,106.6781030313977
/ho-chi-minh/o-cap-cacao-coffee-nguyen-gian-thanh/binh-luan,Ô Cấp Cacao & Coffee - Nguyễn Giản Thanh,"Tầng Trệt Feliz 101 Apartment, 38A Nguyễn Giản Thanh",12,1035535,2,10.0,1,0,1,0,64,0,10.78065,106.667301
/ho-chi-minh/texas-chicken-su-van-hanh/binh-luan,Texas Chicken - Sư Vạn Hạnh,463 Sư Vạn Hạnh,12,178529,2,6.586,903,0,215,112,53439,42,10.7733956,106.6686922
/ho-chi-minh/sentosa-food-chao-ech-singapore-to-hien-thanh/binh-luan,Sentosa Food - Cháo Ếch Singapore - Tô Hiến Thành,"188 Tô Hiến Thành, P. 15",12,165162,2,6.948,1048,0,203,179,24599,53,10.7801223,106.6682757
/ho-chi-minh/sup-cua-hanh-su-van-hanh/binh-luan,Súp Cua Hạnh - Sư Vạn Hạnh,549 Sư Vạn Hạnh,12,3266,2,6.134,373,0,199,310,48907,146,10.771951,106.669329
/ho-chi-minh/nem-nuong-quyen/binh-luan,Nem Nướng Quyên,57/17 Hồ Thị Kỷ,12,674062,2,7.31,254,0,101,362,28823,11,10.764749,106.676741
/ho-chi-minh/com-tam-nguyen-tam-dao-noi-dai/binh-luan,Cơm Tấm Nguyễn - Tam Đảo Nối Dài,"110 Tam Đảo Nối Dài, P. 14",12,968786,2,0.0,0,1,0,0,268,0,10.775649,106.659393
/ho-chi-minh/banh-hien-shop-online/binh-luan,Bánh Hiền - Shop Online,"214 Lô Q Chung Cư Ngô Gia Tự, P. 2",12,1022744,2,0.0,0,1,0,1,34,0,10.7563224923433,106.6583490966603
/ho-chi-minh/bun-rieu-cua-dong-mi-quang-bot-chien/binh-luan,"Bún Riêu Cua Đồng & Mì Quảng, Bột Chiên","268 Tô Hiến Thành, P. 14",12,865161,2,0.0,6,1,0,0,56,1,10.7712859103926,106.6592042246482
/ho-chi-minh/hoi-quan-langbiang-am-thuc-viet/binh-luan,Hội Quán Langbiang - Ẩm Thực Việt,224 Thành Thái,12,408804,2,0.0,0,1,0,1,174,1,10.7806777669253,106.6597818955779
/ho-chi-minh/ganh-que-banh-dan-gian-ly-thuong-kiet/binh-luan,Gánh Quê - Bánh Dân Gian - Lý Thường Kiệt,"324/4/3 Lý Thường Kiệt, P. 14",12,1140676,2,0.0,0,1,0,1,7,0,10.769081,106.6591242
/ho-chi-minh/ice-cream-land-bac-hai/binh-luan,Ice Cream Land - Bắc Hải,340 Bắc Hải,12,128148,2,7.64,66,0,5,13,7877,0,10.781161,106.659844
/ho-chi-minh/hoa-vien-hoang-gia-nha-hang-tiec-cuoi/binh-luan,Hoa Viên Hoàng Gia - Nhà Hàng Tiệc Cưới,"324 Lý Thường Kiệt, P. 14",12,207591,2,0.0,4,1,0,0,1123,1,10.766785,106.659058
/ho-chi-minh/tra-sua-an-vat-nha-beo-ly-thuong-kiet/binh-luan,TRÀ SỮA ĂN VẶT NHÀ BÉO - LÝ THƯỜNG KIỆT,"284/5 Lý Thường Kiệt, P. 14",12,1073045,2,9.5,1,0,2,0,22,0,10.768146,106.6592024
/ho-chi-minh/kc-mart-thuc-pham-tuoi-song-ly-thuong-kiet.dsov8p/binh-luan,KC Mart - Thực Phẩm Tươi Sống - Lý Thường Kiệt,"284/11 Lý Thường Kiệt, P. 14",12,1000045092,2,0.0,0,0,0,0,6,0,10.7693825,106.659273
/ho-chi-minh/lyn-bun-bo-hue/binh-luan,Lyn - Bún Bò Huế,"Đối Diện 348 Bắc Hải, P. 6",12,976623,2,0.0,0,0,0,0,61,0,10.781869,106.660011
/ho-chi-minh/hu-tiu-mi-hoanh-thanh-so-1000/binh-luan,Hủ Tíu Mì Hoành Thánh Số 1000,"1000 Vĩnh Viễn, P. 7",12,650195,2,6.2,6,0,2,3,393,1,10.7614715937673,106.6588575392961
/ho-chi-minh/banh-mi-sai-gon-banh-mi-cha-tom-muc/binh-luan,Bánh Mì Sài Gòn - Bánh Mì Chả Tôm Mực,Lý Thường Kiệt,12,231524,2,7.5,25,0,2,3,332,2,10.7671795149357,106.6591852860874
/ho-chi-minh/kem-bo-trai-cay-to-251/binh-luan,Kem Bơ - Trái Cây Tô 251 - Tô Hiến Thành,"163/19 Tô Hiến Thành, P. 13",12,203474,2,7.134,497,0,101,139,17118,32,10.779759,106.669339
/ho-chi-minh/pho-bo-dan-phuong-ba-hat/binh-luan,Phở Bò Đan Phượng - Bà Hạt,"190 Bà Hạt, P. 9",12,983028,2,7.48,5,0,5,1,599,1,10.7665937,106.6708337
/ho-chi-minh/hem-healthy-food-salad-eat-clean/binh-luan,Hẻm Healthy Food - Salad & Eat Clean,"357/11/11 Cách Mạng Tháng 8, P. 12",12,1062304,2,5.6,14,2,5,9,688,2,10.779534,106.677605
/ho-chi-minh/xoi-la-chuoi-le-loi/binh-luan,Xôi Lá Chuối - Đường 3/2,"83A - 85 Đường 3/2, P. 11",12,3277,2,6.282,167,0,70,90,23159,12,10.7737304,106.677688
/ho-chi-minh/com-suon-thien-nguyen-tri-phuong/binh-luan,Cơm Sườn Thiện - Nguyễn Tri Phương,"462/47 Nguyễn Tri Phương, P. 9",12,1078132,2,0.0,0,1,0,1,129,0,10.766473,106.668421
/ho-chi-minh/con-ga-nuong-thanh-thai/binh-luan,Con Gà Nướng - Thành Thái,"152/7 Thành Thái, P. 12",12,161575,2,6.748,1372,0,368,1080,148516,96,10.7754351,106.664152
/ho-chi-minh/domino-s-pizza-nguyen-tri-phuong/binh-luan,Domino’s Pizza - Nguyễn Tri Phương,"313 Nguyễn Tri Phương, P. 5",12,4639,2,7.404,1196,0,281,141,39541,104,10.761739,106.668376
/ho-chi-minh/dat-cafe/binh-luan,Đất Cafe - Phong Cách Nhà Vườn,"343/5 Tô Hiến Thành, P. 12",12,1256,2,7.01,278,0,57,38,17960,26,10.776376,106.66465
/ho-chi-minh/king-bbq-nguyen-tri-phuong/binh-luan,King BBQ - Vua Nướng Hàn Quốc - Nguyễn Tri Phương,"515 Nguyễn Tri Phương, P. 8",12,300877,2,7.44,490,0,78,37,19999,15,10.765916,106.66733
/ho-chi-minh/cream-dalat-kem-bo-to-hien-thanh/binh-luan,Cream DaLat - Kem Bơ - Tô Hiến Thành,266 Tô Hiến Thành,12,247452,2,5.768,285,0,118,176,54645,10,10.778474,106.666155
/ho-chi-minh/shabu-ya-van-hanh-mall/binh-luan,Shabu Ya - Vạn Hạnh Mall,"19 Tầng 6 Vạn Hạnh Mall, 11 Sư Vạn Hạnh, P. 12",12,718473,2,7.906,417,0,70,71,22060,9,10.770823,106.669862
/ho-chi-minh/fruit-farm-nuoc-ep-detox-water/binh-luan,Fruit Farm - Nước Ép & Detox Water,87 Cửu Long,12,675698,2,7.206,400,0,76,85,9874,8,10.782743,106.661552
/ho-chi-minh/xe-lam-bistro/binh-luan,Xe Lam Bistro,"218A 10-11-12-13 Thành Thái, P. 15",12,47913,2,5.774,453,0,76,39,56056,36,10.7769449,106.6633374
/ho-chi-minh/a-lo-banh-canh-chua-cay-bun-dinh-duong/binh-luan,A Lỏ - Bánh Canh Chua Cay & Bún Bò Viên - Nguyễn Tri Phương,"466A Nguyễn Tri Phương, P. 9",12,862135,2,7.584,206,0,78,101,3479,7,10.766269,106.667591
/ho-chi-minh/moc-tra-quan-to-hien-thanh/binh-luan,Mộc Trà Quán - Tô Hiến Thành,"339/18 Tô Hiến Thành, P. 12",12,28852,2,6.836,316,0,58,123,46830,22,10.775986,106.663198
/ho-chi-minh/xing-fu-tang-vietnam-tra-sua-dai-loan-su-van-hanh/binh-luan,Xing Fu Tang Vietnam - Trà Sữa Đài Loan - Sư Vạn Hạnh,"495 Sư Vạn Hạnh, P. 12",12,979117,2,7.688,728,0,58,12,2486,57,10.773961,106.668389
/ho-chi-minh/banh-cong-bac-lieu-tran-minh-quyen/binh-luan,Bánh Cống Bạc Liêu - Trần Minh Quyền,"117 Trần Minh Quyền, P. 10",12,882930,2,0.0,0,1,0,1,174,0,10.7710122,106.6739377
/ho-chi-minh/chao-bui-chung-cu-ngo-gia-tu/binh-luan,Cháo Bụi - Chung Cư Ngô Gia Tự,"005 Lô I Chung Cư Ngô Gia Tự, Đường Lô I",12,749285,2,7.472,33,0,11,133,5484,0,10.762702,106.673174
/ho-chi-minh/tra-sua-88-ho-thi-ky/binh-luan,Trà Sữa 88 - Hồ Thị Kỷ,"105E Hồ Thị Kỷ, P. 1",12,784363,2,7.2,18,1,1,2,297,0,10.7659359,106.6766794
/ho-chi-minh/kimura-coffee-more-thanh-thai/binh-luan,Kimura Coffee & More - Thành Thái,"7A/20 Thành Thái, P. 14",12,951893,2,0.0,10,0,0,0,201,1,10.769903,106.664017
/ho-chi-minh/banh-xeo-cha-ram-bap/binh-luan,Bánh Xèo & Chả Ram Bắp,"95/10 Bắc Hải, P. 15",12,775013,2,7.8,25,0,4,13,794,0,10.7854846,106.6633173
/ho-chi-minh/lau-mam-bun-mam-co-5-dong-thap-cn-sai-gon-su-van-hanh.ulom4x/binh-luan,Lẩu Mắm & Bún Mắm Cô 5 Đồng Tháp - CN Sài Gòn - Sư Vạn Hạnh,"011 Lô K CC Ngô Gia Tự Sư Vạn Hạnh, P. 2",12,1000048440,2,0.0,2,0,0,0,16,0,10.763634,106.672588
/ho-chi-minh/bo-kho-since-1970-cach-mang-thang-8/binh-luan,Bò Kho Since 1970 - Cách Mạng Tháng 8,"601/25 Cách Mạng Tháng 8, P. 15",12,1121280,2,0.0,0,0,0,0,36,0,10.7840291,106.6679477
/ho-chi-minh/ga-hap-mam-nhi-bep-ong-thuc/binh-luan,Gà Hấp Mắm Nhĩ - Bếp Ông Thức,"004 Lô X, Chung Cư Ngô Gia Tự, P. 2",12,1145549,2,0.0,0,0,0,0,3,0,10.763797,106.673107
/ho-chi-minh/banh-cuon-nong-banh-uot-18/binh-luan,BÁNH CUỐN NÓNG - BÁNH ƯỚT 18,"529 Sư Vạn Hạnh, P. 13",12,1067593,2,0.0,0,0,0,0,53,0,10.7754685,106.667311
/ho-chi-minh/an-an-an-vat-online/binh-luan,An An - Ăn Vặt Online - Tô Hiến Thành,"159/13 Hòa Hưng, P. 12",12,1001267,2,0.0,0,0,0,0,43,0,10.777348,106.671596
/ho-chi-minh/pad-thai-mien-xao-com-ga-547c-cach-mang-thang-tam/binh-luan,"Pad Thai, Miến Xào & Cơm Gà 547C - Cách Mạng Tháng Tám","547C Cách Mạng Tháng 8, P. 15",12,1109472,2,0.0,0,0,0,0,53,0,10.7837382,106.6712063
/ho-chi-minh/thanh-dat-hu-tieu-nam-vang-su-van-hanh/binh-luan,Thành Đạt - Hủ Tiếu Nam Vang - Sư Vạn Hạnh,"740/2 Sư Vạn Hạnh, P. 12",12,1038987,2,8.4,9,1,2,3,325,0,10.772237,106.66968
/ho-chi-minh/sau-le-banh-mi-xoi-man-nguyen-tri-phuong/binh-luan,Sáu Lẹ - Bánh Mì & Xôi Mặn - Nguyễn Tri Phương,"423 Nguyễn Tri Phương, P. 8",12,703869,2,6.35,15,0,4,3,677,3,10.7641257,106.6678946
/ho-chi-minh/trum-cuoi-ne-an-vat-dong-nai.gaci7z/binh-luan,Trùm Cuối Nè - Ăn Vặt - Đồng Nai,"68A Đồng Nai, P. 15",12,1000049442,2,0.0,0,0,0,0,3,0,10.7786015,106.6630599
/ho-chi-minh/com-tam-tai-476-nguyen-tri-phuong/binh-luan,Cơm Tấm Tài - 476 Nguyễn Tri Phương,"476 Nguyễn Tri Phương, P. 9",12,19875,2,3.28,25,17,5,13,2727,3,10.766632,106.667526
/ho-chi-minh/tra-dau-thi-thi-ho-thi-ky/binh-luan,Trà Dâu Thi Thi - Hồ Thị Kỷ,"105M/38 Hồ Thị Kỷ, P. 1",12,1122352,2,0.0,0,0,0,0,48,0,10.7659587,106.6755091
/ho-chi-minh/tra-sua-nong-nguyen-tri-phuong/binh-luan,Trà Sữa Nọng - Nguyễn Tri Phương,"196 Nguyễn Tri Phương, P. 4",12,1057348,2,8.498,73,3,18,8,4240,3,10.7606248,106.6688365
/ho-chi-minh/hina-food-ga-sot-set/binh-luan,Hina Food - Gà Sốt Sệt,"27C Bắc Hải, P. 15",12,1033090,2,8.0,7,4,4,5,308,0,10.785652,106.663516
/ho-chi-minh/che-buoi-vinh-long-to-hien-thanh/binh-luan,Chè Bưởi Vĩnh Long - Tô Hiến Thành,"220 Tô Hiến Thành, P. 15",12,773209,2,4.968,136,0,30,21,6004,2,10.778849,106.666682
/ho-chi-minh/an-vat-su-xoan-shop-online/binh-luan,Ăn Vặt Su Xoắn - Shop Online,"285/21 Cách Mạng Tháng 8, P. 12",12,676029,2,6.074,229,0,27,117,10978,1,10.778382,106.679106
/ho-chi-minh/trai-cay-to-339-4-to-hien-thanh/binh-luan,Trái Cây Tô Ngon Nhất Quả Đất,"339/3B Tô Hiến Thành, P. 12",12,198205,2,6.744,93,0,14,27,43742,3,10.7771457,106.6648409
/ho-chi-minh/he-quan-an-vat-phu-yen/binh-luan,Hẹ Quán - Bánh Canh Hẹ & Bánh Bèo Nóng Phú Yên,"111 Cao Thắng, P. 11",12,713718,2,8.474,367,0,75,94,4492,5,10.772786,106.678794
/ho-chi-minh/tra-sua-won-cha/binh-luan,Trà Sữa Won Cha - Nguyễn Chí Thanh,"148 Nguyễn Chí Thanh, P. 3",12,700451,2,6.816,1220,0,181,60,6476,17,10.760655,106.6716269999999
/ho-chi-minh/bun-dau-mam-tom-a-chanh-bach-ma/binh-luan,Bún Đậu Mắm Tôm A Chảnh - Bạch Mã,"DD34 Bạch Mã, P. 15",12,192181,2,6.634,484,0,129,148,38962,69,10.781911,106.664906
/ho-chi-minh/tan-huong-nam-quan-mi-sua-bac-lieu-banh-canh/binh-luan,Tân Hương Nam Quán - Mì Sụa Bạc Liêu & Bánh Canh,"382 Bà Hạt, P. 8",12,161419,2,6.53,986,0,107,172,30249,14,10.7657408,106.6672385
/ho-chi-minh/bitcoin-coffee-tra-dau-tuoi-duong-3-thang-2/binh-luan,Bitcoin Coffee & Trà Dâu Tươi - Đường 3 Tháng 2,"666/10/14 Đường 3 Tháng 2, P. 14",12,855323,2,9.236,42,157,90,0,719,0,10.765408,106.661826
/ho-chi-minh/mimi-s-kitchen-mon-nhat-shop-online/binh-luan,MiMi's Kitchen - Món Nhật - Shop Online,"Lầu 1, 128 Lô D, Chung Cư Ấn Quang, P. 9",12,1068073,2,9.826,17,0,8,7,182,0,10.7653895,106.6710238
/ho-chi-minh/bep-chan-ga-cach-mang-thang-8/binh-luan,Bếp Chân Gà - Cách Mạng Tháng 8,"377/29 Cách Mạng Tháng 8, P. 12",12,1069697,2,9.7,2,0,4,2,94,0,10.7800612,106.6768348
/ho-chi-minh/bac-2-voi-ga-u-muoi-ngo-quyen/binh-luan,Bác 2 Voi - Gà Ủ Muối - Ngô Quyền,"10 Ngô Quyền, Phường 05, Quận 10, TP. HCM",12,1144148,2,10.0,0,1,1,0,47,0,10.7602364,106.6654564
/ho-chi-minh/royaltea-tra-sua-hong-kong-duong-3-2/binh-luan,Royaltea - Trà Sữa Hồng Kông - Đường 3/2,"63/3 Đường 3/2, P. 11",12,1126724,2,10.0,0,0,1,0,37,0,10.7742607,106.6785997
/ho-chi-minh/banh-xeo-gion-gion-bo-nuong-la-lot-mo-chai/binh-luan,Bánh Xèo Giòn Giòn - Bò Nướng Lá Lốt Mỡ Chài,"438/8 Lê Hồng Phong, P. 1",12,1072172,2,9.65,8,0,4,3,289,0,10.7654997,106.6754045
/ho-chi-minh/somtamlam-bangkok-street-food-nguyen-tri-phuong/binh-luan,Somtamlam Bangkok Street Food - Nguyễn Tri Phương,"353 Nguyễn Tri Phương, P. 5",12,1074356,2,9.8,5,4,2,7,607,0,10.7625929,106.6680761
/ho-chi-minh/cafe-iyo-ca-phe-kem-muoi-nguyen-tri-phuong/binh-luan,Cafe IYO - Cà Phê Kem Muối - Nguyễn Tri Phương,"188 Nguyễn Tri Phương, P. 4",12,1013861,2,9.92,10,0,5,2,204,1,10.7605045,106.6689516
/ho-chi-minh/ga-nuong-cai-bang-ba-hat/binh-luan,Gà Nướng Cái Bang - Bà Hạt,"440 Bà Hạt, P. 8",12,1071762,2,9.666,2,0,3,5,232,0,10.7655,106.666345
/ho-chi-minh/iron-steak/binh-luan,Iron Steak - Lê Hồng Phong,624 Lê Hồng Phong,12,746974,2,6.824,726,0,237,643,44879,22,10.769403,106.67389
/ho-chi-minh/lotteria-to-hien-thanh/binh-luan,Lotteria - Tô Hiến Thành,307A Tô Hiến Thành,12,4431,2,6.282,775,0,174,36,14021,44,10.777768,106.665316
/ho-chi-minh/lau-mam-nam-bo-cao-thang/binh-luan,Lẩu Mắm Bà Dú - Cao Thắng,"322 - 324 Cao Thắng, P. 12 ",12,18946,2,6.114,422,0,64,52,66076,26,10.77494,106.674236
/ho-chi-minh/hd-may-cafe/binh-luan,HD May Cafe,"7A/85 Thành Thái, P. 14",12,3953,2,6.042,27,0,14,44,63755,6,10.771739,106.661067
/ho-chi-minh/ba-lam-goi-vit/binh-luan,Bà Lâm - Cháo Vịt & Gỏi,"343/2 Tô Hiến Thành, P. 12",12,38579,2,6.376,236,0,51,126,62211,37,10.7766019,106.664351
/ho-chi-minh/gao-com-chay-nha-lam/binh-luan,Gạo - Cơm Cháy Nhà Làm,"QQ4 Ba Vì, P. 15",12,93173,2,6.978,179,0,28,118,62012,13,10.779839,106.661875
/ho-chi-minh/bun-rieu-cua-oc-phang-rang-ninh-thuan-dao-duy-tu/binh-luan,Bún Riêu Cua Ốc Phang Rang Ninh Thuận - Đào Duy Từ,"203 Đào Duy Từ, P. 6",12,1147286,2,0.0,0,0,0,0,6,0,10.7599527,106.6641127
/ho-chi-minh/trang-food-mi-tron-indomie-449-nguyen-tri-phuong.lzppsv/binh-luan,TRANG FOOD - Mì Trộn Indomie - 449 Nguyễn Tri Phương,"449 Nguyễn Tri Phương, P. 8",12,1000056551,2,0.0,0,0,0,0,4,0,10.7645011,106.6676758
/ho-chi-minh/kachii-coffee-do-uong-385-nguyen-tri-phuong/binh-luan,Kachii Coffee - Đồ Uống - 385 Nguyễn Tri Phương,"385 Nguyễn Tri Phương, P. 5",12,1000056539,2,0.0,0,0,0,0,3,0,10.763195,106.6679436
/ho-chi-minh/quan-chay-xuan-thien-to-hien-thanh/binh-luan,Quán Chay Xuân Thiện - Tô Hiến Thành,"102/17/25 Tô Hiến Thành, P. 15",12,1146996,2,0.0,0,0,0,0,4,0,10.7820557,106.6704586
/ho-chi-minh/com-tam-quyen-hoa-hung/binh-luan,Cơm Tấm Quyên - Hoà Hưng,"51 Hoà Hưng, P. 12",12,1146951,2,0.0,0,0,0,0,1,0,10.7798211,106.6756334
/ho-chi-minh/beu-beu-sinh-to-nuoc-ep-sieu-an-vat-nhat-tao/binh-luan,"Bếu Bếu - Sinh Tố, Nước Ép & Siêu Ăn Vặt - Nhật Tảo","142/12 Nhật Tảo, P. 8",12,1146916,2,0.0,0,0,0,0,4,0,10.7651155,106.6673721
/ho-chi-minh/tra-sua-the-college-hong-tra-sua-vinh-vien/binh-luan,Trà Sữa The College & Hồng Trà Sữa - Vĩnh Viễn,"78 Vĩnh Viễn, P. 2",12,1146864,2,0.0,0,0,0,0,2,0,10.7653399,106.6731944
/ho-chi-minh/cafe-hanh-sinh-to-nuoc-ep-su-van-hanh/binh-luan,Cafe Hạnh - Sinh Tố & Nước Ép - Sư Vạn Hạnh,"746 Sư Vạn Hạnh, P. 12",12,1146716,2,0.0,0,0,0,0,2,0,10.7723692320995,106.6693834659723
/ho-chi-minh/banh-mi-ha-noi-chinh-hieu-quan-10-thanh-thai/binh-luan,Bánh Mì Hà Nội Chính Hiệu Quận 10 - Thành Thái,"110 Thành Thái, P. 12",12,1146653,2,0.0,0,0,0,0,5,0,10.774251,106.664579
/ho-chi-minh/nuoc-ep-sinh-to-tay-nguyen-365/binh-luan,Nước Ép & Sinh Tố - Tây Nguyên 365,"361 Lý Thái Tổ, P. 9",12,1146387,2,0.0,0,0,0,0,5,0,10.7678008,106.6701251
/ho-chi-minh/bear-tea-tra-sua-nuong-tra-sua-cream-cheese-bac-hai/binh-luan,Bear Tea - Trà Sữa Nướng & Trà Sữa Cream Cheese - Bắc Hải,"9A Bắc Hải, P. 15",12,1146307,2,0.0,0,0,0,0,9,0,10.7866252,106.6641875
