ReviewUrl,name,Address,districtid,RestaurantId,RestaurantStatus,avgrating,TotalPictures,TotalSaves,TotalReviews,TotalFavourites,TotalViews,TotalCheckIns,Latitude,Longitude
/ho-chi-minh/marukame-udon-aeon-mall/binh-luan,Marukame Udon - AEON Mall Tân Phú,"Tầng 3 AEON Mall Tân Phú, 30 Bờ Bao Tân Thắng, P. Sơn Kỳ",19,46914,2,7.486,2229,0,461,274,53468,133,10.801392,106.617929
/ho-chi-minh/foodcourt-aeon-mall/binh-luan,Food Court - AEON Mall Tân Phú,"Tầng Trệt AEON Mall Tân Phú, 30 Bờ Bao Tân Thắng, P. Sơn Kỳ",19,46930,2,7.536,4641,0,553,234,76669,166,10.802165,106.618242
/ho-chi-minh/bep-rua-chan-ga-rut-xuong-ngam-sa-tac-shop-online/binh-luan,Bếp Rùa - Chân Gà Rút Xương Ngâm Sả Tắc - Shop Online,"127/5/9 Lê Thúc Hoạch, P. Phú Thọ Hòa",19,907273,2,9.792,60,3,703,266,101512,60,10.7879041,106.620884
/ho-chi-minh/oc-nho-sai-gon-trinh-dinh-trong/binh-luan,Ốc Nhớ Sài Gòn - Trịnh Đình Trọng,136 Trịnh Đình Trọng,19,118581,2,7.194,2441,0,296,509,122229,98,10.774874,106.644105
/ho-chi-minh/hotpot-story-aeon-mall-tan-phu/binh-luan,Hotpot Story AEON Mall Tân Phú,"Lô T49, Tầng 3, AEON Mall Tân Phú, 30 Bờ Bao Tân Thắng, P. Sơn Kỳ",19,69937,2,7.224,1777,0,162,194,76690,49,10.8039503,106.6183813
/ho-chi-minh/kichi-kichi-lau-bang-chuyen-aeon-mall/binh-luan,Kichi Kichi Lẩu Băng Chuyền - AEON Mall Tân Phú,"Tầng 3 AEON Mall Tân Phú, 30 Bờ Bao Tân Thắng, P. Sơn Kỳ",19,133893,2,8.574,645,0,215,28,21012,57,10.801526,106.617653
/ho-chi-minh/tra-sua-gong-cha-nguyen-son/binh-luan,Trà Sữa Gong Cha - 貢茶 - Nguyễn Sơn,"7 Nguyễn Sơn, P. Phú Thạnh",19,263004,2,6.62,959,0,244,196,20874,79,10.780868,106.634209
/ho-chi-minh/biscotti-banh-hat-dinh-duong/binh-luan,Biscotti - Bánh Hạt Dinh Dưỡng - Phú Thọ Hòa,"156/74 Phú Thọ Hòa, P. Phú Thọ Hòa",19,1051428,2,9.984,10,0,661,37,1645,30,10.785014,106.632388
/ho-chi-minh/banh-que-ha-lan/binh-luan,Bánh Quế Hà Lan,"156/74 Phú Thọ Hoà, P. Phú Thọ Hoà",19,1044820,2,9.976,19,0,522,65,1976,19,10.7851681,106.6323625
/ho-chi-minh/the-gioi-steak-tan-son-nhi/binh-luan,Thế Giới Steak - Tân Sơn Nhì,"456 Tân Sơn Nhì, P. Tân Quý",19,24007,2,6.648,825,0,173,355,85598,63,10.7935896,106.6284548
/ho-chi-minh/viet-sin-nguyen-xuan-khoat/binh-luan,"Kem Tươi, Kem Chiên & Cá Viên Chiên - Nguyễn Xuân Khoát","102C3 Nguyễn Xuân Khoát, P. Tân Thành",19,103697,2,7.042,742,0,105,241,31280,40,10.7889393,106.6336602
/ho-chi-minh/pepper-lunch-aeon-mall/binh-luan,Pepper Lunch - AEON Mall Tân Phú,"Gian Hàng L3, AEON Mall Tân Phú, 30 Bờ Bao Tân Thắng, P. Sơn Kỳ",19,46931,2,7.274,691,0,128,57,16269,37,10.801389,106.617733
/ho-chi-minh/de-lima-lau-dai-da-to-hieu/binh-luan,De Lima Lâu Đài Đá - Tô Hiệu,110 Tô Hiệu,19,140344,2,6.628,1560,0,117,222,95558,55,10.768092,106.627132
/ho-chi-minh/cu-dat/binh-luan,Nhà Hàng Cù Đất - Ẩm Thực Việt Nam,"481 Lê Trọng Tấn, P. Sơn Kỳ",19,3832,2,7.962,195,0,38,129,71115,50,10.8108488,106.6109619
/ho-chi-minh/quan-mr-oc-nuong-lau/binh-luan,Quán Mr. Ốc - Nướng & Lẩu,"140 Kênh Tân Hóa, Phú Trung",19,213021,2,7.322,132,0,15,45,65100,9,10.7785346226697,106.6401454433798
/ho-chi-minh/banh-duc-singapore/binh-luan,Hai Bà Mập - Bánh Đúc Singapore,"18 Lê Thúc Hoạch, P. Phú Thọ Hòa",19,169339,2,6.446,131,0,46,261,60649,23,10.7870333,106.6246721
/ho-chi-minh/minh-tu-nguyen-hau/binh-luan,Bánh Cuốn Minh Tú,"57 Nguyễn Hậu, P. Tân Thành",19,25445,2,6.772,100,0,29,149,57267,28,10.791558,106.635312
/ho-chi-minh/pizza-factory-aeon-mall/binh-luan,Pizza Factory - AEON Mall Tân Phú,"Tầng Trệt AEON Mall Tân Phú, 30 Bờ Bao Tân Thắng, P. Sơn Kỳ",19,46928,2,7.292,275,0,82,54,51297,31,10.801589,106.618519
/ho-chi-minh/tiem-banh-kim-loan-doc-lap/binh-luan,Tiệm Bánh Kim Loan - Độc Lập,"90 Độc Lập, P. Tân Thành",19,1151599,2,0.0,0,0,0,0,1,0,10.7920370532404,106.6350183681524
/ho-chi-minh/banh-mi-tho-nhi-ky-biity-kebab-hoa-binh/binh-luan,Bánh Mì Thổ Nhĩ Kỳ - Biity Kebab - Hòa Bình,"143 Hòa Bình, P. Hiệp Tân",19,1151576,2,0.0,0,0,0,0,1,0,10.7713909564329,106.6300821530218
/ho-chi-minh/quan-kaka-truong-chinh/binh-luan,Quán Kaka - Trường Chinh,"725/1E Trường Chinh, P. 15",19,1000058520,2,0.0,0,0,0,0,0,0,10.8188954,106.6314291
/ho-chi-minh/to-hoang-foods-bun-dau-met-bun-gia-cay-ha-noi/binh-luan,Tô Hoàng Foods - Bún Đậu Mẹt & Bún Giả Cầy Hà Nội,"38 Nguyễn Văn Yến, P. Tân Thới Hòa",19,1151488,2,0.0,0,0,0,0,1,0,10.764775,106.624852
/ho-chi-minh/com-tam-mup-cau-xeo/binh-luan,Cơm Tấm Múp - Cầu Xéo,"15/44/3 Cầu Xéo, P. Tân Quý",19,1151446,2,0.0,0,0,0,0,1,0,10.798488,106.626022
/ho-chi-minh/neko-chan-tra-sua-32-1-9-huynh-van-chinh.basact/binh-luan,Neko-Chan - Trà Sữa - 32/1/9 Huỳnh Văn Chính,"32/1/9 Huỳnh Văn Chính, P. Phú Trung",19,1000058449,2,0.0,0,0,0,0,2,0,10.7812441,106.6406009
/ho-chi-minh/an-vat-co-hang-ca-vien-chien-thoai-ngoc-hau/binh-luan,Ăn Vặt Cô Hằng - Cá Viên Chiên - Thoại Ngọc Hầu,"389A Thoại Ngọc Hầu, P. Hiệp Tân",19,1000058440,2,0.0,0,0,0,0,2,0,10.7741914,106.6225265
/ho-chi-minh/mellow-tra-sua-an-vat/binh-luan,Mellow - Trà Sữa & Ăn Vặt,"30/55 Đỗ Nhuận, P. Sơn Kỳ",19,1151400,2,0.0,0,0,0,0,1,0,10.8038887,106.6249506
/ho-chi-minh/banh-trang-tron-34-nguyen-nhu-lam/binh-luan,Bánh Tráng Trộn 34 - Nguyễn Như Lãm,"73 Nguyễn Như Lãm, P. Phú Thọ Hòa",19,1151393,2,0.0,0,0,0,0,1,0,10.7848546936929,106.6269117278308
/ho-chi-minh/nuoc-ep-sinh-to-83a-pham-van-xao/binh-luan,Nước Ép & Sinh Tố 83A - Phạm Văn Xảo,"83A Phạm Văn Xảo, P. Phú Thọ Hòa",19,1151377,2,0.0,0,0,0,0,1,0,10.788469,106.623941
/ho-chi-minh/banh-mi-phat-loc-hy-banh-mi-suon-trinh-dinh-trong/binh-luan,Bánh Mì Phát Lộc Hỷ - Bánh Mì Sườn - Trịnh Đình Trọng,"248 Trịnh Đình Trọng, P. Phú Trung",19,1151344,2,0.0,0,0,0,0,1,0,10.775752,106.6399412
/ho-chi-minh/pho-quynh-chinh-hieu-tan-huong/binh-luan,Phở Quỳnh Chính Hiệu - Tân Hương,"284 Tân Hương, P. Tân Quý",19,1151339,2,0.0,0,0,0,0,1,0,10.790044,106.619633
/ho-chi-minh/pho-nhi-pho-367-tay-thanh/binh-luan,Phở Nhi - Phở - 367 Tây Thạnh,"367 Tây Thạnh, P. Tây Thạnh",19,1000054437,2,10.0,54,43,35,3,70,4,10.809576,106.619524
/ho-chi-minh/banh-trang-tron-3-chi-em/binh-luan,Bánh Tráng Trộn 3 Chị Em,"91 Đường S11, P. Tây Thạnh (Bên Chung Cư)",19,1046104,2,10.0,86,0,3,14,455,15,10.814526,106.620348
/ho-chi-minh/cafe-an/binh-luan,Cafe An,"10 Trần Văn Ơn, P. Tân Sơn Nhì",19,980907,2,10.0,30,0,6,1,141,1,10.802684,106.630858
/ho-chi-minh/michi-coffee/binh-luan,Michi Coffee,"Lô F001 Chung Cư Sơn Kỳ, Đường CC5",19,698107,2,10.0,46,0,3,1,291,1,10.80907,106.60804
/ho-chi-minh/an-vat-hay-ngo-ca-vien-chien-banh-trang-tron-chan-ga-sa-tac-khuong-viet.pocoq3/binh-luan,"Ăn Vặt Hày Ngộ  - Cá Viên Chiên, Bánh Tráng Trộn & Chân Gà Sả Tắc  - Khuông Việt","198 Khuông Việt, P.Phú Trung",19,1000026401,2,10.0,9,0,8,2,91,0,10.775228,106.638756
/ho-chi-minh/chao-dinh-duong-panda-son-ky/binh-luan,Cháo Dinh Dưỡng Panda - Sơn Kỳ,"10 Đường CN11, P. Sơn Kỳ",19,658961,2,10.0,65,0,1,2,572,6,10.807231,106.608363
/ho-chi-minh/nuoc-ep-sinh-to-banh-trang-tron-maika/binh-luan,"Nước Ép, Sinh Tố & Bánh Tráng Trộn - MAIKA","158-160 Nguyễn Cửu Đàm, P. Tân Sơn Nhì ",19,1047337,2,10.0,12,0,3,0,109,3,10.80023,106.62817
/ho-chi-minh/1967-coffee-acoustic/binh-luan,1967 - Coffee & Acoustic,"35 Nguyễn Trường Tộ, P. Tân Thành",19,756116,2,10.0,96,0,1,3,931,1,10.793297,106.631539
/ho-chi-minh/fox-sua-tuoi-tran-chau-duong-den-dai-loan/binh-luan,Fox - Sữa Tươi Trân Châu Đường Đen Đài Loan,"1Bis Tân Hương, P. Tân Quý",19,798905,2,10.0,7,0,2,1,219,1,10.7923545,106.6288242
/ho-chi-minh/banh-mi-tiktak/binh-luan,Bánh Mì TikTak,"94/12 Nguyễn Thế Truyện, P. Tân Sơn Nhì",19,916726,2,10.0,7,0,1,3,123,6,10.795421,106.631833
/ho-chi-minh/bun-moc-tuan-uyen/binh-luan,Bún Mọc Tuấn Uyên,"139 Nguyễn Súy, P. Tân Quý",19,983187,2,10.0,7,0,1,1,208,14,10.793547,106.622542
/ho-chi-minh/an-dem-noi-tieng-hoa-binh/binh-luan,Ăn Đêm Nổi Tiếng Hòa Bình,"237/4 Hòa Bình, P. Hiệp Tân",19,1015860,2,10.0,0,0,3,1,149,3,10.771531,106.625218
/ho-chi-minh/bep-rua-chan-ga-rut-xuong-ngam-sa-tac-shop-online-phu-tho-hoa/binh-luan,Bếp Rùa - Chân Gà Rút Xương Ngâm Sả Tắc - Shop Online - Phú Thọ Hoà,"94/22/2A Phú Thọ Hòa, P. Phú Thọ Hòa",19,1041514,2,9.404,1,1,1513,4,33751,9,10.7841757354072,106.6341677920137
/ho-chi-minh/rom-chan-ga-rut-xuong-ngam-sa-tac-khuong-viet/binh-luan,Ròm - Chân Gà Rút Xương Ngâm Sả Tắc - Khuông Việt,"341/19/91 Khuông Việt, P. Phú Trung",19,1045264,2,8.974,4,0,1301,1,35505,17,10.769843,106.638297
/ho-chi-minh/gogi-house-quan-nuong-han-quoc-aeon-mall/binh-luan,Gogi House - Quán Nướng Hàn Quốc - AEON Mall Tân Phú,"Lô T45 Tầng 3, Aeon Mall Tân Phú, 30 Bờ Bao Tân Thắng, P. Sơn Kỳ",19,197983,2,8.622,622,0,198,10,10536,51,10.80217,106.618436
/ho-chi-minh/chu-teo-buffet-nuong-99k-tan-ky-tan-quy/binh-luan,Chú Tèo Buffet Nướng 99K - 320 Tân Kỳ Tân Quý,"320 Tân Kỳ Tân Quý, Phường Sơn Kỳ",19,255787,2,6.674,492,0,180,52,26566,12,10.801434549006,106.6250962391495
/ho-chi-minh/miko-cakes-tiem-banh-online/binh-luan,Miko Cakes - Tiệm Bánh Online,"Gần Aeon Mall Tân Phú, P. Sơn Kỳ",19,111437,2,8.048,2560,0,52,518,22507,24,10.802426,106.621199
/ho-chi-minh/banh-duc-nong-singapore-dang-van-ngu/binh-luan,Bánh Đúc Nóng Singapore,"58/2C Hoa Bằng, P. Tân Sơn Nhì",19,128911,2,7.454,222,0,78,265,29089,27,10.7982609,106.6281195
/ho-chi-minh/banh-mi-xoi-ga-56-trinh-dinh-trong/binh-luan,Bánh Mì - Xôi Gà 56 - Trịnh Đình Trọng,"56 Trịnh Đình Trọng, P. Phú Trung",19,101668,2,6.124,82,0,50,245,20538,10,10.7753223,106.6458774
/ho-chi-minh/chan-ga-rut-xuong-ngam-sa-tac/binh-luan,Chân Gà Ngon Số 1 - Chân Gà Rút Xương Ngâm Sả Tắc,"156/74 Phú Thọ Hoà, P. Phú Thọ Hòa",19,888905,2,7.528,265,0,42,244,7241,37,10.785014,106.632388
/ho-chi-minh/banh-takoyaki-nhat-ban-thoai-ngoc-hau/binh-luan,Bánh Takoyaki Nhật Bản - Thoại Ngọc Hầu,"26 Tân Thành, P. Hòa Thạnh",19,148786,2,7.536,247,0,70,237,22854,18,10.7870232,106.6391148999999
,Nhà Hàng Ẩm Thực 79,"286B Hoà Bình, Phường Hiệp Tân, Quận Tân Phú, Tp. Hồ Chí Minh",19,1124225,2,10.0,22,0,1,0,0,1,,
,Manson Park Food Garden,"Số 2 Đô Đốc Long, Tân Quý",19,1120474,2,10.0,9,0,1,1,0,0,,
,Sơn_Cháo Lươn Quảng Ngãi,"169 Bờ Bao Tân Thắngsơn Kỳ, Tân Phú, Thành Phố Hồ Chí Minh",19,1068542,2,9.4,1,0,1,1,0,0,,
,Cafe Kênh Tân Hoá,"80 Kênh Tân Hoá, Phú Trung",19,1127644,2,7.8,27,0,1,0,0,0,,
,"Quán Hội Bbq 8K - Chân Gà, Vú Heo Nướng ","49 Kênh Tân Hoá, Phường Tân Thới Hoà, Quận Tân Phú, Tp. Hồ Chí Minh",19,1140583,2,10.0,7,0,1,0,0,0,,
/ho-chi-minh/3-ngon-com-chay-cha-bong/binh-luan,3 Ngon - Cơm Cháy Chà Bông,"42/4/7 Đường Số 5, P. Phú Thọ Hòa",19,1018200,2,0.0,0,0,0,0,23,0,10.8038073,106.6031616
/ho-chi-minh/anh-minh-chao-long-binh-dan/binh-luan,Anh Minh - Cháo Lòng Bình Dân,231 Tân Kỳ Tân Quý,19,745696,2,0.0,6,0,0,0,29,0,10.790122,106.6028017
/ho-chi-minh/banh-da-ca-ro-dong-dac-san-thai-binh/binh-luan,Bánh Đa Cá Rô Đồng - Đặc Sản Thái Bình,"676 Lê Trọng Tấn, P.Tây Thạnh",19,648728,2,0.0,2,0,0,0,121,1,10.814732,106.60477
/ho-chi-minh/lo-quay-dac-ha/binh-luan,Lò quay Đắc Hà,"797 Tân Kỳ Tân Quý, P. Bình Hưng Hòa B",19,23794,2,0.0,0,1,0,1,711,1,10.791389,106.604877
/ho-chi-minh/mon-quang-di-bay-ii/binh-luan,Món Quảng Dì Bảy II,"019 Lô F Chung Cư Sơn Kỳ, P. Sơn Kỳ",19,752842,2,2.15,8,0,4,1,675,4,10.80858,106.60753
/ho-chi-minh/yaki-chang-dung-nuong-duong-cn1/binh-luan,Yaki - Chẳng Dừng Nướng - Đường CN1,60 Đường CN1,19,164606,2,6.53,309,0,28,5,11561,6,10.8081526,106.6075091
/ho-chi-minh/bingo-coffee/binh-luan,Bingo Coffee,"16 Lô F, Chung Cư Sơn Kỳ, Đường DC9, P. Sơn Kỳ",19,799752,2,0.0,1,0,0,0,31,0,10.808162,106.607637
/ho-chi-minh/tra-sua-may-cha-38-trinh-dinh-trong/binh-luan,Trà Sữa Maycha - 38 Trịnh Đình Trọng,"38 Trịnh Đình Trọng, P. Phú Trung",19,739438,2,7.094,320,0,132,94,15880,153,10.775344,106.64628
/ho-chi-minh/phuc-long-hoa-binh/binh-luan,Phúc Long Hoà Bình,"296 Hòa Bình, P. Hiệp Tân",19,1044125,2,6.24,105,0,5,3,699,2,10.772856,106.624548
/ho-chi-minh/com-ga-xoi-mo-142-luy-ban-bich/binh-luan,Cơm Gà Xối Mỡ 142 - Lũy Bán Bích,"632 Lũy Bán Bích, P. Tân Thành",19,1061350,2,5.598,7,4,6,10,927,0,10.7881724,106.6371205
/ho-chi-minh/quan-cua-lam-food-dink/binh-luan,Quán Của Lâm - Food & Drink,"341/19/129 Khuông Việt, P. Phú Trung",19,771534,2,6.8,72,0,14,5,991,0,10.7730971,106.6383599
/ho-chi-minh/huong-ky-10-com-chien-18-mon/binh-luan,Hương Ký 10 - Cơm Chiên 18 Món,"71 Vườn Lài, P. Phú Thọ Hoà",19,1078973,2,0.0,0,3,0,1,98,0,10.787551,106.633891
/ho-chi-minh/tra-sua-bong-tra/binh-luan,Trà Sữa Bông Trà - Thạch Lam,"177 Thạch Lam, P. Phú Thạnh",19,650679,2,7.848,120,0,13,10,1380,8,10.777853,106.628148
/ho-chi-minh/thanh-dat-hu-tieu-nam-vang-au-co/binh-luan,Thành Đạt - Hủ Tiếu Nam Vang - Âu Cơ,"609 Âu Cơ, P. Phú Trung",19,670980,2,6.74,89,0,20,26,2485,3,10.782289,106.642752
/ho-chi-minh/mcdonald-s-au-co/binh-luan,McDonald’s Au Co,"683 Âu Cơ, P. Tân Thành",19,647143,2,6.992,298,0,25,38,3336,0,10.788649,106.6405721
/ho-chi-minh/ga-ran-popeyes-go-dau/binh-luan,Gà Rán Popeyes - Gò Dầu,"33 Gò Dầu, P. Tân Sơn Nhì",19,996305,2,7.604,101,1,8,2,445,1,10.795755,106.627827
/ho-chi-minh/moc-banh-trang-muoi-nhuyen-luong-the-vinh/binh-luan,Mộc - Bánh Tráng Muối Nhuyễn - Lương Thế Vinh,"141D Lương Thế Vinh, P. Tân Thới Hòa",19,878868,2,5.018,54,0,11,19,2014,0,10.761534,106.628856
/ho-chi-minh/banh-canh-cua-260-tan-son-nhi/binh-luan,Bánh Canh Cua 260,"260 Tân Sơn Nhì, P. Tân Sơn Nhì",19,715416,2,4.028,16,0,7,3,2096,3,10.7974067,106.6309736
/ho-chi-minh/biscotti-banh-hat-dinh-duong/binh-luan,Biscotti - Bánh Hạt Dinh Dưỡng - Phú Thọ Hòa,"156/74 Phú Thọ Hòa, P. Phú Thọ Hòa",19,1051428,2,9.984,10,0,660,37,1645,30,10.785014,106.632388
/ho-chi-minh/yaki-chang-dung-nuong-tan-son-nhi/binh-luan,Yaki - Chẳng Dừng Nướng - Tân Sơn Nhì,375 Tân Sơn Nhì,19,109918,2,6.384,213,0,51,35,21956,5,10.7940982,106.6288697
/ho-chi-minh/gyu-kaku-japanese-bbq-aeon-mall-tan-phu/binh-luan,Gyu-Kaku Japanese BBQ - Aeon Mall Tân Phú,"RF-26 Aeon Mall Tân Phú, 30 Bờ Bao Tân Thắng, P. Sơn Kỳ",19,959293,2,8.676,40,0,8,5,1283,0,10.801602,106.617807
/ho-chi-minh/lau-ga-ot-hiem-109-tan-son-nhi/binh-luan,Lẩu Gà Ớt Hiểm 109 - Tân Sơn Nhì,"340 Tân Sơn Nhì, P. Tân Sơn Nhì",19,667411,2,6.378,76,0,40,33,8128,8,10.796605,106.630416
/ho-chi-minh/conafood-bo-hau-sot-cay/binh-luan,Conafood - Bò Hàu Sốt Cay,"48 Lê Thúc Hoạch, P. Phú Thọ Hòa",19,1041787,2,8.416,28,0,14,19,847,2,10.7873843,106.6237033
/ho-chi-minh/chao-suon-chu-chen-tan-son-nhi/binh-luan,Cháo Sườn Chú Chen - Tân Sơn Nhì,"111 Tân Sơn Nhì, P. Tân Sơn Nhì",19,1014875,2,8.216,26,0,11,10,740,1,10.801551,106.633632
/ho-chi-minh/caribou-coffee-celadon-city/binh-luan,Caribou Coffee - Celadon City,"D0.01 - D0.02 Celadon City, 38 Tân Thắng, P. Sơn Kỳ",19,925931,2,8.658,75,0,7,8,902,2,10.7993829,106.6128614
/ho-chi-minh/ga-ta-ngon-so-1/binh-luan,"Gà Ta Ngon Số 1 - Cơm Gà, Cháo Gà & Gỏi Gà - Trương Vĩnh Ký","231 Trương Vĩnh Ký, P. Tân Thành",19,300262,2,6.386,69,0,17,10,1873,5,10.794316,106.6304428
/ho-chi-minh/ti-te-quan-lau-nuong/binh-luan,Tỉ Tê Quán - Lẩu & Nướng,"632 Lũy Bán Bích, P. Tân Thành",19,910316,2,8.6,10,2,3,1,415,0,10.788199,106.637123
/ho-chi-minh/quan-tom-cang-song/binh-luan,Quán Tôm Càng Sông - Thạch Lam,14 Thạch Lam,19,275274,2,7.332,85,0,9,18,8260,2,10.776223,106.633224
/ho-chi-minh/de-lima-celadon-tan-phu/binh-luan,De Lima - Celadon Tân Phú," 2 Đường D2, P. Sơn Kỳ",19,953074,2,8.1,66,0,4,4,383,0,10.805525,106.619262
/ho-chi-minh/am-thuc-co-do/binh-luan,Ẩm Thực Cố Đô,"39 Tân Hương, P. Tân Quý",19,800022,2,8.4,10,0,1,0,258,0,10.790471,106.628814
/ho-chi-minh/uraetei-pho-dinh-aeon-mall/binh-luan,Uraetei BBQ - Phổ Đình - AEON Mall,"Tầng 1 AEON Mall, 30 Bờ Bao Tân Thắng, P. Sơn Kỳ",19,46900,2,7.506,967,0,107,49,22239,33,10.800903,106.617905
/ho-chi-minh/pizza-hut-pandora-city/binh-luan,Pizza Hut - Pandora City,"Tầng 4 Pandora City, 1/1 Trường Chinh, P. Tây Thạnh",19,20180,2,7.27,596,0,102,28,11961,38,10.8064,106.634833
/ho-chi-minh/an-vat-me-thoc-ga-u-muoi-an-vat/binh-luan,Ăn Vặt Mẹ Thóc - Gà Ủ Muối & Ăn Vặt,"32/53/58 Huỳnh Văn Chính, P. Phú Trung",19,1150252,2,0.0,0,0,0,0,2,0,10.782111,106.640188
/ho-chi-minh/com-chay-dieu-vy-bui-xuan-phai/binh-luan,Cơm Chay Diệu Vy - Bùi Xuân Phái,"25B Bùi Xuân Phái, P. Tây Thạnh",19,1047528,2,3.65,7,0,4,0,275,0,10.80753,106.62828
/ho-chi-minh/mi-cay-shin-bui-xuan-phai/binh-luan,Mì Cay Shin - Bùi Xuân Phái,"11B Bùi Xuân Phái, P. Tây Thạnh",19,1140784,2,0.0,0,0,0,0,27,0,10.8071525,106.628377
/ho-chi-minh/thang-dau-banh-mi-chao-bo-ne-duong-s4/binh-luan,Thằng Đậu - Bánh Mì Chảo & Bò Né - Đường S4,"6 Đường S4, P. Tây Thạnh",19,1000049708,2,0.0,0,0,0,0,29,0,10.8121639,106.6192627
/ho-chi-minh/com-chay-minh-hoang/binh-luan,Cơm Chay Minh Hoàng,"367 Thạch Lam, P. Phú Thạnh",19,714110,2,8.5,26,0,4,13,795,0,10.779646,106.620912
/ho-chi-minh/hong-tra-ngo-gia-trinh-dinh-trong/binh-luan,Hồng Trà Ngô Gia - Trịnh Đình Trọng,"54 Trịnh Đình Trọng, P. Phú Trung",19,1037469,2,8.3,1,1,2,2,158,0,10.7755358,106.6459503
/ho-chi-minh/the-pizza-company-nguyen-son/binh-luan,The Pizza Company - Nguyễn Sơn,"303F Nguyễn Sơn, P. Phú Thạnh",19,280407,2,7.29,40,0,13,4,2427,7,10.7839037,106.6228618
/ho-chi-minh/rau-nam-deli-manmuro-cau-chu-nho-rau-cu-nam-chien-gion-nguyen-son/binh-luan,Rau Nấm Deli Manmuro Cậu Chủ Nhỏ - Rau Củ & Nấm Chiên Giòn - Nguyễn Sơn,"31 Nguyễn Sơn, P. Phú Thạnh",19,1146983,2,0.0,0,0,0,0,1,0,10.7809469,106.6324392
/ho-chi-minh/nijyu-maru-aeon-mall/binh-luan,Nijyu Maru - AEON Mall Tân Phú,"Tầng 1 AEON Mall Tân Phú, 30 Bờ Bao Tân Thắng, P. Sơn Kỳ",19,47105,2,6.25,596,0,83,27,15480,20,10.801749,106.618012
/ho-chi-minh/mr-teh-tra-sua-malaysia-nguyen-son/binh-luan,Mr. Teh - Trà Sữa Malaysia - Nguyễn Sơn,"386 Đường Nguyễn Sơn, P. Phú Thọ Hòa",19,1118734,2,0.0,0,0,0,0,28,0,10.7844778,106.621647
/ho-chi-minh/mien-tay-quan-quan-nhau-binh-dan/binh-luan,Miền Tây Quán - Quán Nhậu Bình Dân,Kênh Tân Hóa,19,253678,2,6.6,0,0,1,0,514,1,10.7750835585539,106.6377790644764
/ho-chi-minh/yaki-chang-dung-nuong-che-lan-vien/binh-luan,Yaki - Chẳng Dừng Nướng - Chế Lan Viên,"18 Chế Lan Viên, P. Tây Thạnh",19,34614,2,6.41,245,0,38,44,34361,10,10.8125567,106.6318819
/ho-chi-minh/com-chay-co-chu-nho/binh-luan,Cơm Chay Cô Chủ Nhỏ,"47 Sơn Kỳ, P. Sơn Kỳ",19,730888,2,0.0,7,6,0,1,128,0,10.805386,106.627614
/ho-chi-minh/quan-com-chay-huu-duyen-com-chay-pho-chay-hu-tieu-chay-le-lang.eamv06/binh-luan,"Quán Cơm Chay Hữu Duyên - Cơm Chay, Phở Chay & Hủ Tiếu Chay - Lê Lăng","4 Lê Lăng, P. Phú Thọ Hòa",19,1000025900,2,0.0,0,0,0,0,53,0,10.7842753,106.6241689
/ho-chi-minh/ni-map-com-tam-com-van-phong-au-co/binh-luan,Ni Mập - Cơm Tấm & Cơm Văn Phòng - Âu Cơ,"805 Âu Cơ, P. Tân Thành",19,1137282,2,0.0,0,0,0,0,22,0,10.7944048,106.6385833
/ho-chi-minh/banh-hoi-322b-banh-mi-banh-hoi-doc-lap.huiu3x/binh-luan,Bánh Hỏi 322B - Bánh Mì Bánh Hỏi - Độc Lập,"322B Độc Lập, P. Tân Quý",19,1000048243,2,0.0,0,0,0,0,12,0,10.7934624,106.6262148
/ho-chi-minh/quan-pho-hung-cuong-hoa-binh/binh-luan,Quán Phở Hùng Cường - Hoà Bình,"79 Hoà Bình, P. Tân Thới Hoà",19,1123208,2,8.4,0,0,1,0,35,0,10.7699659,106.6322676
/ho-chi-minh/bun-bo-cau-hai-tan-son-nhi/binh-luan,Bún Bò Cậu Hai - Tân Sơn Nhì,"303 Tân Sơn Nhì, P. Tân Sơn Nhì",19,1129660,2,0.0,0,1,0,1,50,0,10.7966625,106.6307538
/ho-chi-minh/miko-coffee-tan-thanh/binh-luan,Miko Coffee - Tân Thành,"40 Tân Thành, P. Tân Thành",19,1150893,2,0.0,0,0,0,0,5,0,10.7871648,106.6393056
/ho-chi-minh/tra-sua-laxy-go-dau/binh-luan,Trà Sữa Laxy - Gò Dầu,"79B Gò Dầu, P. Tân Quý",19,1150415,2,0.0,0,0,0,0,4,0,10.7958541323133,106.6261144687516
/ho-chi-minh/tra-sua-nong-110d-tan-quy/binh-luan,Trà Sữa Nọng - 110D Tân Quý,"110D Đường Tân Quý , P. Tân Quý",19,1147971,2,0.0,0,0,0,0,4,0,10.7937876,106.6203401
/ho-chi-minh/banh-kep-que-hoan-my-kem-hu-tra-sua-kenh-ten-hoa/binh-luan,Bánh Kẹp Quế Hoàn Mỹ - Kem Hủ & Trà Sữa - Kênh Tên Hóa,"160B Kênh Tân Hoá, P. Phú Trung",19,1149813,2,0.0,0,0,0,0,5,0,10.7794016,106.6404788
/ho-chi-minh/nem-nuong-bo-nuong-nam-an-truong-vinh-ky/binh-luan,Nem Nướng Bò Nướng Nam An - Trương Vĩnh Ký,"105 Trương Vĩnh Ký, P. Tân Thành",19,1147551,2,0.0,0,0,0,0,1,0,10.7935722,106.6346686
/ho-chi-minh/banh-canh-suon-chia-hoang-vu/binh-luan,Bánh Canh Sườn Chìa - Hoàng Vũ,"438 Tân Sơn Nhì, P. Tân Quý",19,1147160,2,0.0,0,3,0,0,9,0,10.7941297,106.6287786
/ho-chi-minh/nuoc-mia-mix-hoa-binh/binh-luan,Nước Mía Mix - Hòa Bình,"110 Hòa Bình, P. Hòa Thạnh",19,1145420,2,0.0,0,0,0,0,1,0,10.769589,106.635264
/ho-chi-minh/9d-coffee-diep-minh-chau/binh-luan,9D COFFEE - Diệp Minh Châu,"46 Diệp Minh Châu, P. Tân Sơn Nhì",19,1145241,2,0.0,0,0,0,0,7,0,10.797852,106.632891
/ho-chi-minh/co-ba-che-com-tam-long-xuyen-go-dau/binh-luan,Cô Ba Chề - Cơm Tấm Long Xuyên - Gò Dầu,"192 Gò Dầu, P. Tân Quý",19,1139893,2,0.0,0,0,0,0,13,0,10.7961608,106.6212978
/ho-chi-minh/gimji-quan-an-han-quoc-korean-fast-food-pham-van-xao/binh-luan,Gimji Quán Ăn Hàn Quốc - Korean Fast Food - Phạm Văn Xảo,"40A Phạm Văn Xảo, P. Phú Thọ Hòa",19,1138491,2,0.0,0,0,0,0,60,0,10.7874858,106.6237298
/ho-chi-minh/tra-sua-tiger-sugar-delivery-duong-nau-sua-dai-loan-nguyen-son/binh-luan,Trà Sữa Tiger Sugar Delivery - Đường Nâu Sữa Đài Loan - Nguyễn Sơn,"37 Nguyễn Sơn, P. Phú Thạnh",19,983103,2,7.754,5,0,8,4,644,1,10.781103,106.632258
/ho-chi-minh/cong-rau-ma-nguyen-son/binh-luan,Cộng Rau Má - Nguyễn Sơn,"37 Nguyễn Sơn, P. Phú Thạnh",19,1011292,2,7.48,42,0,5,3,336,0,10.781103,106.632265
/ho-chi-minh/quan-com-viet-nam-ho-dac-di/binh-luan,Quán Cơm Việt Nam - Hồ Đắc Di,"16 Hồ Đắc Di, P. Tây Thạnh",19,913579,2,8.4,2,0,1,1,696,2,10.805795,106.632932
/ho-chi-minh/green-family-sinh-to-nuoc-ep/binh-luan,Green Family - Sinh Tố & Nước Ép,"11 Tân Quý, P. Tân Quý",19,988046,2,9.136,23,0,3,4,487,2,10.7987215,106.6196139
/ho-chi-minh/sup-cua-xuan-lan-cau-xeo/binh-luan,Súp Cua Xuân Lan - Cầu Xéo,"38 Cầu Xéo, P. Tân Quý",19,975087,2,7.85,3,0,4,3,396,0,10.798535,106.623798
/ho-chi-minh/hot-dog-han-quoc-le-thuc-hoach/binh-luan,Hot Dog Phô Mai Hàn Quốc - Lê Thúc Hoạch,"39 Lê Thúc Hoạch, P. Phú Thọ Hòa",19,940410,2,7.4,36,17,9,30,1651,1,10.7869138,106.6252347
/ho-chi-minh/an-vat-ngoc-nga/binh-luan,Ăn Vặt Ngọc Nga,108A Trần Quang Quá,19,916213,2,8.332,104,0,27,14,726,5,10.773592,106.630547
/ho-chi-minh/popeyes-luy-ban-bich/binh-luan,Gà Rán Popeyes - Lũy Bán Bích,"661 Lũy Bán Bích, P. Hòa Thạnh",19,105275,2,6.188,452,0,118,66,10264,20,10.7805169,106.6358001
/ho-chi-minh/doraemon-tofu-factory-aeon-mall/binh-luan,Doraemon Tofu Factory - AEON Mall,"Tầng Trệt AEON Mall, 30 Bờ Bao Tân Thắng, P. Sơn Kỳ",19,47131,2,7.14,511,0,109,109,28103,34,10.802165,106.618242
/ho-chi-minh/starbucks-coffee-pandora-city/binh-luan,Starbucks Coffee - Pandora City,"Tầng Trệt Pandora City, 1/1 Trường Chinh, P. Tây Thạnh",19,84542,2,7.908,520,0,69,52,12454,34,10.806451,106.634616
/ho-chi-minh/yaki-chang-dung-nuong-bo-bao-tan-thang/binh-luan,Yaki - Chẳng Dừng Nướng - Bờ Bao Tân Thắng,"129 Bờ Bao Tân Thắng, P. Sơn Kỳ ",19,87143,2,6.802,150,0,22,19,45811,7,10.800211,106.616985
/ho-chi-minh/tau-hu-anh-lun-singapore/binh-luan,Tàu Hũ Anh Lùn Singapore,"55/22 Nguyễn Thế Truyện, P. Tân Sơn Nhì",19,73482,2,7.384,92,0,12,50,45067,7,10.7961059,106.6322413
/ho-chi-minh/world-coffee/binh-luan,World Coffee,691 Lũy Bán Bích,19,166020,2,7.006,269,0,52,54,44897,18,10.781547,106.635876
/ho-chi-minh/yang-coffee-hoa-binh/binh-luan,Yang Coffee - Hòa Bình,"Tầng 1 - 2, 126 Hòa Bình",19,182040,2,7.698,277,0,35,36,44397,21,10.7700919943275,106.6328220069408
/ho-chi-minh/nem-nuong-da-lat-co-ut/binh-luan,Nem Nướng Đà Lạt Cô Út,"42 Hoàng Văn Hòe, P. Tân Quý",19,226639,2,8.0,122,0,47,147,43704,17,10.794339,106.619608
/ho-chi-minh/mini-bangkok-food-online-giao-hang-tan-noi/binh-luan,Mini Bangkok Food Online - Giao Hàng Tận Nơi,"43A Nguyễn Ngọc Nhựt, P. Tân Quý",19,178283,2,7.536,88,0,9,50,42992,5,10.790155,106.625303
/ho-chi-minh/qgateaux-tiem-banh-online/binh-luan,QGateaux - Tiệm Bánh Online,"49/40/43 Trịnh Đình Trọng, P. Phú Trung",19,126916,2,7.62,124,0,10,41,42084,7,10.774029,106.640901
/ho-chi-minh/mr-mon-coffee-candy-shop-thong-nhat/binh-luan,Mr. Mon Coffee & Candy Shop - Thống Nhất,"7 Thống Nhất, P. Tân Thành",19,107264,2,8.03,47,0,7,25,41954,7,10.790703,106.634849
/ho-chi-minh/hi-end-coffee-tan-son-nhi/binh-luan,Hi End Coffee - Tân Sơn Nhì,"456A Tân Sơn Nhì, P. Tân Quý",19,208781,2,7.4,100,0,3,12,40660,2,10.7935902,106.628376
/ho-chi-minh/lu-cafe-pham-van-xao/binh-luan,LU Cafe - Phạm Văn Xảo,83C Phạm Văn Xảo,19,168585,2,8.4,15,0,2,9,39818,5,10.7884873,106.6238794999999
/ho-chi-minh/chao-ech-cay-cay-2/binh-luan,Cháo Ếch Cay Cay 2,"314 Tân Sơn Nhì, P. Tân Sơn Nhì",19,118499,2,7.414,83,0,13,15,39785,6,10.7967807,106.630559
/ho-chi-minh/3te-coffee-hoa-binh/binh-luan,3Tê Coffee - Hòa Bình,"103 Hòa Bình, P. Hiệp Tân",19,149325,2,8.0,128,0,10,21,39753,6,10.770259,106.631335
/ho-chi-minh/tra-sua-lac-hong-hoa-binh/binh-luan,Trà Sữa Lạc Hồng - Hòa Bình,"175 Hòa Bình, P. Hiệp Tân",19,1151335,2,0.0,0,0,0,0,2,0,10.771096,106.629352
/ho-chi-minh/bo-ne-17-duong-so-27/binh-luan,Bò Né 17 - Đường Số 27,"17 Đường Số 27, P. Sơn Kỳ",19,1151329,2,0.0,0,0,0,0,1,0,10.803709,106.628918
/ho-chi-minh/ba-ngoai-food-nui-mi-xao-bo/binh-luan,Bà Ngoại Food - Nui & Mì Xào Bò,"229/56/27 Tây Thạnh, P. Tây Thạnh",19,1000058305,2,0.0,0,0,0,0,3,0,10.8099969,106.620002
/ho-chi-minh/sinh-to-nuoc-ep-86-le-nga/binh-luan,Sinh Tố & Nước Ép 86 - Lê Ngã,"29 Lê Ngã, P. Phú Trung",19,1000058287,2,0.0,0,0,0,0,2,0,10.7781078,106.6430816
/ho-chi-minh/coffee-luna-bo-bao-tan-thang/binh-luan,Coffee Luna - Bờ Bao Tân Thắng ,"A128 Chung Cư Ruby, 36 Bờ Bao Tân Thắng, P. Sơn kỳ",19,1151017,2,0.0,0,0,0,0,1,0,10.800841,106.611314
/ho-chi-minh/enjoy-your-life-sinh-to-nuoc-ep-trai-cay/binh-luan,Enjoy Your Life - Sinh Tố & Nước Ép Trái Cây,"76/22 Nguyễn Sơn, P. Phú Thọ Hòa",19,1150993,2,0.0,0,0,0,0,1,0,10.7822434,106.6316139
/ho-chi-minh/cho-cu-chillbeer-tom-sexy-goi-cho-cu-duong-van-duong/binh-luan,Chỗ Cũ ChillBeer - Tôm Sexy & Gỏi Chỗ Cũ - Dương Văn Dương,"2 Dương Văn Dương, P. Sơn Kỳ",19,1150982,2,0.0,0,0,0,0,2,0,10.7984408,106.6168036
/ho-chi-minh/jura-cafe-tra-luy-ban-bich/binh-luan,Jura Cafe - Trà - Lũy Bán Bích,"284 Lũy Bán Bích, P. Hòa Thạnh",19,1150873,2,0.0,0,0,0,0,5,0,10.7731013,106.6326073
/ho-chi-minh/quan-anh-ba-mi-quang-bun-gio-heo-kenh-tan-hoa/binh-luan,Quán Anh Ba - Mì Quảng & Bún Giò Heo - Kênh Tân Hoá,"469 Kênh Tân Hoá, P. Hòa Thạnh",19,1150845,2,0.0,0,0,0,0,2,0,10.7813416998302,106.6404750551701
/ho-chi-minh/tra-sua-tada-truong-vinh-ky/binh-luan,Trà Sữa TADA - Trương Vĩnh Ký,"202 Trương Vĩnh Ký, P. Tân Sơn Nhì",19,1150818,2,0.0,0,0,0,0,3,0,10.7945055,106.6312453
/ho-chi-minh/banh-canh-cua-hue-vuon-lai/binh-luan,Bánh Canh Cua Huế - Vườn Lài,"170/61B Vườn Lài, Phường Phú Thọ Hòa",19,1150796,2,0.0,0,0,0,0,1,0,10.7900165,106.6283637
/ho-chi-minh/lau-ga-noi-lau-bo-246/binh-luan,Lẩu Gà Nòi & Lẩu Bò 246,"232 Tô Hiệu, P. Hiệp Tân",19,973310,2,10.0,2,0,2,1,226,1,10.774878,106.628085
/ho-chi-minh/chao-long-116/binh-luan,Cháo Lòng 116,"28 Nguyễn Hữu Tiến, P. Tây Thạnh",19,979705,2,10.0,1,3,1,10,249,3,10.809159,106.625887
/ho-chi-minh/quan-182-bun-bo-bun-thit-nuong/binh-luan,Quán 182 - Bún Bò & Bún Thịt Nướng,"182 Trịnh Đình Trọng, P. Phú Trung",19,1042634,2,10.0,0,0,4,0,129,3,10.7758274,106.642584
/ho-chi-minh/ha-phan-shop-trai-cay-nuoc-ep-shop-online/binh-luan,PHAN - Nước Ép Trái Cây Nhập Khẩu & Bữa Ăn Dưỡng Sinh,"196 - 198 Thạch Lam, P. Phú Thạnh",19,743983,2,10.0,14,0,1,2,308,1,10.778281,106.627189
/ho-chi-minh/hu-tiu-long-hoa/binh-luan,Long Hoa - Hủ Tiếu Mì,"280 Lũy Bán Bích, P. Hoà Thanh",19,937943,2,10.0,3,1,1,4,328,2,10.7731414,106.6323864
/ho-chi-minh/nam-viet-xoi-xeo-bap-la-chuoi-149-bo-bao-tan-thang/binh-luan,Nam Việt - Xôi Xéo & Bắp Lá Chuối - 149 Bờ Bao Tân Thắng,"149 Bờ Bao Tân Thắng, P. Sơn Kỳ",19,1048593,2,10.0,1,0,2,2,33,1,10.7987847,106.6153741
/ho-chi-minh/oc-lau-ca-duoi-y-nhi-oc-lau-luy-ban-bich.syu5qw/binh-luan,ỐC & LẨU CÁ ĐUỐI Ý NHI - Ốc & Lẩu - Lũy Bán Bích,"29 Lũy Bán Bích, P. Tân Thới Hòa",19,1000049298,2,10.0,0,0,4,0,59,2,10.7597466,106.6327979
/ho-chi-minh/f-fresh-sinh-to-nuoc-ep-banh-trang-tron/binh-luan,"F-Fresh - Sinh Tố, Nước Ép & Bánh Tráng Trộn","9 Tô Hiệu, P. Tân Thới Hòa",19,910055,2,10.0,12,1,1,1,162,3,10.7639586,106.6269865
/ho-chi-minh/bun-dau-3-chi-em-197-le-trong-tan/binh-luan,Bún Đậu 3 Chị Em - 197 Lê Trọng Tấn,"197 Lê Trọng Tấn, P. Sơn Kỳ",19,956738,2,10.0,7,0,1,1,279,2,10.8066522,106.6249652999999
/ho-chi-minh/banh-cuon-gia-yen/binh-luan,Bánh Cuốn Gia Yến,"31 Hoàng Thiều Hoa, P. Hiệp Tân",19,1018215,2,10.0,5,0,1,1,97,2,10.773982,106.628912
/ho-chi-minh/sua-chua-tran-chau-houjicha-van-cao/binh-luan,Sữa Chua Trân Châu Houjicha - Văn Cao,"1A2 Văn Cao, P. Phú Thạnh",19,1054674,2,10.0,18,2,1,0,78,6,10.782516,106.620741
/ho-chi-minh/cay-bang-quan-coffee-tea-bui-cam-ho/binh-luan,Cây Bàng Quán - Coffee & Tea - Bùi Cẩm Hổ,"25/22 Bùi Cẩm Hổ, P. Tân Thới Hòa",19,1034188,2,10.0,3,0,2,0,44,1,10.766622,106.63507
/ho-chi-minh/thien-bao-com-trua-bun-mam-chao-long/binh-luan,"Thiên Bảo - Cơm Trưa, Bún Mắm & Cháo Lòng","243 Khuông Việt, P. Phú Trung",19,1019242,2,9.392,102,5,145,58,1270,12,10.773409,106.63774
/ho-chi-minh/mr-nhoi-heo-quay-tay-bac-tan-ky-tan-quy/binh-luan,Mr Nhoi - Heo Quay Tây Bắc - Tân Kỳ Tân Quý,"161 Tân Kỳ Tân Quý, P. Tân Sơn Nhì",19,1055906,2,9.272,0,0,142,173,751,9,10.8032893,106.631708
/ho-chi-minh/com-tam-mommy/binh-luan,Cơm Tấm Mommy - Tân Hương,"118 Tân Hương, P. Tân Quý",19,739877,2,5.518,291,0,111,26,4387,9,10.7895719,106.626545
/ho-chi-minh/sasin-mi-cay-7-cap-do-han-quoc-105-bo-bao-tan-thang/binh-luan,Sasin - Mì Cay 7 Cấp Độ Hàn Quốc - 105 Bờ Bao Tân Thắng,"105 Bờ Bao Tân Thắng, P. Sơn Kỳ",19,229222,2,5.462,551,0,104,69,32049,24,10.800882,106.618044
/ho-chi-minh/banh-trang-nuong-le-la/binh-luan,Bánh Tráng Nướng Lê La,"50/11/3 Tây Thạnh, P. Tây Thạnh",19,69647,2,6.94,322,0,46,192,37440,26,10.8151517,106.623465
/ho-chi-minh/katy-an-vat-sach-ngon-sai-gon/binh-luan,Katy - Ăn Vặt Sạch Ngon Sài Gòn,"27 Lê Cao Lãng, P. Phú Thạnh",19,90463,2,7.914,323,0,56,168,11438,32,10.7789268,106.6276771
/ho-chi-minh/tao-ngo-lau-ga-la-e/binh-luan,Tao Ngộ - Lẩu Gà Lá É,"79A,B Trần Quang Cơ, P. Phú Thạnh",19,668495,2,7.262,240,0,45,146,24944,7,10.7777728,106.6251737
/ho-chi-minh/the-kor-korea-fastfood/binh-luan,The Kor Korea Fastfood,"A1.18 Chung Cư Ruby Celadon , P. Sơn Kỳ",19,296228,2,6.868,219,0,70,140,8439,11,10.8008003,106.6136762
/ho-chi-minh/co-ba-banh-beo/binh-luan,Cô Ba - Bánh Bèo,"130 Kênh Tân Hoá, P. Phú Trung",19,293247,2,7.17,63,0,13,140,5193,3,10.7781198,106.639826
/ho-chi-minh/goc-chill-coffee-ca-phe-cn1.n2hynm/binh-luan,Góc Chill Coffee - Cà Phê - CN1,"108 Đường CN1, P. Sơn Kỳ",19,1000024282,2,0.0,0,0,0,0,15,0,10.8074466,106.6076421
/ho-chi-minh/quynh-linh-food-mon-ngon-tu-buoi-le-trong-tan-shop-online/binh-luan,Quỳnh Linh Food - Món Ngon Từ Bưởi - Lê Trọng Tấn - Shop Online," 555 Lê Trọng Tấn, P. Sơn Kỳ",19,1114765,2,0.0,0,0,0,0,6,0,10.8126481916128,106.6079485684518
/ho-chi-minh/sorella-milktea-tra-sua-duong-cn1/binh-luan,Sorella Milktea - Trà Sữa - Đường CN1,"136 Đường CN1, P. Sơn Kỳ",19,1000053412,2,0.0,0,0,0,0,16,0,10.8123254,106.6079344
/ho-chi-minh/o-nguyet-banh-canh-ca-loc/binh-luan,O Nguyệt - Bánh Canh Cá Lóc,"004 Lô E Chung Cư Sơn Kỳ, P. Sơn Kỳ",19,752979,2,0.0,5,0,0,0,74,0,10.810061,106.6078255
/ho-chi-minh/aroma-drinks-com-van-phong-le-trong-tan/binh-luan,Aroma Drinks & Cơm Văn Phòng - Lê Trọng Tấn,"555 Lê Trọng Tấn, P. Sơn Kỳ",19,1039421,2,0.0,0,0,0,0,32,0,10.812717,106.608002
/ho-chi-minh/milano-coffee-duong-cn6/binh-luan,Milano Coffee - Đường CN6,"1 Đường CN6, P. Sơn Kỳ",19,635822,2,0.0,2,4,0,1,72,0,10.8107125,106.6078895
/ho-chi-minh/coffee-sao-truc-son-ky/binh-luan,Coffee Sáo Trúc - Sơn Kỳ,"C001 Lô C, Chung Cư Sơn Kỳ, P. Sơn Kỳ, Tân Phú",19,1136912,2,0.0,0,0,0,0,4,0,10.8100048,106.6078574
/ho-chi-minh/narita-coffee/binh-luan,Narita Coffee,"E039 Chung Cư Sơn Kỳ, Đường CC5, P. Sơn Kỳ",19,635815,2,0.0,2,0,0,0,22,0,10.808488,106.60779
/ho-chi-minh/hoang-ha-pho-bo-bun-ca-ro-dong/binh-luan,Hoàng Hà - Phở Bò & Bún Cá Rô Đồng,"108 Đường CN 1, P. Sơn Kỳ",19,952365,2,0.0,1,1,0,0,69,0,10.80726,106.607763
/ho-chi-minh/son-ky-chao-luon-mien-luon/binh-luan,Sơn Kỳ - Cháo Lươn & Miến Lươn,"8 Lô F, Chung Cư Sơn Kỳ, Đường DC9, P. Sơn Kỳ",19,799758,2,0.0,1,0,0,0,96,0,10.8084345,106.607854
/ho-chi-minh/tavytavy-tea-milk-tea-rau-ma/binh-luan,"Tavytavy - Tea, Milk Tea & Rau Má","22 Đường DC9, P. Sơn Kỳ",19,989575,2,0.0,0,0,0,0,55,1,10.808239,106.607874
/ho-chi-minh/bui-coffee-tea-cn1/binh-luan,Bụi Coffee & Tea - CN1,"106A CN1, P. Sơn Kỳ",19,1147034,2,0.0,0,0,0,0,1,0,10.807212,106.607817
/ho-chi-minh/co-may-com-van-phong-bun-cha-ca/binh-luan,Cỏ Mây - Cơm Văn Phòng & Bún Chả Cá,"258/1 Vườn Lài, P. Phú Thọ Hòa",19,1058195,2,0.0,0,4,0,1,134,0,10.788178,106.626093
/ho-chi-minh/highlands-coffee-thach-lam/binh-luan,Highlands Coffee - Thạch Lam,"180 Thạch Lam, P. Phú Thạnh",19,783978,2,6.16,9,0,5,8,1010,2,10.778014,106.627527
/ho-chi-minh/banh-trang-tron-banh-trang-cuon-sai-gon-ngon/binh-luan,Bánh Tráng Trộn & Bánh Tráng Cuốn - Sài Gòn Ngon,"21 Nguyễn Hậu, P. Tân Thành",19,1081210,2,9.72,14,0,5,5,168,0,10.7944118,106.6358771
/ho-chi-minh/bun-thit-nuong-kieu-bao-le-trong-tan/binh-luan,Bún Thịt Nướng Kiều Bảo - Lê Trọng Tấn,"266 Lê Trọng Tấn, P. Tây Thạnh",19,670830,2,6.232,72,0,53,59,9948,4,10.807868,106.6218771
/ho-chi-minh/tre-tron-coc-giang-hoang-trinh-dinh-trong/binh-luan,Tré Trộn Cóc Giang Hoàng - Trịnh Đình Trọng,"121A Trịnh Đình Trọng, P. Phú Trung",19,1036756,2,9.2,0,10,1,4,286,2,10.7756282,106.6418524
/ho-chi-minh/com-tho-tien-phat-van-cao/binh-luan,Cơm Thố Tiến Phát - Văn Cao,"1R Văn Cao, P. Phú Thạnh",19,1141232,2,9.85,8,0,4,2,62,2,10.782107,106.620682
/ho-chi-minh/2-chi-em-com-ga-nha-trang-doc-lap/binh-luan,2 Chị Em - Cơm Gà Nha Trang - Độc Lập,"272 Độc Lập , P. Tân Thành",19,1073338,2,9.228,27,0,21,3,205,0,10.79316,106.62869
/ho-chi-minh/hong-tra-ngo-gia-hong-tra-tra-sua-thach-lam/binh-luan,Hồng Trà Ngô Gia - Hồng Trà & Trà Sữa - Thạch Lam,"59A Thạch Lam, P. Hiệp Tân",19,1110531,2,0.0,0,0,0,0,41,0,10.7765904,106.6314313
/ho-chi-minh/com-tam-phuc-loc-tho-vuon-lai/binh-luan,Cơm Tấm Phúc Lộc Thọ - Vườn Lài,"5 Vườn Lài, P. Phú Thọ Hòa",19,1040127,2,6.132,26,0,9,3,386,5,10.786586,106.636238
/ho-chi-minh/mi-tron-park-kim-thang-le-cao-lang/binh-luan,Mì Trộn Park Kim Thang - Lê Cao Lãng,"219A Lê Cao Lãng, P. Phú Thạnh",19,1047181,2,8.376,5,0,8,6,696,0,10.780968,106.621153
/ho-chi-minh/banh-canh-cua-loc-vung-tan-ky-tan-quy/binh-luan,Bánh Canh Cua Lộc Vừng - Tân Kỳ Tân Quý,"414/7 Tân Kỳ Tân Quý, P. Sơn Kỳ",19,1033873,2,6.3,5,1,2,1,328,0,10.799974,106.618174
/ho-chi-minh/tra-sua-sunday-basic-tan-quy/binh-luan,Trà Sữa Sunday Basic - Tân Quý,"9A Tân Quý, P. Tân Quý",19,1077412,2,0.0,0,3,0,2,236,0,10.7989706,106.6197228
/ho-chi-minh/sumo-bbq-tttm-dong-phuong-buffet-nuong-lau/binh-luan,Sumo BBQ - TTTM Đông Phương - Buffet Nướng & Lẩu,"TTTM Đông Phương, 685 Âu Cơ, P. Tân Thành",19,648915,2,8.696,432,0,99,9,8208,30,10.7897904,106.6402486
/ho-chi-minh/tra-sua-bobapop-aeon-mall-tan-phu/binh-luan,Trà Sữa Bobapop - AEON Mall Tân Phú,"Tầng 2, AEON Mall Tân Phú, 30 Bờ Bao Tân Thắng, P. Sơn Kỳ",19,226515,2,6.51,297,0,98,24,5171,23,10.801096,106.617687
/ho-chi-minh/tra-sua-365-le-trong-tan/binh-luan,Trà Sữa 365 - Lê Trọng Tấn,"278 Lê Trọng Tấn, P. Tây Thạnh",19,96321,2,6.314,163,0,59,101,23711,53,10.8073757,106.622786
/ho-chi-minh/melisa-center-trung-tam-tiec-cuoi-hoi-nghi/binh-luan,Melisa Center - Trung Tâm Tiệc Cưới Hội Nghị ,"85 Thoại Ngọc Hầu, P. Hòa Thạnh",19,86936,2,8.044,527,0,76,7,16222,2,10.7823494,106.636856
/ho-chi-minh/tra-sua-tien-huong-luy-ban-bich/binh-luan,Trà Sữa Tiên Hưởng - Lũy Bán Bích,"454 Luỹ Bán Bích, P. Hoà Thạnh",19,129522,2,6.846,430,0,53,45,10196,22,10.7860029,106.6368074
/ho-chi-minh/com-ga-xoi-mo-gia-bao-116-le-trong-tan/binh-luan,Cơm Gà Xối Mỡ Gia Bảo - 116 Lê Trọng Tấn,"114 - 116 Lê Trọng Tấn, P. Tây Thạnh",19,989558,2,9.0,0,0,1,0,107,0,10.8057531,106.6298585
/ho-chi-minh/a-xin-chan-ga-rut-xuong-ngam-sa-tac-go-dau-shop-online/binh-luan,A Xìn - Chân Gà Rút Xương Ngâm Sả Tắc - Gò Dầu - Shop Online,"234 Gò Dầu, P. Tân Quý",19,1039932,2,9.906,2,0,83,15,445,23,10.795919,106.618777
/ho-chi-minh/the-coffee-house-46-le-thiet/binh-luan,The Coffee House - 46 Lê Thiệt,"46 Lê Thiệt, P. Phú Thọ Hoà",19,1080490,2,6.4,4,0,1,0,120,0,10.7855751,106.6229368
/ho-chi-minh/mi-tron-ca-vien-chien-tra-sua-tea-bo-house/binh-luan,"Mì Trộn, Cá Viên Chiên & Trà Sữa - Tea Bo House","67/3 Lũy Bán Bích, P. Tân Thới Hòa",19,1000026215,2,0.0,0,0,0,0,28,0,10.7614765,106.6319406
/ho-chi-minh/bun-bo-hue-nhu-y-2-duong-duc-hien/binh-luan,Bún Bò Huế Như Ý 2 - Dương Đức Hiền,"36 Dương Đức Hiền, P. Tây Thạnh",19,804310,2,6.4,17,0,3,1,142,1,10.8081907,106.6272632
/ho-chi-minh/tiem-banh-mi-ha-noi-thanh-thuy-luy-ban-bich/binh-luan,Tiệm Bánh Mì Hà Nội Thanh Thuý - Lũy Bán Bích,"204 Lũy Bán Bích, P. Hoà Thạnh",19,1132299,2,0.0,0,0,0,0,21,0,10.7711167,106.6321222
/ho-chi-minh/rose-milk-tea-tra-sua-duong-t1.xzxb9o/binh-luan,Rose Milk Tea - Trà Sữa - Đường T1,"68 Đường T1, P. Tây Thạnh",19,1000040553,2,0.0,0,0,0,0,13,0,10.8098327,106.6159722
/ho-chi-minh/banh-mi-999-khuong-viet/binh-luan,Bánh Mì 999 - Khuông Việt,"176 Khuông Việt, P. Phú Trung",19,167431,2,5.32,18,0,5,10,2513,3,10.775774,106.63908
/ho-chi-minh/com-ga-xoi-mo-tu-kieu/binh-luan,Cơm Gà Xối Mỡ Tư Kiều,"271A Tân Kỳ Tân Quý, P. Tân Quý",19,261083,2,0.0,10,1,0,1,290,1,10.802524,106.62765
/ho-chi-minh/goc-an-vat-tran-phu-my-cay-com-le-thuc-hoach.0djrv7/binh-luan,Góc Ăn Vặt Trần Phú - Mỳ Cay & Cơm - Lê Thúc Hoạch,"53A Lê Thúc Hoạch, P. Phú Thọ Hòa",19,1000037865,2,0.0,0,0,0,0,45,0,10.786778,106.624352
/ho-chi-minh/tuyet-nhu-be-thui-hai-san/binh-luan,Tuyết Như - Bê Thui & Hải Sản,"7 Tân Thành, P.Hòa Thạnh",19,22420,2,6.564,37,0,11,19,10194,4,10.786845,106.64004
/ho-chi-minh/banh-bao-tho-phat-go-dau/binh-luan,Bánh Bao Thọ Phát - Gò Dầu,"59 Gò Dầu, P. Tân Quý",19,1073495,2,5.5,0,0,2,2,153,0,10.7958482,106.6271601
/ho-chi-minh/ha-cao-ong-hung-dimsum-homemade-tan-ky-tan-quy/binh-luan,Há Cảo Ông Hùng (Dimsum Homemade ) - Tân Kỳ Tân Quý,"93C Tân Kỳ Tân Quý, P. Tân Sơn Nhì",19,1084531,2,0.0,0,1,0,0,39,0,10.8035968,106.6336612
/ho-chi-minh/pho-bo-dan-phuong-trinh-dinh-trong/binh-luan,Phở Bò Đan Phượng - Trịnh Đình Trọng,"364 Trịnh Đình Trọng, P. Hòa Thạnh",19,1139314,2,0.0,0,0,0,0,20,0,10.7767545,106.6346229
/ho-chi-minh/hamburger-banh-mi-ha-noi-luy-ban-bich/binh-luan,Hamburger - Bánh Mì Hà Nội - Lũy Bán Bích,"686 Lũy Bán Bích, P. Tân Thành",19,1147678,2,0.0,0,0,0,0,5,0,10.7898433,106.6373982
/ho-chi-minh/banh-mi-binh-dinh-bread-tom-tan-son-nhi/binh-luan,Bánh Mì Bình Định Bread Tom - Tân Sơn Nhì,"55 Tân Sơn Nhì, P. Tân Sơn Nhì",19,1082498,2,0.0,0,0,0,0,31,0,10.802413,106.635016
/ho-chi-minh/pho-ngan-giang-pho-548-luy-ban-bich.xnheff/binh-luan,Phở Ngân Giang - Phở - 548 Lũy Bán Bích,"548 Lũy Bán Bích, P. Hòa Thạnh",19,1000035923,2,0.0,0,1,0,0,5,0,10.782513,106.636317
/ho-chi-minh/co-bay-bun-rieu-chao-thit-bam/binh-luan,Cô Bảy - Bún Riêu & Cháo Thịt Bằm,"174/27 Tân Quý, P. Tân Quý",19,1137704,2,0.0,0,0,0,0,8,0,10.7922381,106.620243
/ho-chi-minh/banh-cuon-banh-uot-tu-anh/binh-luan,Bánh Cuốn & Bánh Ướt - Tú Anh,"160/73A Vườn Lài, P. Tân Thành",19,1000051313,2,0.0,0,0,0,0,26,0,10.7901501,106.6287563
/ho-chi-minh/com-tam-khuong-com-tam-suon-cong-tan-son-nhi/binh-luan,Cơm Tấm Khương - Cơm Tấm Sườn Cọng - Tân Sơn Nhì,"024 Lô A Chung Cư Gò Dầu 2 Đường Tân Sơn Nhì, P. Tân Sơn Nhì",19,1000028234,2,0.0,7,1,0,1,96,0,10.7956825,106.6299915
/ho-chi-minh/bo-kho-co-3/binh-luan,Bò Kho Cô 3,"32 Lê Đình Thám, P. Tân Quý",19,1073864,2,0.0,0,0,0,0,39,0,10.797163,106.6210068
/ho-chi-minh/com-ga-tra-sua-bep-nha-xuan-huong/binh-luan,Cơm Gà & Trà Sữa - Bếp Nhà Xuân Hương,"75/45 Lý Thánh Tông, P. Tân Thới Hòa",19,1000036518,2,0.0,0,0,0,0,35,0,10.7670006,106.6301007
/ho-chi-minh/thien-an-mi-gia-luy-ban-bich/binh-luan,Thiên Ân Mì Gia - Luỹ Bán Bích,"91 Luỹ Bán Bích, P. Tân Thới Hòa",19,1139771,2,0.0,0,0,0,0,16,0,10.76242,106.6322663
/ho-chi-minh/tra-sua-laxy-tan-ky-tan-quy/binh-luan,Trà Sữa Laxy - Tân Kỳ Tân Quý,"391 Tân Kỳ Tân Quý, P. Tân Quý",19,1139016,2,0.0,0,0,0,0,12,0,10.8004424,106.6216095
/ho-chi-minh/tra-dau-mr-do-vuon-lai/binh-luan,Trà Dâu Mr. Đỏ - Vườn Lài,"310 Vườn Lài, P. Phú Thọ Hòa",19,1135684,2,0.0,0,0,0,0,27,0,10.7883545,106.6237388
/ho-chi-minh/tra-dau-co-ba-nguyen-do-cung/binh-luan,Trà Dâu Cô Ba - Nguyễn Đỗ Cung,"3 Nguyễn Đỗ Cung, P. Tây Thạnh",19,1132613,2,0.0,0,0,0,0,37,0,10.8060515,106.6292092
/ho-chi-minh/sup-cua-mo-chanh-nguyen-cuu-dam/binh-luan,Súp Cua Mợ Chảnh - Nguyễn Cửu Đàm,"131/17 Nguyễn Cửu Đàm, P. Tân Sơn Nhì",19,1135121,2,0.0,0,0,0,0,25,0,10.7999118,106.6284225
/ho-chi-minh/quynh-linh-food-mon-ngon-tu-buoi-thoai-ngoc-hau-shop-online/binh-luan,Quỳnh Linh Food - Món Ngon Từ Bưởi - Thoại Ngọc Hầu - Shop Online,"142 Thoại Ngọc Hầu, P. Hoà Thạnh",19,1135101,2,0.0,0,0,0,0,4,0,10.7809703,106.6343598
/ho-chi-minh/oc-ganh-tan-son-nhi/binh-luan,Ốc Gánh - Tân Sơn Nhì,"309 Tân Sơn Nhì, P. Tân Sơn Nhì",19,1133371,2,0.0,0,6,0,0,169,0,10.7968664,106.6306518
/ho-chi-minh/mi-tho-hong-kong-du-ky-au-co/binh-luan,Mì Thố Hong Kong Du Ký - Âu Cơ,"559 - 561 Âu Cơ, P. Phú Trung",19,1133515,2,0.0,0,10,0,3,34,0,10.7825262,106.6426741
/ho-chi-minh/tra-sua-puritea-tan-son-nhi/binh-luan,Trà Sữa Puritea - Tân Sơn Nhì,"34 Tân Sơn Nhì, P. Tân Sơn Nhì",19,1133493,2,0.0,0,0,0,0,74,0,10.8026621,106.6351426
/ho-chi-minh/bich-tea-van-cao/binh-luan,Bích Tea - Văn Cao,"1D Văn Cao, P. Phú Thạnh",19,1132386,2,0.0,0,0,0,0,19,0,10.7836691,106.6212778
/ho-chi-minh/goc-pho-ca-phe-tran-tan/binh-luan,Góc Phố + Cà Phê - Trần Tấn,"91 Trần Tấn, P. Tân Sơn Nhì",19,1129440,2,0.0,0,0,0,0,1,0,10.7967534,106.6355999
/ho-chi-minh/quan-oc-ba-tu-tay-thanh/binh-luan,Quán Ốc Bà Tư - Tây Thạnh,"238 Tây Thạnh, P. Tây Thạnh",19,1125790,2,0.0,0,0,0,0,31,0,10.8108971,106.6201736
/ho-chi-minh/tra-sua-toco-toco-vuon-lai/binh-luan,Tocotoco Bubble Tea - Vườn Lài,"346 Vườn Lài, P. Phú Thọ Hòa",19,967890,2,7.7,4,2,2,1,352,1,10.788662,106.622991
/ho-chi-minh/banh-bao-chien-nuoc-luong-the-vinh/binh-luan,Bánh Bao Chiên Nước - Lương Thế Vinh,"63 Lương Thế Vinh, P. Tân Thới Hoà",19,719565,2,6.734,161,0,39,128,5691,3,10.7637974,106.6300713
/ho-chi-minh/com-chay-van-duyen/binh-luan,Cơm Chay Vạn Duyên,"68 Đường Số 27, P. Sơn Kỳ",19,980213,2,7.7,6,3,2,4,390,0,10.80474,106.629138
/ho-chi-minh/banh-trang-tron-nguyen-xuan-khoat/binh-luan,Bánh Tráng Trộn - Nguyễn Xuân Khoát,"111 Nguyễn Xuân Khoát, P. Tân Thành",19,86991,2,6.444,135,0,46,111,9910,17,10.788893,106.633597
/ho-chi-minh/tocotoco-chung-cu-richstar-278-hoa-binh/binh-luan,Tocotoco - Chung Cư Richstar - 278 Hòa Bình,"Chung Cư Richstar, 278 Hòa Bình, P. Hiệp Tân",19,956871,2,6.8,2,0,1,3,236,1,10.772335,106.626265
/ho-chi-minh/rau-ma-mix-999-au-co/binh-luan,Rau Má Mix - 999 Âu Cơ,"999 Âu Cơ, P. Tân Sơn Nhì",19,949162,2,6.2,1,0,2,2,619,0,10.801497,106.636692
/ho-chi-minh/tocotoco-bubble-tea-nguyen-son/binh-luan,TocoToco Bubble Tea - Nguyễn Sơn,91 Nguyễn Sơn,19,698071,2,6.05,184,0,72,21,4794,9,10.7818654,106.6296483
/ho-chi-minh/banh-beo-so-2-thong-nhat/binh-luan,Bánh Bèo Số 2 - Thống Nhất,2 Thống Nhất,19,166629,2,6.772,39,0,14,57,3600,4,10.790388,106.6368
/ho-chi-minh/tra-sua-may-cha-38-trinh-dinh-trong/binh-luan,Trà Sữa Maycha - 38 Trịnh Đình Trọng,"38 Trịnh Đình Trọng, P. Phú Trung",19,739438,2,7.094,320,0,132,94,15881,153,10.775344,106.64628
/ho-chi-minh/ong-nau-spaghetti/binh-luan,Ong Nâu Spaghetti - Tân Quý,"67 Tân Quý, P. Tân Quý",19,765570,2,8.146,277,0,99,107,7116,12,10.797084,106.619875
/ho-chi-minh/jenny-s-house-bakery-cafe-huynh-thien-loc/binh-luan,Jenny's House - Huỳnh Thiện Lộc,"52/26 Huỳnh Thiện Lộc, P. Hòa Thạnh",19,240824,2,8.014,498,0,69,50,5445,19,10.7804658400286,106.6365028548153
/ho-chi-minh/be-coffee-nguyen-son/binh-luan,BE Coffee - Nguyễn Sơn,140 Nguyễn Sơn,19,98789,2,7.488,204,0,76,61,10231,33,10.7827448,106.627011
/ho-chi-minh/tra-sua-bobapop-luy-ban-bich/binh-luan,Trà Sữa Bobapop - Lũy Bán Bích,"355 Lũy Bán Bích, P. Hiệp Tân",19,188936,2,5.932,294,0,94,63,14888,23,10.773177,106.632084
/ho-chi-minh/quan-an-gia-dinh-sai-gon-lau-ga-ot-hiem/binh-luan,Saigon Kitchen - Lẩu Gà Sài Gòn,"256 Thoại Ngọc Hầu, P. Phú Thạnh",19,283378,2,8.04,154,0,75,80,6374,20,10.777456,106.6281317
/ho-chi-minh/tra-sua-cafe-laxy-truong-vinh-ky/binh-luan,Trà Sữa & Cafe Laxy - Trương Vĩnh Ký,"103 Trương Vĩnh Ký, P. Tân Thành",19,680783,2,7.444,934,0,69,24,4495,20,10.7935529,106.634905
/ho-chi-minh/com-tam-duong-pho/binh-luan,Cơm Tấm Đường Phố,272 Độc Lập,19,187410,2,7.012,101,0,16,39,38932,5,10.7929843,106.6287739
/ho-chi-minh/ebisu-udon-lau-nhat-aeon-mall/binh-luan,Ebisu - Udon & Lẩu Nhật - AEON Mall Tân Phú,"Tầng 2 AEON Mall Tân Phú, 30 Bờ Bao Tân Thắng, P. Sơn Kỳ",19,71140,2,6.562,124,0,37,9,38839,7,10.802237,106.618533
/ho-chi-minh/roll-iceream-bo-bao-tan-thang/binh-luan,Roll IceReam - Bờ Bao Tân Thắng,"31 Bờ Bao Tân Thắng, P. Sơn Kì",19,152617,2,8.334,34,0,6,15,38236,0,10.8000925,106.6164355999999
/ho-chi-minh/hoi-quan-refresh-f5/binh-luan,Hội Quán Refresh - F5,"9 Đường Số 27, P. Sơn Kỳ",19,147821,2,7.4,16,0,4,10,37559,3,10.80331,106.628578
/ho-chi-minh/kk-cafe/binh-luan,KK Cafe,"45A Hòa Bình, P. Phú Trung",19,95699,2,7.24,45,0,5,7,37525,4,10.769188,106.636485
/ho-chi-minh/com-tam-anh-tu/binh-luan,Cơm Tấm Anh Tú,"43 Cây Keo, P. Hiệp Tân",19,23856,2,6.44,98,0,5,11,37349,9,10.771301,106.630377
/ho-chi-minh/ut-doi-bun-thit-nuong-tay-thanh/binh-luan,Út Đời - Bún Thịt Nướng - Tây Thạnh,"Kiot 67, 2 Tây Thạnh",19,161487,2,7.332,11,0,6,5,37088,1,10.820308,106.63024
/ho-chi-minh/tram-nguyen-bong-lan-trung-muoi/binh-luan,Trâm Nguyễn - Bông Lan Trứng Muối,"225 Thoại Ngọc Hầu, P. Phú Thạnh",19,98102,2,5.132,33,0,3,6,37074,5,10.779201,106.631697
/ho-chi-minh/tra-sua-hanako/binh-luan,Trà Sữa Hanako,"144/17 Lê Trọng Tấn, P. Tây Thạnh",19,237597,2,7.356,127,0,14,9,36964,2,10.8065863,106.6256424
/ho-chi-minh/chaya-cafe-aeon-mall/binh-luan,Chaya Cafe - AEON Mall,"Tầng G, AEON Mall, 30 Bờ Bao Tân Thắng, P. Sơn Kỳ",19,139065,2,7.25,22,0,4,4,36841,1,10.801526,106.617653
/ho-chi-minh/hana-food-shop-trai-cay-online/binh-luan,Hana Food - Shop Trái Cây Online,"Hẻm 144 Lê Trọng Tấn, P. Tây Thạnh",19,234460,2,7.6,105,0,9,14,36699,1,10.8082296,106.6189337999999
/ho-chi-minh/ga-u-muoi-tan-phu-cau-xeo/binh-luan,Gà Ủ Muối Tân Phú - Cầu Xéo,"15/50 Cầu Xéo, P. Tân Quý",19,1150787,2,0.0,0,0,0,0,3,0,10.798806,106.62641
/ho-chi-minh/nguu-ma-vuong-mi-bao-ngu-ly-thanh-tong.qdfipv/binh-luan,Ngưu Ma Vương - Mì Bào Ngư - Lý Thánh Tông,"141 Lý Thánh Tông, P. Tân Thới Hòa",19,1000058146,2,0.0,0,0,0,0,2,0,10.7668746,106.6260795
/ho-chi-minh/bun-bo-va-bun-rieu-cay-trung-ca-do-nhuan/binh-luan,Bún Bò Và Bún Riêu Cây Trứng Cá - Đỗ Nhuận,"30/60 Đỗ Nhuận, P. Sơn Kỳ",19,769408,2,9.3,4,0,2,0,144,0,10.805172,106.624194
/ho-chi-minh/banh-mi-banh-hoi-heo-quay-hai-anh-em-tan-ky-tan-quy.eslscw/binh-luan,Bánh Mì Bánh Hỏi Heo Quay Út Ngọc,"Hẻm 229 Tân Kỳ Tân Quý, P. Tân Sơn Nhì",19,1000058121,2,0.0,0,0,0,0,0,0,10.8019285,106.6292247
/ho-chi-minh/pika-tea-ich-thien/binh-luan,PIKA TEA - Ích Thiện,"23 Ích Thiện, P. Tân Thành",19,1150701,2,0.0,0,0,0,0,3,0,10.7918839522341,106.6359575975871
/ho-chi-minh/pho-bo-aaa-canada-le-thuc-hoach/binh-luan,Phở Bò Aaa Canada - Lê Thúc Hoạch,"95 Lê Thúc Hoạch, P. Phú Thọ Hòa",19,1150698,2,0.0,0,0,0,0,1,0,10.7869705763414,106.6227850270428
/ho-chi-minh/tea-coffee-parmano-309-thach-lam/binh-luan,Tea & Coffee Parmano - 309 Thạch Lam,"309 Thạch Lam, P. Phú Thạnh",19,1150637,2,0.0,0,0,0,0,2,0,10.7798185,106.6223582
/ho-chi-minh/tra-sua-agia-tra-sua-dua-nuong-kem-cheese-vuon-lai/binh-luan,Trà Sữa Agia - Trà Sữa Dừa Nướng Kem Cheese - Vườn Lài,"146 Vườn Lài, P. Tân Thành",19,1150624,2,0.0,0,0,0,0,2,0,10.7885622,106.6297346
/ho-chi-minh/yuri-kem-y-ga-ran-an-vat/binh-luan,"YURI - Kem Ý, Gà Rán & Ăn Vặt","RS3 - SH16, Chung Cư Richstar 1, 278 Hoà Bình, P. Hiệp Tân",19,1150567,2,0.0,0,0,0,0,5,0,10.7735172,106.6268918
/ho-chi-minh/nhat-tam-quan-oc-lau-nuong-to-hieu/binh-luan,"Nhất Tâm Quán - Ốc, Lẩu & Nướng - Tô Hiệu","162 Tô Hiệu, P. Hiệp Tân",19,1000058042,2,0.0,0,0,0,0,1,0,10.771099,106.6272192
/ho-chi-minh/tra-sua-sweet-tea-vuon-lai/binh-luan,Trà Sữa Sweet Tea - Vườn Lài,"152A Vườn Lài, P. Tân Thành",19,1150520,2,0.0,0,0,0,0,3,0,10.7885685,106.6295135
/ho-chi-minh/ampm-oolong-tea-van-cao.txiy5c/binh-luan,AMPM - Oolong Tea - Văn Cao,"88 Văn Cao, P. Phú Thọ Hòa",19,1000057981,2,0.0,0,0,0,0,1,0,10.7891347,106.6230026
/ho-chi-minh/bun-rieu-hem-so-7-trinh-dinh-trong/binh-luan,Bún Riêu Hẻm Số 7 - Trịnh Đình Trọng,"7 Trịnh Đình Trọng, P. Phú Trung",19,942895,2,10.0,6,4,1,1,194,1,10.775172,106.646949
/ho-chi-minh/tran-gia-pho-bo/binh-luan,Trần Gia - Phở Bò,199 Thành Công,19,791069,2,10.0,4,0,1,1,221,1,10.7939582,106.630128
/ho-chi-minh/mi-ga-gion-a-sen/binh-luan,Mì Gà Giòn A Sèn,"93 Quách Đình Bảo, P. Phú Thạnh",19,1057212,2,10.0,2,0,1,2,145,1,10.7808208,106.6258049
/ho-chi-minh/let-s-juice-nuoc-ep-detox-sinh-to-tre-tron/binh-luan,"Let’s Juice - Nước Ép Detox, Sinh Tố & Tré Trộn","149/1A Lũy Bán Bích, P. Tân Thới Hòa",19,1079130,2,10.0,2,0,2,0,60,0,10.7658351,106.6311613
/ho-chi-minh/z9-coffee-luy-ban-bich/binh-luan,Z9 Coffee - Lũy Bán Bích,"64 Lũy Bán Bích, P. Tân Thới Hoà",19,148729,2,10.0,29,0,1,0,737,1,10.764579,106.632507
/ho-chi-minh/mix-cafe-tra-trai-cay-an-vat-thong-nhat.zejr8i/binh-luan,Mix Café - Trà Trái Cây & Ăn Vặt - Thống Nhất,"80A Thống Nhất, P. Tân Thành",19,1000054251,2,10.0,12,0,1,0,11,2,10.7910575,106.6329326
/ho-chi-minh/vinh-ky-hu-tieu-bo-kho/binh-luan,Vinh Ký - Hủ Tiếu & Bò Kho,"40 Nguyễn Quý Anh, P. Tân Sơn Nhì ",19,709180,2,10.0,7,0,1,12,926,0,10.801516,106.627971
/ho-chi-minh/xoideli-xoi-man-thap-cam-kenh-tan-hoa/binh-luan,Xôideli - Xôi Mặn Thập Cẩm - Kênh Tân Hoá,"531 Kênh Tân Hoá, P. Phú Thạnh",19,1112838,2,10.0,1,0,4,0,39,0,10.7841546,106.6402407
/ho-chi-minh/xoi-chien-789-shop-online/binh-luan,Xôi Chiên 789 - Shop Online," Lô D1 Chung Cư Huỳnh Văn Chính 2, P. Phú Trung",19,1052087,2,10.0,1,0,2,2,60,0,10.777659,106.642336
/ho-chi-minh/loc-coc-quan-bia-mon-nuong/binh-luan,Lóc Cóc Quán - Bia & Món Nướng,"61 Lê Sát, P. Tân Quý",19,912955,2,10.0,11,0,1,0,166,1,10.792416,106.619028
/ho-chi-minh/com-ga-phu-yen-kim-chi-nguyen-cuu-dam/binh-luan,Cơm Gà Phú Yên Kim Chi - Nguyễn Cửu Đàm,"67 Nguyễn Cửu Đàm, P. Tân Sơn Nhì",19,1083039,2,10.0,2,0,2,1,55,0,10.799203,106.629892
/ho-chi-minh/bun-bo-co-diem/binh-luan,Bún Bò Cô Diễm,"399 Tây Thạnh, P. Tây Thạnh",19,1051376,2,10.0,2,0,1,1,70,1,10.808847,106.618882
/ho-chi-minh/ga-sai-gon-shop-online/binh-luan,Gà Sài Gòn - Lê Sát,"111 Lê Sát, P. Tân Quý",19,723823,2,7.052,118,0,98,21,3575,5,10.7939493,106.6167523
/ho-chi-minh/nhu-thao-banh-canh-phan-rang/binh-luan,Như Thảo - Bánh Canh Phan Rang,"167 Vườn Lài, P. Phú Thọ Hòa",19,784999,2,8.928,199,0,82,43,1490,2,10.787934,106.630905
/ho-chi-minh/kungfu-bakery-banh-bong-lan-trung-muoi/binh-luan,Kungfu Bakery - Bánh Bông Lan Trứng Muối,"129A Gò Dầu, P. Tân Quý",19,1141634,2,9.726,41,0,82,2,132,0,10.793987,106.6227879
/ho-chi-minh/lotteria-aeon-mall-celadon/binh-luan,Lotteria - Aeon Mall Celadon,"Tầng 2 AEON Mall Tân Phú, 30 Bờ Bao Tân Thắng, P. Sơn Kỳ",19,46932,2,6.246,306,0,77,10,5380,28,10.802199,106.618187
/ho-chi-minh/ba-trum-an-vat-com-chay-kho-quet/binh-luan,Bà Trùm Ăn Vặt - Cơm Cháy Kho Quẹt,"233 Thoại Ngọc Hầu, P. Phú Thạnh",19,736879,2,5.272,153,0,33,123,9928,3,10.778635,106.631204
/ho-chi-minh/chao-tieu-chao-trung-bien/binh-luan,Cháo Tiều - Cháo Trùng Biển," 104/22B Trịnh Đình Trọng, P. Phú Trung",19,79265,2,7.26,69,0,17,118,24520,14,10.775702,106.644303
/ho-chi-minh/xoi-minh-hung-doc-lap/binh-luan,Xôi Mặn Minh Hưng - Độc Lập,"268 Độc Lập, P. Tân Thành",19,120443,2,7.064,64,0,29,115,15029,2,10.793036,106.628655
/ho-chi-minh/tra-sua-yuti-nguyen-quy-anh/binh-luan,Trà Sữa Yuti - Đường T6,"64 Đường T6, P. Tây Thạnh",19,147044,2,7.896,613,0,31,109,15853,12,10.8106371,106.6178884
/ho-chi-minh/the-moon-sushi-vien-1k/binh-luan,Sushi Viên 1K - The Moon,"19/9 Ngụy Như KomTum, P. Hiệp Tân",19,630239,2,6.008,46,0,24,106,10409,10,10.7762343313531,106.632514380878
/ho-chi-minh/banh-beo-ba-nam-nu/binh-luan,Bánh Bèo Bà Năm Nữ,"118/84 Lê Trọng Tấn, P. 15",19,224210,2,9.064,73,0,22,96,3277,13,10.809253,106.629212
/ho-chi-minh/bach-tuoc-nuong-kien-giang/binh-luan,Bạch Tuộc Nướng Kiên Giang,"173 Kênh Tân Hóa, P. Hòa Thạnh",19,697584,2,5.944,123,0,25,95,16654,6,10.7725491,106.6360956
/ho-chi-minh/quang-ky-com-chien-mi-xao/binh-luan,Quang Ký - Cơm Chiên & Mì Xào,"006 Lô A Chung Cư Sơn Kỳ, P. Sơn Kỳ",19,752741,2,6.6,7,0,2,0,409,0,10.8107075,106.6080273
/ho-chi-minh/quan-oc-dem-30k-duong-dc2/binh-luan,Quán Ốc Đêm 30k - Đường DC2,"3 Đường DC2, P. Sơn Kỳ",19,1018276,2,0.0,0,0,0,0,51,0,10.812088,106.608113
/ho-chi-minh/windows-cafe-duong-cn1/binh-luan,Windows Cafe - Đường CN1,"Đường CN1, P. Sơn Kỳ",19,50062,2,5.4,2,0,1,1,864,0,10.807363,106.607847
/ho-chi-minh/mr-thinh-khoai-lang-lac-ga-ran-duong-cn1/binh-luan,Mr Thịnh - Khoai Lang Lắc & Gà Rán - Đường CN1,"100 Đường CN1, P. Sơn Kỳ",19,781130,2,0.0,1,0,0,0,31,0,10.807087,106.60785
/ho-chi-minh/di-ut-pha-lau-bo/binh-luan,Dì Út - Phá Lấu Bò,"C005 Đường CC1, P. Sơn Kỳ",19,903380,2,0.0,1,0,0,0,44,0,10.809942,106.608043
/ho-chi-minh/friend-s-house-coffee/binh-luan,Friend's House Coffee,"10 Lô F, Chung Cư Sơn Kỳ, Đường DC9, P. Sơn Kỳ",19,799754,2,0.0,1,0,0,0,11,0,10.8085547,106.607967
/ho-chi-minh/phuong-cac/binh-luan,Quán Nhậu Phượng Các - Lê Trọng Tấn,"543 Lê Trọng Tấn, P. Sơn Kỳ",19,9004,2,7.268,13,0,3,4,10037,7,10.8125454,106.608226
/ho-chi-minh/bun-dau-nha-lam/binh-luan,Bún Đậu Nhà Làm,"110 Đường CN1, P. Sơn Kỳ",19,799748,2,0.0,1,1,0,0,37,0,10.8070332,106.6079422
/ho-chi-minh/bep-hanna-chan-ga-sot-thai-24-dc1.tsf3xa/binh-luan,Bếp Hanna - Chân Gà Sốt Thái - 24 DC1,"24 DC1, P. Sơn Kỳ",19,1000044130,2,0.0,0,0,0,0,24,0,10.8112572,106.6082062
/ho-chi-minh/trang-che-tu-chon/binh-luan,Trang - Chè Tự Chọn,"28 Đường DC1, P. Sơn Kỳ",19,1027329,2,0.0,0,0,0,0,103,0,10.811382,106.608247
/ho-chi-minh/banh-mee-an-vat-duong-dc9/binh-luan,Banh Mee - Ăn Vặt - Đường DC9,"40 Đường DC9, P. Sơn Kỳ",19,1000032921,2,0.0,7,0,0,0,28,0,10.8084619,106.6080851
/ho-chi-minh/mi-cay-shin-tan-quy/binh-luan,Mì Cay Shin - Tân Quý,"48B Tân Quý, P. Tân Quý",19,752439,2,8.134,136,0,30,16,1897,7,10.7966354,106.6197908
/ho-chi-minh/koi-the-aeon-mall-tan-phu/binh-luan,KOI Thé - AEON Mall Tân Phú,"F70, Tầng 1 AEON Mall Tân Phú, 30 Bờ Bao Tân Thắng, P. Sơn Kỳ",19,907689,2,7.268,67,6,15,7,2392,1,10.8008599,106.6167647
/ho-chi-minh/tocotoco-bubble-tea-431-le-trong-tan/binh-luan,TocoToco Bubble Tea - 431 Lê Trọng Tấn,"431 Lê Trọng Tấn, P. Sơn Kỳ",19,944304,2,3.602,3,0,3,2,493,0,10.8087303,106.6164127
/ho-chi-minh/bun-bo-cau-hai/binh-luan,Bún Bò Cậu Hai,"173/45/75 Khuông Việt, P. Phú Trung",19,1054903,2,6.228,7,0,7,2,343,0,10.771841,106.640361
/ho-chi-minh/me-kem-com-tam-banh-canh-muc-che-lan-vien/binh-luan,Mẹ Kem - Cơm Tấm & Bánh Canh Mực - Chế Lan Viên,"168/35 Chế Lan Viên, P. Tây Thạnh",19,970036,2,7.826,34,0,24,13,572,3,10.811352,106.6253
/ho-chi-minh/sui-cao-an-vat-le-canh-tuan/binh-luan,Sủi Cảo & Ăn Vặt - Trương Vĩnh Ký,"31 Trương Vĩnh Ký, P. Tân Thành",19,1037065,2,10.0,0,3,1,3,105,0,10.7932522,106.6364688
/ho-chi-minh/texas-chicken-nguyen-son/binh-luan,Texas Chicken - Nguyễn Sơn,"71 Nguyễn Sơn, P. Phú Thạnh",19,1084881,2,0.0,0,1,0,0,301,0,10.7816642,106.6301942
/ho-chi-minh/an-vat-co-thuy/binh-luan,Cô Thủy - Quán Ăn Vặt - Lê Thúc Hoạch,"57 Lê Thúc Hoạch, P. Phú Thọ Hòa",19,994675,2,4.944,11,4,7,12,827,0,10.7869621,106.6240733
/ho-chi-minh/wing-coffee-photo/binh-luan,Wing Coffee & Photo,"17 Lê Thúc Hoạch, P. Phú Thọ Hòa",19,247210,2,8.862,339,0,39,40,2922,10,10.78613,106.626389
/ho-chi-minh/aeon-bakery-aeon-mall/binh-luan,AEON Bakery - AEON Mall,"Tầng G AEON Mall, 30 Bờ Bao Tân Thắng, P. Sơn Kỳ",19,123322,2,7.522,606,0,43,13,6500,14,10.802033,106.618286
/ho-chi-minh/o-khuou-bun-bo-hue/binh-luan,O Khướu - Bún Bò Huế,"194 Trương Vĩnh Ký, P. Tân Sơn Nhì",19,240294,2,7.958,121,0,37,30,7829,44,10.794231,106.631462
/ho-chi-minh/gonta-restaurant-aeon-mall/binh-luan,Gonta Restaurant - Bánh Xèo Nhật - AEON Mall,"Tầng 2 AEON Mall, 30 Bờ Bao Tân Thắng, P. Sơn Kỳ",19,46963,2,6.308,75,0,39,39,10772,20,10.801336,106.61776
/ho-chi-minh/lau-bang-chuyen-osaka1-luy-ban-bich/binh-luan,Lẩu Băng Chuyền Osaka1 - Lũy Bán Bích,"455 Lũy Bán Bích, P. Hòa Thạnh",19,297077,2,6.342,301,0,53,24,10704,10,10.775275,106.633095
/ho-chi-minh/kokoro-tra-sua-banh-aeon-mall/binh-luan,Kokoro - Trà Sữa & Bánh - AEON Mall,"Tầng 2 AEON Mall, 30 Bờ Bao Tân Thắng, P. Sơn Kỳ",19,46967,2,6.79,211,0,33,16,4628,14,10.802582,106.620439
/ho-chi-minh/domino-s-pizza-le-trong-tan/binh-luan,Domino’s Pizza - Lê Trọng Tấn,"440 - 440A Lê Trọng Tấn, P. Tây Thạnh",19,227279,2,7.28,102,0,28,21,5977,32,10.8090618,106.6167308
/ho-chi-minh/hangu-am-thuc-han-quoc-nguyen-van-sang/binh-luan,Hangu - Ẩm Thực Hàn Quốc - Nguyễn Văn Săng,"98 Nguyễn Văn Săng, P. Tân Sơn Nhì",19,983035,2,8.352,29,1,52,66,1727,6,10.7988925,106.6327012
/ho-chi-minh/cha-lui-lagi-phu-tho-hoa/binh-luan,Chả Lụi Lagi - Phú Thọ Hòa,346 Phú Thọ Hòa,19,946454,2,0.0,1,2,0,2,132,1,10.785039,106.625939
/ho-chi-minh/kem-mingo-thailand/binh-luan,Kem Mingo Thailand,"232/28 Tô Hiệu, P. Hiệp Tân",19,1018390,2,0.0,0,1,0,0,47,0,10.774606,106.628873
/ho-chi-minh/quan-hai-san-binh-thuan/binh-luan,Quán Hải Sản Bình Thuận,"217 Tây Thạnh, P. Tây Thạnh",19,752994,2,0.0,4,0,0,0,376,0,10.808845,106.618507
/ho-chi-minh/le-monde-steak-aeon-mall-tan-phu/binh-luan,Le Monde Steak - Aeon Mall Tân Phú,"L38B Tầng 3 TTTM Aeon Mall Tân Phú, P. Sơn Kỳ",19,1141180,2,0.0,0,1,0,0,63,0,10.8026262,106.6176115
/ho-chi-minh/an-vi-ga-ran-khoai-lang-lac-to-hieu/binh-luan,An Vi - Gà Rán & Khoai Lang Lắc - Tô Hiệu,"46 Tô Hiệu, P. Tân Thới Hoà",19,751429,2,5.768,25,0,6,3,419,2,10.7641615,106.6271035
/ho-chi-minh/ga-nuong-com-lam-che-lan-vien/binh-luan,Gà Nướng Cơm Lam - Chế Lan Viên,"71/22 Chế Lan Viên, P. Tây Thạnh",19,1020567,2,8.3,13,2,2,5,364,0,10.810018,106.629525
/ho-chi-minh/tap-hoa-co-sua-che-lan-vien/binh-luan,Tạp Hóa Cô Sứa - Chế Lan Viên,"38/23 Chế Lan Viên, P. Tây Thạnh",19,735519,2,0.0,5,1,0,1,153,0,10.812364,106.630018
/ho-chi-minh/sieu-thi-an-vat-biliones-tan-quy/binh-luan,Siêu Thị Ăn Vặt BiliOnes - Tân Quý,"78 Tân Quý, P. Tân Quý",19,161211,2,7.328,126,0,8,10,9465,6,10.795891,106.619972
/ho-chi-minh/com-trua-van-phong-thach-lam/binh-luan,Cơm Trưa Văn Phòng - Thạch Lam,"15/3 Thạch Lam, P. Hòa Thạnh",19,971723,2,0.0,0,0,0,0,32,0,10.775735,106.632784
/ho-chi-minh/cho-nha-chuot-thit-tuoi-vien-tha-lau/binh-luan,Chợ Nhà Chuột - Thịt Tươi & Viên Thả Lẩu,"004 Lô B Chung Cư Huỳnh Văn Chính 1, P. Phú Trung",19,1092395,2,0.0,0,0,0,0,27,0,10.7812871,106.6413685
/ho-chi-minh/hai-chi-em-bun-thit-nuong-banh-uot/binh-luan,Hai Chị Em - Bún Thịt Nướng & Bánh Ướt,"16/33 Nguyễn Nhữ Lãm, P. Phú Thọ Hoà",19,1050252,2,0.0,0,0,0,0,27,0,10.783632,106.627478
/ho-chi-minh/sieu-thi-chao-soup-nguyen-hau/binh-luan,Siêu Thị Cháo & Soup - Nguyễn Hậu,"49 Nguyễn Hậu, P. Tân Thành",19,709536,2,5.3,7,0,2,1,212,0,10.791855,106.635446
/ho-chi-minh/bun-dau-mam-tom-1975-nguyen-son/binh-luan,Bún Đậu Mắm Tôm 1975 - Nguyễn Sơn,"434A Nguyễn Sơn, P. Phú Thọ Hòa",19,1135289,2,0.0,0,0,0,0,26,0,10.7851946,106.6201557
/ho-chi-minh/tiem-banh-mi-hung-thuy-tan-son-nhi/binh-luan,Tiệm Bánh Mì Hưng Thúy - Tân Sơn Nhì,"203 Tân Sơn Nhì, P. Tân Sơn Nhì",19,1111582,2,0.0,0,0,0,0,15,0,10.7988515,106.6320403
/ho-chi-minh/minh-meo-com-tam-dem/binh-luan,Minh Mèo - Cơm Tấm Đêm,"36 Vườn Lài, P. Tân Thành",19,759378,2,0.0,6,5,0,0,307,3,10.7875392,106.6343348
/ho-chi-minh/lau-nuong-79-lau-nuong-bun-cay-thai-le-trong-tan.whz5sc/binh-luan,Lẩu Nướng 79 - Lẩu Nướng & Bún Cay Thái - Lê Trọng Tấn,"33/25 Lê Trọng Tấn, P. Sơn Kỳ",19,1000036942,2,0.0,0,0,0,0,37,0,10.8048479,106.631453
/ho-chi-minh/tony-teo-bsfc-quan-nhau-binh-dan/binh-luan,Tony Tèo BSFC - Quán Nhậu Bình Dân,"195 Tây Thạnh, P. Tây Thạnh",19,752449,2,0.0,15,0,0,0,299,0,10.813476,106.623263
/ho-chi-minh/an-vat-tun-tin/binh-luan,Ăn Vặt Tũn Tĩn - Lũy Bán Bích,"711/9 Lũy Bán Bích, P. Phú Thọ Hòa",19,1037712,2,7.8,3,0,1,0,107,0,10.782439,106.63537
/ho-chi-minh/pho-bat-dan-vuon-lai/binh-luan,Phở Bát Đàn - Vườn Lài,"49 Vườn Lài, P. Phú Thọ Hòa",19,1143812,2,0.0,0,0,0,0,7,0,10.7871898,106.6342401
/ho-chi-minh/hu-tieu-nam-vang-68-hu-tieu-nam-vang-tron-kho-mi-gia-ky-tron-kho-truong-vinh-ky/binh-luan,Hủ Tiếu Nam Vang 68 - Hủ Tiếu Nam Vang Trộn Khô & Mì Gia Ký Trộn Khô - Trương Vĩnh Ký,"313 Trương Vĩnh Ký, P. Tân Thành",19,1128749,2,0.0,0,0,0,0,28,0,10.794888,106.6297019
/ho-chi-minh/an-vat-vit-con-xien-que-nui-xao-bo-com-ga-gion-shop-online/binh-luan,"Ăn Vặt Vịt Con - Xiên Que, Nui Xào Bò & Cơm Gà Giòn - Shop Online","262/26/21 Lũy Bán Bích, P. Hòa Thạnh",19,1040789,2,0.0,0,0,0,0,38,0,10.771783,106.6343694
/ho-chi-minh/nha-han-com-tam-an-vat-tan-quy.wswtpg/binh-luan,Nhã Hân - Cơm Tấm & Ăn Vặt - Tân Quý,"174/25 Tân Quý, P. Tân Quý",19,1000036500,2,0.0,0,0,0,0,25,0,10.7922555,106.6202372
/ho-chi-minh/tra-sua-maycha-tan-thang/binh-luan,Trà Sữa Maycha - Tân Thắng,"137 Tân Thắng, P. Sơn Kỳ",19,1125811,2,0.0,0,0,0,0,29,0,10.7998282,106.6159787
/ho-chi-minh/ga-nuong-2-huan-tay-thanh/binh-luan,Gà Nướng 2 Huân - Tây Thạnh,"116B Tây Thạnh, P. Tây Thạnh",19,1125384,2,9.958,0,0,54,4,298,0,10.8136313,106.6227381
/ho-chi-minh/banh-tra-sua-158-tan-son-nhi/binh-luan,Bánh & Trà Sữa 158 - Tân Sơn Nhì,"158 Tân Sơn Nhì, P. Tân Sơn Nhì",19,1124230,2,0.0,0,0,0,0,25,0,10.8005511,106.632203
/ho-chi-minh/ca-phe-ban-toi-che-lan-vien/binh-luan,CÀ PHÊ BẠN TÔI - Chế Lan Viên,"41 Chế Lan Viên, P. Tây Thạnh",19,1122578,2,0.0,0,0,0,0,62,0,10.806982,106.631226
/ho-chi-minh/valley-tea-coffee-do-nhuan/binh-luan,Valley Tea & Coffee - Đỗ Nhuận,"30/9A Đỗ Nhuận, P. Sơn Kỳ",19,1119307,2,0.0,0,0,0,0,29,0,10.8051705081636,106.6232024964386
/ho-chi-minh/quan-beef-zone-beef-steak-go-dau/binh-luan,Quán Beef Zone - Beef Steak - Gò Dầu,"176A Gò Dầu, P. Tân Quý",19,1121946,2,0.0,0,1,0,1,41,0,10.7960616,106.6219235
/ho-chi-minh/quan-54-bun-mam-mien-tay/binh-luan,Quán 54 - Bún Mắm Miền Tây,"66 Dương Đức Hiền, P. Tây Thạnh",19,1118558,2,0.0,0,0,0,0,25,0,10.8099247,106.6271603
/ho-chi-minh/ca-vien-chien-sinh-to-goc-pho-tan-son-nhi/binh-luan,Cá Viên Chiên & Sinh Tố Góc Phố - Tân Sơn Nhì,"368/36 Tân Sơn Nhì, P. Tân Sơn Nhì",19,1120256,2,0.0,0,0,0,0,9,0,10.796361,106.62888
/ho-chi-minh/nha-hang-chay-doa-sen-vang-tran-hung-dao/binh-luan,Nhà Hàng Chay Đóa Sen Vàng - Trần Hưng Đạo,"5 Trần Hưng Đạo, P. Tân Thành",19,4292,2,4.954,134,0,44,24,17932,13,10.79514,106.637693
/ho-chi-minh/chan-may-bo-tung-xeo-nguyen-van-sang/binh-luan,Chân Mây Bò Tùng Xẻo - Nguyễn Văn Săng,"65 Nguyễn Văn Săng, P. Tân Sơn Nhì",19,2163,2,7.2,53,0,7,11,13574,8,10.798535,106.6328836
/ho-chi-minh/carilloner-cafe-bistro-luong-minh-nguyet/binh-luan,Carilloner Café Bistro - Lương Minh Nguyệt,"33 Lương Minh Nguyệt, P. Tân Thới Hoà",19,1115799,2,0.0,0,0,0,0,33,0,10.7611603349291,106.6301353978074
/ho-chi-minh/goc-an-vat-148-do-chien-tra-chanh-tran-thu-do/binh-luan,Góc Ăn Vặt 148 - Đồ Chiên & Trà Chanh - Trần Thủ Độ,"148 Trần Thủ Độ, P. Phú Thạnh",19,1111701,2,0.0,0,1,0,1,33,0,10.782955,106.624896
/ho-chi-minh/com-ga-xoi-mo-thach-lam-diep-minh-chau/binh-luan,Cơm Gà Xối Mỡ Thạch Lam - Diệp Minh Châu,"21 Diệp Minh Châu, P. Tân Sơn Nhì",19,709556,2,5.65,10,0,4,9,570,0,10.7980029,106.6328898
/ho-chi-minh/tobokky-siam-kenh-tan-hoa/binh-luan,Tobokky SIAM - Kênh Tân Hóa,"Đối diện 519 Kênh Tân Hoá, P. Hòa Thạnh",19,765946,2,5.908,190,0,22,69,1777,8,10.78297,106.640554
/ho-chi-minh/star-tea-trinh-dinh-trong/binh-luan,Star Tea - Trịnh Đình Trọng,"34 Trịnh Đình Trọng, P. Phú Trung",19,23489,2,6.632,48,0,13,10,2065,5,10.775249,106.646378
/ho-chi-minh/gami-tea-huynh-thien-loc/binh-luan,Gami Tea - Huỳnh Thiện Lộc,"42 Huỳnh Thiện Lộc, P. Hoà Thạnh",19,1081329,2,10.0,1,0,2,0,41,0,10.7801846,106.6370675
/ho-chi-minh/tiger-sugar-duong-nau-sua-nguyen-the-truyen/binh-luan,Tiger Sugar - Đường Nâu Sữa - Nguyễn Thế Truyện,"4 Nguyễn Thế Truyện, P. Tân Sơn Nhì",19,1074879,2,10.0,0,0,2,0,60,0,10.7948697,106.6313975
/ho-chi-minh/rau-ma-vitamin-luy-ban-bich/binh-luan,Rau Má Vitamin - Lũy Bán Bích,"685 Lũy Bán Bích, P. Phú Thạnh",19,1058650,2,9.8,1,0,1,0,55,0,10.7814308,106.635832
/ho-chi-minh/bj-tokbokki-aeon-mall-tan-phu/binh-luan,BJ Tokbokki - AEON Mall Tân Phú,"Tầng 2 Khu Food Terrace, AEON Mall Tân Phú, 30 Bờ Bao Tân Thắng, P. Sơn Kỳ",19,1061085,2,9.16,18,0,5,0,185,1,10.8008599,106.6167647
/ho-chi-minh/panda-bbq-quan-thit-nuong-da-lat/binh-luan,Panda BBQ - Quán Thịt Nướng Đà Lạt,"255 Hòa Bình, P. Hiệp Tân ",19,310653,2,7.496,362,0,62,80,26694,15,10.77335,106.622084
/ho-chi-minh/bread-talk-aeon-mall/binh-luan,BreadTalk - AEON Mall Tân Phú,"Tầng Trệt AEON Mall Tân Phú, 30 Bờ Bao Tân Thắng, P. Sơn Kỳ",19,71875,2,7.276,299,0,50,25,5894,22,10.801473,106.617953
/ho-chi-minh/cupcake-cong-chua-nho/binh-luan,Cupcake Công Chúa Nhỏ,"131 Nguyễn Hữu Tiến, P.Tây Thạnh",19,106770,2,0.0,76,7,0,0,36404,0,10.8121458,106.6240691
/ho-chi-minh/tit-mit-kem-cuon-thach-lam/binh-luan,Tít Mít - Kem Cuộn - Thạch Lam,"35 Thạch Lam, P. Hiệp Tân ",19,129634,2,0.0,5,16,0,3,36066,2,10.7763658,106.6322493
/ho-chi-minh/trai-cay-to-68/binh-luan,Trái Cây Tô 68,68 Hoa Bằng,19,185553,2,6.3,3,0,2,3,35893,3,10.7984534,106.6279699
/ho-chi-minh/tra-sua-thach-nha-lam-doc-lap/binh-luan,Hoa Ly - Trà Sữa Nhà Làm - Độc Lập,"270 Độc Lập, P. Tân Thành",19,135205,2,5.316,107,0,72,39,35510,15,10.793048,106.628631
/ho-chi-minh/ga-ac-nuong-a-huy-tan-son-nhi/binh-luan,Gà Ác Nướng A. Huy - Tân Sơn Nhì,26/6 Tân Sơn Nhì,19,134181,2,0.0,3,0,0,0,35191,0,10.796415,106.630771
/ho-chi-minh/bun-bo-song-huong/binh-luan,Bún Bò Sông Hương - Gò Dầu,"65 Gò Dầu, P. Tân Quý",19,2176,2,6.298,88,0,63,43,27706,29,10.795832,106.626756
/ho-chi-minh/banh-mi-muoi-ot-nhu-y-tan-ky-tan-quy/binh-luan,Bánh Mì Muối Ớt Như Ý - Tân Kỳ Tân Quý,"147/36/16 Tân Kỳ Tân Quý, P. Tân Sơn Nhì",19,1150383,2,0.0,0,0,0,0,1,0,10.802031,106.631727
/ho-chi-minh/bun-nem-nuong-262-luy-ban-bich/binh-luan,Bún Nem Nướng 262 - Lũy Bán Bích,"262/26/25 Lũy Bán Bích, P. Hòa Thạnh",19,1150309,2,0.0,0,0,0,0,1,0,10.77118,106.634831
/ho-chi-minh/bull-tra-sua-an-vat-thai-lan/binh-luan,Bull - Trà Sữa & Ăn Vặt Thái Lan,"199 Thoại Ngọc Hầu, P. Phú Thạnh",19,1150281,2,0.0,0,0,0,0,4,0,10.7796957,106.6324739
/ho-chi-minh/bep-com-me-chong-com-van-phong-nguyen-van-vinh/binh-luan,BẾP CƠM MẸ CHỒNG - Cơm Văn Phòng - Nguyễn Văn Vịnh,"2/21 Nguyễn Văn Vịnh, P. Hiệp Tân",19,1150270,2,0.0,0,0,0,0,1,0,10.7684811,106.6302096
/ho-chi-minh/banh-mi-que-phap-big-c-truong-chinh/binh-luan,Bánh Mì Que Pháp - Big C Trường Chinh,"Tầng Trệt Big C - Cổng Hồ Đắc Di, Số 1/1 Trường Chinh, P. Tây Thạnh",19,1150257,2,0.0,0,2,0,1,2,0,10.8067088,106.6343851
/ho-chi-minh/tra-sua-ruby-nguyen-lo-trach/binh-luan,Trà Sữa Ruby - Nguyễn Lộ Trạch,"1 Nguyễn Lộ Trạch, P. Tân Quý",19,1150208,2,0.0,0,0,0,0,2,0,10.7919317,106.6194237
/ho-chi-minh/tra-sua-hai-long-thanh-cong/binh-luan,Trà Sữa Hải Long - Thành Công,"126 Thành Công, P. Tân Thành",19,1150161,2,0.0,0,0,0,0,2,0,10.793316,106.634098
/ho-chi-minh/xoi-tan-phu-ba-che-dam-than-huy/binh-luan,XÔI TÂN PHÚ BÀ CHẾ - ĐÀM THẬN HUY,"26 Đàm Thận Huy, P. Tân Quý",19,1150132,2,0.0,0,0,0,0,2,0,10.789464,106.623374
/ho-chi-minh/banh-canh-bun-ca-loc-thien-map-tan-thanh/binh-luan,Bánh Canh & Bún Cá Lóc Thiện Mập - Tân Thành,"89 Tân Thành, P. Hòa Thạnh",19,1150113,2,0.0,0,0,0,0,2,0,10.7873325,106.6371821
/ho-chi-minh/bun-cha-ha-noi-co-thuy-bun-cha-ha-noi-29-duong-30-thang-4.z1wtw4/binh-luan,Bún Chả Hà Nội Cô Thùy - Đường 30 Tháng 4 ,"29 Đường 30 Tháng 4, P. Tân Thành ",19,1000057878,2,0.0,0,0,0,0,2,0,10.787578,106.635646
/ho-chi-minh/lee-s-thoa-nieng-foods/binh-luan,Lee's & Thoa Niềng Foods,"149/33 Lũy Bán Bích, P. Tân Thới Hòa",19,1039782,2,10.0,3,0,3,0,30,0,10.765877,106.629952
/ho-chi-minh/hamu-fresh-burger-bo-tra-trai-cay-luong-minh-nguyet/binh-luan,Hamu Fresh - Burger Bò & Trà Trái Cây - Lương Minh Nguyệt,"70 Lương Minh Nguyệt, P. Tân Thới Hòa",19,1135456,2,10.0,8,0,1,0,27,1,10.7612897,106.6289516
/ho-chi-minh/cua-song-ca-mau-quan-an-binh-dan/binh-luan,Cua Sống Cà Mau - Quán Ăn Bình Dân,60A Kênh Tân Hóa,19,733004,2,10.0,19,1,1,2,410,0,10.76329,106.6355715
/ho-chi-minh/hoi-an-quan-quan-an-gia-dinh/binh-luan,Hội An Quán - Quán Ăn Gia Đình,"61/42 Thạch Lam, P. Hiệp Tân",19,969974,2,10.0,31,0,1,1,105,0,10.775627,106.630961
/ho-chi-minh/banh-mi-tuan-map-hoa-binh/binh-luan,Bánh Mì Tuấn Mập - Hòa Bình,"165 Hòa Bình, P. Hiệp Tân",19,72801,2,10.0,0,0,1,1,947,3,10.7711381,106.6295242
/ho-chi-minh/danh-hung-hu-tieu-hoanh-thanh/binh-luan,Danh Hưng - Hủ Tiếu & Hoành Thánh,"477 Lũy Bán Bích, P. Hiệp Tân",19,783378,2,10.0,15,1,1,2,319,0,10.775915,106.633344
/ho-chi-minh/pho-viet-chung-cu-topaz/binh-luan,Phở Việt - Chung Cư Topaz,"B102 Chung Cư Topaz, P. Sơn Kì",19,1121747,2,10.0,6,0,1,0,29,1,10.799718956736,106.6121258279508
/ho-chi-minh/moonlight-tra-sua-va-an-vat-tran-van-on/binh-luan,Moonlight - Trà Sữa và Ăn Vặt - Trần Văn Ơn,"12 Trần Văn Ơn, P. Tân Sơn Nhì",19,1135079,2,10.0,5,0,1,0,35,1,10.8026209,106.63073
/ho-chi-minh/banh-canh-cha-ca-mr-bill/binh-luan,Bánh Canh Chả Cá Mr.Bill - Khuông Việt,"309 Khuông Việt, P. Phú Trung",19,888229,2,10.0,4,0,1,0,78,1,10.7705570647106,106.6378920525312
/ho-chi-minh/yes-cafe-duong-s5/binh-luan,Yes! Cafe - Đường S5,44 - 46 Đường S5,19,716887,2,10.0,7,2,1,2,122,0,10.8129324,106.6195488
/ho-chi-minh/com-ga-36-shop-online/binh-luan,Cơm Gà 36 - Shop Online,"178 Tô Hiệu, P. Hiệp Tân",19,1039361,2,10.0,1,0,2,1,62,0,10.7727140153689,106.627368632288
/ho-chi-minh/banh-trang-lui-sot-mam-me/binh-luan,Bánh Tráng Lụi Sốt Mắm Me,"43 Đường D11, P. Tây Thạnh",19,727101,2,6.552,170,0,76,92,3306,5,10.814507,106.6258941
/ho-chi-minh/ga-ta-tuong-vy-com-ga-chao-goi-ga-thach-lam/binh-luan,"Gà Ta Tường Vy - Cơm Gà, Cháo & Gỏi Gà - Thạch Lam","17 Thạch Lam, P. Hiệp Tân",19,1070098,2,9.008,94,0,69,0,260,0,10.776211,106.6327387
/ho-chi-minh/ushi-mania-japanese-meat-bar/binh-luan,Ushi Mania - Japanese Meat Bar,"Lô T26, Tầng 3 Aeon Mall Tân Phú, 30 Bờ Bao Tân Thắng, P. Sơn Kỳ",19,951875,2,7.224,153,1,33,86,9240,11,10.801888,106.617963
/ho-chi-minh/jecci-mun-food-sua-tuoi-chien/binh-luan,Jecci Mun Food - Sữa Tươi Chiên,"5/31 Nguyễn Cửu Đàm, P. Tân Sơn Nhì",19,99790,2,6.296,68,0,19,82,4537,7,10.798117,106.630988
/ho-chi-minh/get-saladish-salad-tra-shop-online/binh-luan,Get Saladish - Salad & Sandwich - Shop Online,"4/5 Nghiêm Toản, P. Hòa Thạnh",19,757227,2,8.224,110,0,34,78,1869,8,10.785824,106.637148
/ho-chi-minh/pha-lau-sach-ba-khum/binh-luan,Phá Lấu Sạch Ba Khum - Gò Dầu,"20K Gò Dầu, P. Tân Sơn Nhì",19,100977,2,6.296,84,0,33,75,19283,16,10.7957207,106.628374
/ho-chi-minh/pewpew-chan-ga-rut-xuong-sa-tac-shop-online/binh-luan,PewPew - Chân Gà & Chân Vịt Rút Xương Sả Tắc - Shop Online - Phú Thọ Hòa,"156/74 Phú Thọ Hoà, P. Phú Thọ Hòa",19,926537,2,7.088,46,0,25,73,3934,29,10.7850153,106.6301953
/ho-chi-minh/bep-nho-pho-cuon-ha-noi/binh-luan,Bếp Nhỏ - Phở Cuốn Hà Nội,"56B Đàm Thận Huy, P. Tân Quý",19,21043,2,6.838,203,0,33,71,18516,18,10.7892723,106.6223272
/ho-chi-minh/funny-beef-spaghetti-beefsteak/binh-luan,Funny Beef - Spaghetti & Beefsteak - Nguyễn Sơn,"62A Nguyễn Sơn, P. Phú Thọ Hòa",19,757344,2,7.752,272,0,59,70,5377,3,10.781424,106.63169
/ho-chi-minh/chao-ma-heo-chung-cu-son-ky/binh-luan,Cháo Má Heo - Chung Cư Sơn Kỳ,"008 Chung Cư Sơn Kỳ, Đường CN6, P. Sơn Kỳ",19,752723,2,0.0,5,1,0,0,255,0,10.8106706,106.6082124
/ho-chi-minh/ca-phe-rang-xay-nguyen-chat/binh-luan,Cà Phê Rang Xay Nguyên Chất,1 Đường DC3,19,635827,2,0.0,4,1,0,0,46,0,10.810716,106.608225
/ho-chi-minh/lau-duoi-bo-oc-dem-son-ky/binh-luan,Lẩu Đuôi Bò - Ốc Đêm Sơn Kỳ,"005 Lô A Chung Cư Sơn Kỳ, P. Sơn Kỳ",19,1082833,2,0.0,0,0,0,0,48,0,10.8101688,106.6082093
/ho-chi-minh/hu-tieu-nam-vang-bun-moc-banh-canh-cua/binh-luan,"Hủ Tiếu Nam Vang, Bún Mọc & Bánh Canh Cua","D024 Chung Cư Sơn Kỳ, Đường CC5, P. Sơn Kỳ",19,804304,2,0.0,6,0,0,0,30,0,10.809202,106.608176
/ho-chi-minh/max-coffee-duong-cn6/binh-luan,Max Coffee - Đường CN6,"12A Đường CN6, P. Sơn Kỳ",19,802468,2,0.0,34,0,0,0,56,0,10.8106002,106.6082727
/ho-chi-minh/hu-tieu-banh-canh-bun-moc-chung-cu-son-ky/binh-luan,"Hủ Tiếu, Bánh Canh & Bún Mọc - Chung Cư Sơn Kỳ","60 Đường DC9, Chung Cư Sơn Kỳ, P. Sơn Kỳ",19,752959,2,0.0,5,0,0,0,41,0,10.8087210171962,106.6081694886088
/ho-chi-minh/ngoc-bich-bo-la-lot/binh-luan,Ngọc Bích - Bò Lá Lốt,"675 Hương Lộ 3, P. Bình Hưng Hòa",19,630395,2,0.0,0,0,0,0,76,0,10.805899658875,106.6080217719078
/ho-chi-minh/bun-bo-gio-102a/binh-luan,Bún Bò Giò 102A,"1 Lô A, Chung Cư Sơn Kỳ, Đường CN6, P, Sơn Kỳ",19,802475,2,0.0,1,0,0,0,36,0,10.8105646,106.6082919
/ho-chi-minh/yogurt-hadu/binh-luan,Yogurt Hadu,"002 Lô D Chung Cư Sơn Kỳ, Đường CC5, P. Sơn Kỳ",19,991868,2,0.0,0,0,0,0,49,0,10.80937,106.608225
/ho-chi-minh/xam-pizza-tra-sua-chung-cu-son-ky/binh-luan,Xàm - Pizza & Trà Sữa - Chung Cư Sơn Kỳ,"Nhà Xe Lô A Đường CC2, Chung Cư Sơn Kỳ, P. Sơn Kỳ",19,1121137,2,0.0,0,0,0,0,19,0,10.8101408,106.6082809
/ho-chi-minh/don-coffee/binh-luan,Don Coffee,3 Đường CN6,19,635825,2,0.0,3,0,0,0,39,0,10.8105122262905,106.6083186864853
/ho-chi-minh/bo-kho-bun-moc-hu-tieu-duong-cn6/binh-luan,"Bò Kho, Bún Mọc & Hủ Tiếu - Đường CN6","15 Lô A, Chung Cư Sơn Kỳ, Đường CN6, P. Sơn Kỳ",19,802472,2,0.0,1,1,0,0,32,0,10.8105672,106.6083281
/ho-chi-minh/hong-tra-ngo-gia-hong-tra-tra-sua-doc-lap.korygn/binh-luan,Hồng Trà Ngô Gia - Hồng Trà & Trà Sữa - Độc Lập,"102 Độc Lập, P. Tân Thành",19,1000046031,2,0.0,0,0,0,0,57,0,10.7920962,106.6346693
/ho-chi-minh/lotteria-nga-4-bon-xa/binh-luan,Lotteria - Bình Long,"Góc đường Bình Long - Thoại Ngọc Hầu, P. Phú Thạnh",19,44809,2,6.418,93,0,21,12,12282,14,10.773898,106.62158
/ho-chi-minh/com-ga-huy-phuong-com-ga-xoi-mo-tran-quang-co/binh-luan,Cơm Gà Huy Phương  - Cơm Gà Xối Mỡ - Trần Quang Cơ,"24 Trần Quang Cơ, P. Phú Thạnh",19,1000023703,2,10.0,0,0,1,0,54,0,10.7779528,106.6255487
/ho-chi-minh/tien-hai-quan-bun-dau-mam-tom-nguyen-son/binh-luan,Tiến Hải Quán - Bún Đậu Mắm Tôm - Nguyễn Sơn,"39 Nguyễn Sơn, P. Phú Thạnh",19,760382,2,7.056,56,0,18,28,2463,3,10.781006,106.632244
/ho-chi-minh/ga-ran-va-mi-y-jollibee-tan-huong/binh-luan,Gà Rán Và Mì Ý - Jollibee - Tân Hương,"131 Tân Hương, P. Tân Quý",19,1079343,2,0.0,0,0,0,0,152,0,10.7897968,106.6248833
/ho-chi-minh/tra-sua-dhi-tan-quy/binh-luan,Trà Sữa Dhi - Tân Quý,"34C Tân Quý, P. Tân Quý",19,1132418,2,9.0,0,0,1,0,34,0,10.7981256,106.6195519
/ho-chi-minh/bbq-house-buffet-nuong-lau-han-quoc-le-trong-tan/binh-luan,BBQ House - Buffet Nướng & Lẩu Hàn Quốc - Lê Trọng Tấn,"433 Lê Trọng Tấn, P. Sơn Kỳ",19,777063,2,7.77,125,0,33,64,15657,15,10.808822,106.616351
/ho-chi-minh/bo-bit-tet-only-luy-ban-bich/binh-luan,Beefsteak Only - 939 Lũy Bán Bích,"939 Lũy Bán Bích, P. Tân Thành",19,6221,2,5.568,186,0,60,19,10105,8,10.791501,106.637501
/ho-chi-minh/hot-box-aeon-mall/binh-luan,Hot Box - Korea Foods - AEON Mall,"Tầng 2 AEON Mall, 30 Bờ Bao Tân Thắng, P. Sơn Kỳ",19,46956,2,7.288,309,0,25,9,2968,12,10.802582,106.620439
/ho-chi-minh/nang-nen-banh-chuoi-rau-cau-shop-online/binh-luan,Nàng Nen - Bánh Chuối & Rau Câu - Shop Online,"156/74 Phú Thọ Hòa, Phường Phú Thọ Hòa",19,1000001337,2,9.966,12,65,43,38,660,8,10.78501,106.632384
/ho-chi-minh/kim-loan-bakery-doc-lap/binh-luan,Kim Loan Bakery - Độc Lập,"90 Độc Lập, P. Tân Thành",19,25737,2,6.616,113,0,39,27,13062,9,10.791938,106.634958
/ho-chi-minh/co-tien-xanh-banh-trang/binh-luan,Cô Tiên Xanh - Bánh Tráng,"200 Lê Sát, P. Tân Quý",19,1032696,2,9.204,40,0,43,35,462,2,10.795038,106.619073
/ho-chi-minh/crystal-jade-kitchen-aeon-mall-tan-phu/binh-luan,Crystal Jade Kitchen - Aeon Mall Tân Phú,"Lô T22 - T35, Tầng 3 Aeon Mall Tân Phú, 30 Bờ Bao Tân Thắng, P. Sơn Kỳ",19,952161,2,8.894,152,0,30,5,802,8,10.802182,106.61814
/ho-chi-minh/bun-bo-quan-hien-khuong-viet/binh-luan,Bún Bò Quán Hiền - Khuông Việt,"15 Khuông Việt, P. Phú Trung",19,1149875,2,0.0,0,0,0,0,1,0,10.780121,106.642445
/ho-chi-minh/tra-sua-lam-anh-tra-trai-cay-truong-vinh-ky/binh-luan,Trà Sữa Lam Anh - Trà Trái Cây - Trương Vĩnh Ký,"63 Trương Vĩnh Ký, P. Tân Thành",19,1000057860,2,0.0,0,0,0,0,4,0,10.7933685,106.6355086
/ho-chi-minh/tra-sua-banh-trang-nuong-da-lat-34-duong-b/binh-luan,Trà Sữa & Bánh Tráng Nướng Đà Lạt - 34 Đường B,"34 Đường B, P. Phú Thạnh",19,1149798,2,0.0,0,0,0,0,3,0,10.7788006,106.6328738
/ho-chi-minh/guta-cafe-291a-nguyen-son/binh-luan,Guta Cafe - 291A Nguyễn Sơn,"291A Nguyễn Sơn, P. Phú Thạnh",19,1149253,2,0.0,0,0,0,0,2,0,10.7838383,106.623326
/ho-chi-minh/bin-coffee-2015-offfiicial-sinh-to-nuoc-ep-43-tan-ky-tan-quy/binh-luan,BIN Coffee 2015 Offfiicial - Sinh Tố & Nước Ép - 43 Tân Kỳ Tân Quý,"43 Tân Kỳ Tân Quý, P. Tân Sơn Nhì",19,1000057794,2,0.0,0,0,0,0,0,0,10.8037282,106.6354298
/ho-chi-minh/banh-xeo-huy-map-banh-xeo-banh-mi-chao-chung-cu-son-ky-1/binh-luan,Bánh Xèo Huy Mập - Bánh Xèo & Bánh Mì Chảo - Chung Cư Sơn Kỳ 1,"Lô A0-02, Chung Cư Sơn Kỳ 1, Đường DC13, P. Sơn Kỳ",19,1149729,2,0.0,0,0,0,0,3,0,10.8053514,106.6099177
/ho-chi-minh/an-vat-nha-nau-xien-phu-yen-duong-d13/binh-luan,Ăn Vặt Nhà Nẫu Xiên Phú Yên - Đường D13,"78 Đường D13, P. Tây Thạnh",19,1149680,2,0.0,0,0,0,0,1,0,10.814562,106.6265938
/ho-chi-minh/bun-cha-ha-noi-bun-thai-mi-cay-bao-long-huynh-thien-loc/binh-luan,"Bún Chả Hà Nội & Bún Thái, Mì Cay Bảo Long - Huỳnh Thiện Lộc","87 Huỳnh Thiện Lộc, P. Hòa Thạnh",19,1148410,2,0.0,0,0,0,0,2,0,10.7798955,106.6385711
/ho-chi-minh/hot-vit-lon-ca-vien-chien-kho/binh-luan,Hột Vịt Lộn - Cá Viên Chiên & Khô,"86 Tây Thạnh, P. Tây Thạnh",19,1072681,2,0.0,0,2,0,1,48,0,10.8145001,106.6233538
/ho-chi-minh/kem-bo-trai-cay-to-251-vuon-lai/binh-luan,Kem Bơ - Trái Cây Tô 251 - Vườn Lài,"221/2D Vườn Lài, P. Phú Thọ Hòa",19,1067856,2,9.6,2,0,1,1,198,0,10.7879958,106.6292221
/ho-chi-minh/com-tam-thanh-cong-nguyen-son/binh-luan,Cơm Tấm Thành Công - Nguyễn Sơn,"434A Nguyễn Sơn, P. Phú Thọ Hòa",19,1135235,2,0.0,0,0,0,0,7,0,10.7853421,106.6202416
/ho-chi-minh/ga-nuong-ga-bo-xoi-thanh-cong-nguyen-son/binh-luan,Gà Nướng & Gà Bó Xôi Thành Công - Nguyễn Sơn,"434 Nguyễn Sơn, P. Phú Thọ Hòa",19,1134882,2,0.0,0,0,0,0,23,0,10.7852683,106.6202094
/ho-chi-minh/banh-mi-ha-noi-binh-hoa-binh-long/binh-luan,Bánh Mì Hà Nội Bình Hoa - Bình Long,"440 Bình Long, P. Tân Quý",19,1147994,2,0.0,0,0,0,0,1,0,10.78897,106.6171
/ho-chi-minh/street-food-ga-ran-pizza-hamburger-thach-lam/binh-luan,"Street Food - Gà Rán Pizza, Hamburger - Thạch Lam","87 Thạch Lam, P. Hiệp Tân",19,789740,2,8.886,45,1,30,33,989,5,10.7772921,106.6298377
/ho-chi-minh/pho-quynh-116-tan-son-nhi/binh-luan,Phở Quỳnh - 116 Tân Sơn Nhì,"116 Tân Sơn Nhì, P. Tân Sơn Nhì",19,1144424,2,0.0,0,0,0,0,3,0,10.8011723,106.6331045
/ho-chi-minh/co-ba-chan-ga-do-nhuan/binh-luan,Cô Ba Chân Gà - Đỗ Nhuận,"102/20 Đỗ Nhuận, P. Sơn Kỳ",19,1077547,2,0.0,0,1,0,0,78,0,10.803323,106.626334
/ho-chi-minh/oc-thuy-to-hieu/binh-luan,Ốc Thùy - Tô Hiệu,"174 Tô Hiệu, P. Hiệp Tân",19,1111027,2,0.0,0,0,0,0,119,0,10.7725157848709,106.6273231133008
/ho-chi-minh/bia-lu-quan-tan-quy/binh-luan,Bia Lu Quán - Tân Quý,"4A Tân Quý, P. Tân Quý",19,1110854,2,0.0,0,0,0,0,161,0,10.7995136569445,106.6194619815656
/ho-chi-minh/bun-dau-mam-tom-ba-mien/binh-luan,Bún Đậu Mắm Tôm Ba Miền,"425A Tân Kỳ Tân Quý, P. Tân Quý",19,730917,2,7.6,21,0,2,5,1206,1,10.799775,106.620583
/ho-chi-minh/duy-tan-quan-vit-8-mon-ha-tay-cau-xeo/binh-luan,Duy Tân Quán - Vịt 8 Món Hà Tây - Cầu Xéo,"35B Cầu Xéo, P. Tân Quý",19,142220,2,7.0,35,0,5,13,2098,1,10.798631,106.6237849
/ho-chi-minh/tra-sua-osaka-ho-dac-di/binh-luan,Trà Sữa Osaka - Hồ Đắc Di,"18 Hồ Đắc Di, P. Tây Thạnh",19,1000029591,2,0.0,0,0,0,0,21,0,10.8059112,106.632849
/ho-chi-minh/lau-bo-phuong-nam-quan/binh-luan,Lẩu Bò Phương Nam Quán,"37 Cầu Xéo, P. Tân Quý",19,179116,2,0.0,13,1,0,1,300,0,10.7983128,106.6237869
/ho-chi-minh/tra-sua-sacha-to-hieu/binh-luan,Trà Sữa Sacha - Tô Hiệu,"110B1 Tô Hiệu, P. Hiệp Tân",19,1082476,2,0.0,0,0,0,0,71,0,10.7688626,106.6270731
/ho-chi-minh/cafe-015-sinh-to-nuoc-ep-trai-cay-to/binh-luan,"Cafe 015 - Sinh Tố, Nước Ép & Trái Cây Tô","015 Lô B Chung Cư Vườn Lài, P. Phú Thọ Hòa",19,1082312,2,0.0,0,0,0,0,11,0,10.786891,106.633618
/ho-chi-minh/ca-phe-gon-thoai-ngoc-hau/binh-luan,Cà Phê GON - Thoại Ngọc Hầu,"201 Thoại Ngọc Hầu, P. Phú Thạnh",19,1080335,2,9.6,0,0,1,0,46,0,10.7795558,106.6324218
/ho-chi-minh/gogo-milk-tea-coffee/binh-luan,GOGO MILK TEA & COFFEE,"7 Đường S11, P. Tây Thạnh",19,1076015,2,0.0,0,0,0,0,19,0,10.8131284706416,106.6215192792506
/ho-chi-minh/tra-sua-te-amo-le-trong-tan/binh-luan,Trà Sữa Te Amo - Lê Trọng Tấn,"362 Lê Trọng Tấn, P. Tây Thạnh",19,1020030,2,6.52,6,0,5,0,520,0,10.807984,106.620128
/ho-chi-minh/tau-hu-hai-phung-nguyen-nhu-lam/binh-luan,Tàu Hủ Hai Phụng - Nguyễn Nhữ Lãm,"28/21A Nguyễn Nhữ Lãm, P. Phú Thọ Hoà",19,1055912,2,10.0,1,0,1,1,102,0,10.7841952,106.6273085
/ho-chi-minh/manwah-taiwanese-hotpot-bigc-pandora-truong-chinh/binh-luan,Manwah Taiwanese Hotpot - BigC Pandora Trường Chinh,"Tầng trệt - TTTM Big C, Số 1/1 Trường Chinh",19,1065886,2,10.0,2,2,1,0,1267,0,10.8073292844974,106.6341531846557
/ho-chi-minh/gusto-food-drink-le-lu/binh-luan,Gusto Food & Drink - Lê Lư,"174 Lê Lư, P. Phú Thọ Hoà",19,1026337,2,10.0,0,1,1,0,236,0,10.7855899,106.619073
/ho-chi-minh/chao-ech-singapore-le-sao-shop-online/binh-luan,Cháo Ếch Singapore - Lê Sao - Shop Online,"136 Lê Sao, P. Phú Thạnh",19,949986,2,10.0,0,1,1,0,147,0,10.782331,106.62555
/ho-chi-minh/rom-chan-ga-rut-xuong-ngam-sa-tac/binh-luan,Ròm - Chân Gà Rút Xương Ngâm Sả Tắc,"237/62 Hòa Bình, P. Hiệp Tân",19,1042940,2,9.99,0,3,833,3,12747,2,10.770232,106.6250173
/ho-chi-minh/bep-nha-tho-an-vat-online/binh-luan,Bếp Nhà Thỏ - Ăn Vặt Online,"129 Nguyễn Súy, P. Tân Quý",19,1024991,2,9.984,99,1,50,1,238,0,10.793273,106.622556
/ho-chi-minh/tra-sua-mint-an-vat-tan-thang/binh-luan,Trà Sữa Mint - Ăn Vặt - Tân Thắng,"87/2 Tân Thắng, P. Sơn Kỳ",19,1086645,2,9.866,11,0,36,0,82,1,10.803303,106.622809
/ho-chi-minh/kfc-aeon-mall/binh-luan,Gà Rán KFC - AEON Mall Tân Phú,"Tầng Trệt AEON Mall Tân Phú, 30 Bờ Bao Tân Thắng, P. Sơn Kỳ",19,46929,2,6.676,262,0,64,13,5259,34,10.8018901,106.6180286
/ho-chi-minh/khao-lao-aeon-mall-tan-phu/binh-luan,Khao Lao AEON Mall Tân Phú,"Lô T49, Tầng 3, AEON Mall Tân Phú, 30 Bờ Bao Tân Thắng, P. Sơn Kỳ",19,225168,2,6.696,674,0,55,12,7112,13,10.8039503,106.6183813
/ho-chi-minh/an-vat-dom-sua-chua-uong-sua-chua-pho-mai-hoa-binh/binh-luan,Ăn Vặt Đóm - Sữa Chua Uống & Sữa Chua Phô Mai - Hòa Bình,"237/62 Hòa Bình, P. Hiệp Tân",19,998005,2,9.382,7,0,11,32,24459,8,10.7702455354536,106.6250249977907
/ho-chi-minh/nha-hang-tiec-cuoi-nam-bo/binh-luan,Tiệc Cưới Nam Bộ,"615A Âu Cơ,  P. Hòa Thạnh",19,1032,2,6.408,277,0,31,5,24101,11,10.786863,106.64124
/ho-chi-minh/kichi-kichi-lau-bang-chuyen-nguyen-son/binh-luan,Kichi Kichi Lẩu Băng Chuyền - Nguyễn Sơn,"2 Nguyễn Sơn, P.  Phú Thọ Hòa",19,90273,2,8.554,466,0,160,41,23511,23,10.780695,106.634206
/ho-chi-minh/thanh-nga-goi-cuon-bap-xao/binh-luan,Thanh Nga - Gỏi Cuốn & Bắp Xào,"127/5/9 Lê Thúc Hoạch, P. Phú Thọ Hòa",19,1038368,2,6.74,4,0,16,39,23330,18,10.787824,106.62074
/ho-chi-minh/ga-ran-kfc-tops-market-au-co/binh-luan,GÀ RÁN KFC - TOPS MARKET ÂU CƠ,"Shop 1S7+8 Tops Market Âu Cơ, 685 Âu Cơ, P. Tân Thành",19,1149797,2,0.0,0,0,0,0,2,0,10.7898034744544,106.6395301209
/ho-chi-minh/goclean-detox-le-van-phan/binh-luan,Goclean Detox - Lê Văn Phan,"48/2/14 Lê Văn Phan, P. Phú Thọ Hòa",19,1149717,2,0.0,0,0,0,0,2,0,10.786132,106.633675
/ho-chi-minh/padova-coffee-tea-tan-quy/binh-luan,Padova Coffee & Tea - Tân Quý,"22 Tân Quý, P. Tân Quý",19,1149698,2,0.0,0,0,0,0,1,0,10.7980484138409,106.6188412836172
/ho-chi-minh/tra-sua-sociu-1997-hoa-binh/binh-luan,Trà Sữa Sociu 1997 - Hoà Bình,"298 Hoà Bình, P. Phú Thạnh",19,1149672,2,0.0,0,0,0,0,2,0,10.7730728,106.6241938
/ho-chi-minh/quan-phuong-thuy-banh-trang-tay-ninh-an-vat-377-tan-ky-tan-quy/binh-luan,Quán Phương Thuý - Bánh Tráng Tây Ninh & Ăn Vặt - 377 Tân Kỳ Tân Quý,"377 Tân Kỳ Tân Quý, P. Tân Quý",19,1000057718,2,0.0,0,0,0,0,2,0,10.800291,106.621885
/ho-chi-minh/nhu-y-cafe-nuoc-ep-tan-son-nhi/binh-luan,Như Ý - Cafe & Nước Ép - Tân Sơn Nhì,"147 Tân Sơn Nhì, P. Tân Sơn Nhì",19,1134213,2,10.0,2,0,1,0,31,1,10.800461,106.6329487
/ho-chi-minh/tra-sua-xo-le-thuc-hoach/binh-luan,Trà Sữa XO - Lê Thúc Hoạch,"2/2/34 Đường Lê Thúc Hoạch, Phú Thọ Hoà",19,909727,2,10.0,11,0,2,0,126,0,10.786334,106.627271
/ho-chi-minh/banh-trang-nuong-ca-vien-chien/binh-luan,Bánh Tráng Nướng & Cá Viên Chiên,"27A Lê Thúc Hoạch, P. Phú Thọ Hòa",19,765928,2,10.0,4,0,1,2,302,0,10.786518,106.6255921
/ho-chi-minh/trai-cay-to-531e-huynh-thien-loc/binh-luan,Trái Cây Tô 531E - Huỳnh Thiện Lộc,"126 Huỳnh Thiện Lộc, P. Hoà Thạnh",19,1116749,2,10.0,1,0,1,0,39,1,10.7793821061374,106.6394698678245
/ho-chi-minh/cay-bang-oc-binh-dan/binh-luan,Cây Bàng - Ốc Bình Dân,"137/10 Gò Dầu, P. Tân Quý",19,1019407,2,10.0,1,0,1,0,325,1,10.795362,106.621235
/ho-chi-minh/tk-coffee-tea-fresh-fruit/binh-luan,"Tk - Coffee, Tea & Fresh Fruit","27 Trịnh Đình Thảo, P. Hòa Thạnh",19,1034258,2,10.0,56,0,1,0,117,0,10.775057,106.635162
/ho-chi-minh/me-nau-tra-dao-tra-trai-cay-trinh-dinh-trong.m7lnod/binh-luan,"Mẹ Nấu - Trà Đào, Trà Trái Cây - Trịnh Đình Trọng ","49/56/10 Trịnh Đình Trọng, P. Phú Trung",19,1000027207,2,10.0,0,0,2,1,51,0,10.7728209734049,106.6422541548481
/ho-chi-minh/gio-thu-65-shop-online/binh-luan,Giò Thủ 65 - Shop Online,"65 Diệp Minh Châu, P. Tân Sơn Nhì",19,707464,2,10.0,4,0,1,1,141,0,10.7966432,106.6330093999999
/ho-chi-minh/co-3-tra-vinh-rau-cau-an-vat/binh-luan,Cô 3 Trà Vinh - Rau Câu & Ăn Vặt,"725/57/23 Trường Chinh, P. Tây Thạnh",19,1052977,2,10.0,2,0,1,1,53,0,10.809193,106.632185
/ho-chi-minh/bun-cha-ca-quy-nhon-tan-quy/binh-luan,Bún Chả Cá Quy Nhơn - Tân Quý,"204 Tân Quý, P. Tân Quý",19,768069,2,10.0,2,3,1,1,149,0,10.7921661,106.6206654
/ho-chi-minh/goc-an-uong-cua-mint-che-tart-trung-an-vat/binh-luan,"Góc Ăn Uống Của Mint - Chè, Tart Trứng & Ăn Vặt","Hẻm 87/2 Bờ Bao Tân Thắng, P. Sơn Kỳ",19,1000027738,2,9.828,36,0,60,0,131,0,10.8031878,106.62289
/ho-chi-minh/com-van-phong-fresh-coffee/binh-luan,Cơm Văn Phòng Fresh Coffee,"241 Khuông Việt, P. Phú Trung",19,1059577,2,9.21,23,0,56,1,216,0,10.7733307963592,106.6377528379777
/ho-chi-minh/quan-ngon-tan-phu/binh-luan,"Quán Ngon Tân Phú - Bún Mắm, Bún Thái & Chè","19 Nguyễn Nhữ Lãm, P. Phú Thọ Hòa",19,12954,2,9.126,28,0,54,27,3367,12,10.783784,106.626648
/ho-chi-minh/an-vat-quan-to-hieu/binh-luan,Ăn Vặt Quán - Cá Viên Chiên - Tô Hiệu,"162 Tô Hiệu, P. Hiệp Tân",19,1023251,2,9.306,18,0,54,4,174,1,10.771101,106.627095
/ho-chi-minh/bot-chien-tran-phu/binh-luan,Bột Chiên Trần Phú,"11 Lê Thúc Hoạch, P. Phú Thọ Hòa",19,184056,2,8.534,26,0,12,69,3500,3,10.786021,106.626736
/ho-chi-minh/co-kieu-tran-phu-mi-oc-hen-banh-gao-cay-han-quoc/binh-luan,Cô Kiều Trần Phú - Mì Ốc Hến & Bánh Gạo Cay Hàn Quốc,"23 Lê Thúc Hoạch, P. Phú Thọ Hòa",19,946444,2,6.4,51,19,13,66,2398,1,10.786761,106.627453
/ho-chi-minh/banh-canh-gio-heo-tran-van-can/binh-luan,Bánh Canh Giò Heo - Trần Văn Cẩn,68 Trần Văn Cần,19,666564,2,8.0,42,0,5,66,5656,2,10.7623771,106.6304429
/ho-chi-minh/mi-vit-tiem-thuong-hai/binh-luan,Mì Vịt Tiềm Thượng Hải,"50/1 Gò Dầu, P. Tân Quý",19,5209,2,7.246,43,0,23,65,11469,9,10.79625,106.626813
/ho-chi-minh/ut-quynh-ga-nuong-muoi-ot/binh-luan,Út Quỳnh - Gà Nướng Muối Ớt - Tân Kỳ Tân Quý,"100 Tân Kỳ Tân Quý, P. Tây Thạnh",19,800238,2,8.56,40,0,29,61,3350,8,10.803573,106.632984
/ho-chi-minh/van-bo-ne-binh-dan/binh-luan,Vân - Bò Né Bình Dân,"12 Đường CN11, P. Sơn Kỳ",19,903399,2,0.0,1,0,0,0,8,0,10.806836,106.608129
/ho-chi-minh/79-coffee-duong-cn6/binh-luan,79 Coffee - Đưởng CN6,"10 Lô A, Chung Cư Sơn Kỳ, Đường CN6, P. Sơn Kỳ",19,802474,2,0.0,1,0,0,0,19,0,10.8105669,106.6083425
/ho-chi-minh/king-ga-ran-khoai-lang-lac/binh-luan,King - Gà Rán & Khoai Lang Lắc - Đường CN1,"104 Đường CN1, P. Sơn Kỳ",19,902712,2,0.0,1,0,0,0,12,0,10.806572,106.60813
/ho-chi-minh/hai-luy-bun-bo-hue/binh-luan,Hai Lũy - Bún Bò Huế,"6 Đường CN11, P. Sơn Kỳ",19,752995,2,0.0,5,0,0,0,68,0,10.806829,106.608151
/ho-chi-minh/quan-com-binh-dan-695-tan-ky-tan-quy/binh-luan,Quán Cơm Bình Dân - 695 Tân Kỳ Tân Quý,"695 Tân Kỳ Tân Quý, P. Bình Hưng Hòa",19,765220,2,0.0,4,0,0,0,32,0,10.7928804408521,106.6073656316464
/ho-chi-minh/banh-nha-lam/binh-luan,Bánh Nhà Làm,"22 DC1, P. Sơn Kỳ",19,635948,2,0.0,6,0,0,0,113,1,10.811663,106.608443
/ho-chi-minh/che-sinh-to-79-chung-cu-son-ky/binh-luan,Chè Sinh Tố 79 - Chung Cư Sơn Kỳ,"003F Chung Cư Sơn Kỳ, Đường CC5, P. Sơn Kỳ",19,1005530,2,0.0,0,0,0,0,57,0,10.809304,106.60834
/ho-chi-minh/nhu-y-lau-bo-nuong/binh-luan,Như Ý - Lẩu Bò & Nướng,"88 Đường CN1, P. Sơn Kỳ",19,711018,2,0.0,15,2,0,1,218,1,10.806479,106.60818
/ho-chi-minh/hoang-ha-banh-xeo-quang-ngai/binh-luan,Hoàng Hà - Bánh Xèo Quảng Ngãi,"Lô D.015 Chung Cư Sơn Kỳ, Đường CC3, P. Sơn Kỳ",19,947819,2,0.0,0,0,0,0,98,0,10.809951,106.608378
/ho-chi-minh/com-ga-xoi-mo-duong-dc9/binh-luan,Cơm Gà Xối Mỡ - Đường DC9,"56 Đường DC9, P. Sơn Kỳ",19,906171,2,0.0,1,0,0,0,12,0,10.808725,106.608342
/ho-chi-minh/anh-u-anh-do-cafe-le-trong-tan/binh-luan,Anh Ú Anh Đô Cafe - Lê Trọng Tấn,542 Lê Trọng Tấn,19,115275,2,0.0,12,2,0,2,502,1,10.812452,106.608565
/ho-chi-minh/nuoc-mat-panda/binh-luan,Nước Mát Panda,"10 Đường CN11, P. Sơn Kỳ",19,661347,2,0.0,11,0,0,0,47,0,10.8069854379039,106.6082541476073
/ho-chi-minh/ech-ka-chao-ech-singapore-169-le-trong-tan/binh-luan,Ếch Ka - Cháo Ếch Singapore - 169 Lê Trọng Tấn,"169 Lê Trọng Tấn, P. Sơn Kỳ",19,1004680,2,8.0,1,0,1,0,112,0,10.8065855,106.6261139
/ho-chi-minh/lang-vong-bun-dau-mam-tom-bun-cha-tan-huong/binh-luan,Làng Vòng - Bún Đậu Mắm Tôm & Bún Chả - Tân Hương,"260 Tân Hương, P. Tân Quý",19,1046831,2,8.366,14,1,6,4,681,1,10.790215,106.620888
/ho-chi-minh/sukiya-com-bo-ham-mi-ramen-trinh-dinh-trong/binh-luan,Sukiya - Cơm Bò Hầm & Mì Ramen - Kênh Tân Hóa,"Đối Diện 273 Kênh Tân Hóa, P. Phú Trung",19,707798,2,5.818,252,0,46,46,3571,8,10.775154,106.637947
/ho-chi-minh/k-food-chuyen-mon-an-han-quoc/binh-luan,K-Food - Chuyên Món Ăn Hàn Quốc,"213/1 Khuông Việt, P. Phú Trung",19,1027700,2,7.002,21,0,6,11,799,2,10.77366,106.638662
/ho-chi-minh/kfc-nguyen-son/binh-luan,Gà Rán KFC - Nguyễn Sơn,"111 Nguyễn Sơn, P. Phú Thạnh",19,4124,2,4.936,66,0,25,18,9607,18,10.7822334,106.6281014
/ho-chi-minh/thao-thao-chan-ga-sot-sa-te-shop-online/binh-luan,Thảo Thảo - Chân Gà Sốt Sa Tế - Shop Online,"189/2A Hòa Bình, P. Hiệp Tân",19,924907,2,8.04,25,0,5,49,1135,1,10.7709,106.627783
/ho-chi-minh/tuyet-nhung-com-ga-phu-yen/binh-luan,Tuyết Nhung - Cơm Gà Phú Yên,"322 Tân Sơn Nhì, P. Tân Sơn Nhì",19,24307,2,6.858,71,0,32,49,12277,4,10.796548,106.630447
/ho-chi-minh/hoa-co-com-van-phong-nguyen-van-sang/binh-luan,Hoa Cỏ - Cơm Văn Phòng - Nguyễn Văn Săng,"92B Nguyễn Văn Săng, P. Tân Sơn Nhì",19,1037031,2,3.55,2,0,4,1,215,0,10.798834,106.632805
/ho-chi-minh/o-khang-tre-tron-nguyen-ly/binh-luan,Ô Khang - Tré Trộn - Nguyễn Lý,"2 Nguyễn Lý, P. Hiệp Tân",19,1045652,2,6.428,15,2,7,5,274,0,10.7767704,106.628359
/ho-chi-minh/tutimi-milo-dam-tra-sua-34c-tan-quy/binh-luan,TUTIMI - Milo Dầm - Trà Sữa - 34C Tân Quý,"34C Tân Quý, P. Tân Quý",19,1132606,2,0.0,0,0,0,0,46,0,10.7979939,106.6195841
/ho-chi-minh/ngan-quan-bo-kho-chuan-vi-sai-gon/binh-luan,Ngân Quán - Bò Kho Chuẩn Vị Sài Gòn,"027 Lô D, Chung Cư Nhiêu Lộc C, Võ Công Tồn, P. Tân Quý",19,1060230,2,8.868,23,0,29,38,187,6,10.7925317467288,106.6216788925687
/ho-chi-minh/hong-kong-deli-aeon-mall/binh-luan,Hong Kong Deli - AEON Mall Tân Phú,"Tầng 2 AEON Mall Tân Phú, 30 Bờ Bao Tân Thắng, P. Sơn Kỳ",19,46954,2,6.864,153,0,19,8,3857,10,10.802582,106.620439
/ho-chi-minh/chao-ca-aeon-mall-tan-phu/binh-luan,Chảo Cá - AEON Mall Tân Phú,"Tầng 3 AEON Mall Tân Phú, 30 Bờ Bao Tân Thắng, P. Sơn Kỳ",19,906979,2,8.99,59,0,23,11,1172,12,10.801684,106.617922
/ho-chi-minh/khu-vuon-nho-little-garden-coffee-shop/binh-luan,Khu Vườn Nhỏ - Little Garden - Coffee Shop,"65 Bờ Bao Tân Thắng, P. Sơn Kỳ",19,154736,2,7.842,183,0,14,44,9431,14,10.805024,106.622247
/ho-chi-minh/yamamoto-mattcha-cafe-aeon-mall/binh-luan,Yamamoto Mattcha Café - AEON Mall Tân Phú,"Tầng Trệt AEON Mall Tân Phú, 30 Bờ Bao Tân Thắng, P. Sơn Kỳ",19,275148,2,7.19,219,0,19,13,1301,10,10.80163,106.618245
/ho-chi-minh/lakafe-cafe-aeon-mall/binh-luan,Lakafe Cafe - AEON Mall Tân Phú,"Tầng 2 AEON Mall Tân Phú, 30 Bờ Bao Tân Thắng, P. Sơn Kỳ",19,46968,2,6.802,66,0,26,7,8218,14,10.802582,106.620439
/ho-chi-minh/kokekokko-ga-quay-teriyaki-pandora-city/binh-luan,Kokekokko - Gà Quay Teriyaki - Pandora City,"Tầng 4 Pandora City, 1/1 Trường Chinh, P. Tây Thạnh",19,15581,2,7.188,68,0,18,9,10912,7,10.8072435,106.634592
/ho-chi-minh/bun-bo-hue-quan-26-cau-xeo/binh-luan,Bún Bò Huế Quán 26 - Cầu Xéo,"20 Cầu Xéo, P. Tân Quý",19,1147981,2,0.0,0,0,0,0,2,0,10.7995428,106.623742
/ho-chi-minh/xoi-trang-to-hieu/binh-luan,Xôi Trang - Tô Hiệu,"234C Tô Hiệu, P. Hiệp Tân",19,1147939,2,0.0,0,0,0,0,7,0,10.775022,106.628073
/ho-chi-minh/teacher-flan-panna-cotta-vuon-lai/binh-luan,Teacher - Flan & Panna Cotta - Vườn Lài,"Số 3A Vườn Lài, P. Phú Thọ Hòa",19,1147245,2,0.0,0,0,0,0,5,0,10.7863388,106.6362093
/ho-chi-minh/sa-ke-coffee-nuoc-ep-sinh-to/binh-luan,Sa Kê Coffee - Nước Ép & Sinh Tố,"17 Đường T5, P. Tây Thạnh",19,1146391,2,0.0,0,0,0,0,3,0,10.8111805,106.6191218
/ho-chi-minh/tiem-banh-pho-mai-cake-milktea-luy-ban-bich/binh-luan,Tiệm Bánh Phô Mai - Cake & Milktea - Luỹ Bán Bích,"78B Luỹ Bán Bích, P. Tân Thới Hoà",19,1143837,2,0.0,0,0,0,0,15,0,10.7654707,106.632242
/ho-chi-minh/nuoc-ep-sinh-to-an-vat-238-nuoc-ep-sinh-to-ca-vien-chien-luong-the-vinh/binh-luan,"Nước ép Sinh Tố Ăn Vặt 238 - Nước Ép, Sinh Tố & Cá Viên Chiên - Lương Thế Vinh","82 Lương Thế Vinh, P. Tân Thới Hòa",19,1143771,2,0.0,0,0,0,0,0,0,10.7625734,106.6287797
/ho-chi-minh/quan-an-103-com-ga-heo-quay-banh-hoi-thong-nhat/binh-luan,Quán Ăn 103 - Cơm Gà & Heo Quay Bánh Hỏi - Thống Nhất,"103 Thống Nhất, P. Tân Thành",19,1141599,2,0.0,0,0,0,0,8,0,10.7906255,106.634607
/ho-chi-minh/kem-dairy-queen-aeon-mall-tan-phu/binh-luan,Kem Dairy Queen - Aeon Mall Tân Phú,"GD3, Tầng Trệt, TTTM Aeon Mall - Tân Phú Celadon, 30 Tân Thắng, P. Sơn Kỳ",19,1137876,2,0.0,0,0,0,0,67,0,10.801178,106.6173952
/ho-chi-minh/xien-que-bonbon-an-vat-ca-vien-chien-banh-trang-hoa-binh.d0r5tn/binh-luan,Xiên Que BonBon - Ăn Vặt Cá Viên Chiên & Bánh Tráng - Hòa Bình,"106/74 Hòa Bình, P. Hòa Thạnh",19,1000053497,2,0.0,0,0,0,0,25,0,10.772082,106.635583
/ho-chi-minh/minh-nguyet-bun-ca-nha-trang-com-tam-lau-ca/binh-luan,"Minh Nguyệt - Bún Cá Nha Trang, Cơm Tấm & Lẩu Cá","185 Nguyễn Súy, P. Tân Quý",19,1136610,2,0.0,0,0,0,0,26,0,10.7952142,106.622573
/ho-chi-minh/goi-ca-trich-phu-quoc-duong-van-duong/binh-luan,Gỏi Cá Trích Phú Quốc - Dương Văn Dương,"9/3 Dương Văn Dương, P. Sơn Kỳ",19,1000046441,2,0.0,0,0,0,0,34,0,10.7996715,106.616552
/ho-chi-minh/mi-tron-top-mo-vyvy-le-thuc-hoach/binh-luan,Mì Trộn Tóp Mỡ VyVy - Lê Thúc Hoạch,"127/1/9 Lê Thúc Hoạch, P. Phú Thọ Hòa",19,1127562,2,0.0,0,0,0,0,82,0,10.788355,106.6207779
/ho-chi-minh/the-night-tea/binh-luan,The Night Tea,"117 Lê Trọng Tấn, P. Sơn Kỳ",19,755006,2,7.44,35,0,5,1,572,0,10.805974,106.628436
/ho-chi-minh/ngoc-loan-tre-tron-banh-trang-tron-tre-kenh-tan-hoa/binh-luan,Ngọc Loan - Tré Trộn & Bánh Tráng Trộn Tré - Kênh Tân Hóa,80D Kênh Tân Hóa,19,1129773,2,0.0,0,0,0,0,31,0,10.7752938,106.6379056
/ho-chi-minh/3-rau-ga-ran-pizza-tra-sua-3-van-cao/binh-luan,"3 Râu - Gà Rán, Pizza & Trà Sữa - 3 Văn Cao","3 Văn Cao, P. Phú Thạnh",19,1011600,2,7.3,4,0,2,0,81,0,10.782636,106.620804
/ho-chi-minh/dzo-ne-kenh-tan-hoa/binh-luan,DZÔ NÈ - Kênh Tân Hoá,"255-257 Kênh Tân Hoá, P. Hòa Thạnh",19,1149525,2,0.0,0,0,0,0,1,0,10.774714,106.637219
/ho-chi-minh/chao-ech-dao-beo/binh-luan,Cháo Ếch Đào Béo,"269P Trịnh Đình Trọng, P. Hòa Thạnh",19,1076741,2,0.0,0,0,0,0,21,0,10.7764854,106.6368862
/ho-chi-minh/a-chu-bi-sui-cao-truong-vinh-ky.x4xtug/binh-luan,A Chú Bì - Sủi Cảo - Trương Vĩnh Ký,"31 Trương Vĩnh Ký, P. Tân Thành",19,1000050000,2,0.0,0,0,0,0,5,0,10.7932417,106.6364795
/ho-chi-minh/an-vat-sau-luoi-an-vat-shop-online.nf7gdg/binh-luan,Ăn Vặt Sâu Lười - Ăn Vặt - Shop Online,"1/12 Lương Đắc Bằng, P. Tân Thới Hòa",19,1000034907,2,0.0,0,0,0,0,14,0,10.760306,106.63457
/ho-chi-minh/ga-nuong-lau-cu-bin-doc-lap/binh-luan,Gà Nướng & Lẩu Cu Bin - Độc Lập,"320 Độc Lập, P. Tân Quý",19,1145288,2,0.0,0,0,0,0,5,0,10.7937323,106.626563
/ho-chi-minh/quan-ga-ta-vit-ta-tan-huong/binh-luan,Quán Gà Ta - Vịt Ta - Tân Hương,"43 Tân Hương, P. Tân Quý",19,1090183,2,0.0,0,0,0,0,23,1,10.7904727,106.6282628
/ho-chi-minh/bun-dau-vang-khuong-viet/binh-luan,Bún Đậu Vàng - Khuông Việt,"341/19/129 Khuông Việt, P. Phú Trung",19,1059894,2,0.0,0,0,0,0,39,0,10.7730971,106.6383063
/ho-chi-minh/ong-phe-pho-gia-truyen-doc-lap/binh-luan,Ông Phệ - Phở Gia Truyền - Độc Lập,"92 Độc Lập, P. Tân Thành",19,813581,2,6.4,15,0,3,18,620,1,10.79198,106.634936
/ho-chi-minh/i-kraffea-coffee-tea/binh-luan,I-Kraffea Coffee & Tea,"46 Đường Số 1, P. Tân Thành",19,1075411,2,0.0,0,0,0,0,36,0,10.7903604802211,106.6314009580284
/ho-chi-minh/happy-milktea-nguyen-cuu-dam/binh-luan,Happy Milktea - Nguyễn Cửu Đàm,"44 Nguyễn Cửu Đàm, P. Tân Sơn Nhì",19,1076704,2,0.0,0,0,0,0,37,0,10.7990954,106.6306062
/ho-chi-minh/pho-bo-pho-vui-chuyen-bo/binh-luan,PHỞ BÒ - PHỞ VUI CHUYÊN BÒ,"Số 3 Nguyễn Sơn, P. Phú Thạnh",19,1075169,2,0.0,0,0,0,0,18,0,10.780674,106.63387
/ho-chi-minh/xo-hai-san-sot-cajun-vuon-lai/binh-luan,Xô - Hải Sản Sốt Cajun - Vườn Lài,"276 Vườn Lài, P. Phú Thọ Hoà",19,1070589,2,0.0,0,5,0,0,239,0,10.788001,106.625767
/ho-chi-minh/fourt-coffee-go-dau/binh-luan,Fourt Coffee - Gò Dầu,"227A Gò Dầu, P. Tân Quý",19,1067596,2,0.0,0,0,0,0,26,0,10.795678,106.617801
/ho-chi-minh/bun-bo-hue-149-bo-bao-tan-thang/binh-luan,Bún Bò Huế 149 - Bờ Bao Tân Thắng,"36 Bờ Bao Tân Thắng, P. Sơn Kỳ",19,1067150,2,0.0,0,0,0,0,45,0,10.8002683,106.6128843
/ho-chi-minh/phin-coffee-thanh-cong/binh-luan,Phin Coffee - Thành Công,"126 Thành Công, P. Tân Thành",19,1066698,2,0.0,0,0,0,0,39,0,10.79349,106.634029
/ho-chi-minh/h-h-food-crepe-banh-cuon-trung/binh-luan,H&H Food - Crepe & Bánh Cuộn Trứng,"71/23 Trịnh Đình Trọng, P. Phú Trung",19,637228,2,7.944,43,0,7,60,2100,2,10.7742804,106.6428505
/ho-chi-minh/royaltea-vietnam-by-hongkong-thoai-ngoc-hau/binh-luan,Royaltea Vietnam By Hongkong - Thoại Ngọc Hầu,"269 Thoại Ngọc Hầu, P. Phú Thạnh",19,740825,2,7.318,114,0,44,21,2338,4,10.7782192,106.6302264
/ho-chi-minh/tron-tron-banh-trung-ga-non-nguyen-the-truyen/binh-luan,Tròn Tròn - Bánh Trứng Gà Non - Nguyễn Thế Truyện,"84 Nguyễn Thế Truyện, P. Tân Sơn Nhì",19,1000045267,2,9.8,21,0,4,2,48,0,10.796769,106.632607
/ho-chi-minh/lau-ga-la-e-236-truong-vinh-ky/binh-luan,Lẩu Gà Lá É - 236 Trương Vĩnh Ký,"236 Trương Vĩnh Ký, P. Tân Sơn Nhì",19,991859,2,9.6,3,0,2,2,538,0,10.794299,106.630417
/ho-chi-minh/lonata-house-tra-sua-ngon-chuan-vi/binh-luan,Lonata House - Trà Sữa Ngon Chuẩn Vị,"59 Phan Đình Phùng, P. Tân Thành",19,1033117,2,9.698,19,1,6,1,411,1,10.7890714,106.6306161
/ho-chi-minh/beefsteak-huong-thao/binh-luan,Beefsteak Hương Thảo,"27 Huỳnh Văn Gấm, P. Tây Thạnh",19,1032743,2,9.668,5,0,3,0,100,0,10.805241,106.633614
/ho-chi-minh/hu-tieu-muc-nhu-y-59-ngyen-son/binh-luan,Hủ Tiếu Mực Như Ý - Nguyễn Sơn,"59/19 Nguyễn Sơn, P. Phú Thạnh",19,638721,2,9.0,39,0,9,14,987,6,10.780239,106.630509
/ho-chi-minh/quan-tra-sua-nuong-yu-han-cha-bo-bao-1/binh-luan,Quán Trà Sữa Nướng Yu Han Cha - Bờ Bao 1,"20/74A Bờ Bao 1, P. Sơn Kỳ",19,1135092,2,9.8,3,0,1,0,57,1,10.8070531,106.618669
/ho-chi-minh/tra-sua-tencent-kenh-tan-hoa/binh-luan,Trà Sữa Tencent - Kênh Tân Hóa,"196 Kênh Tân Hóa, P. Phú Trung",19,722287,2,8.6,10,0,1,1,719,0,10.779929,106.641067
/ho-chi-minh/tra-sua-miutea-thach-lam/binh-luan,Trà Sữa Miutea - Thạch Lam,"351 Thạch Lam, P. Phú Thạnh",19,1117469,2,10.0,0,0,1,0,47,0,10.7799374,106.621284
/ho-chi-minh/ga-ta-tuong-vy-com-ga-chao-goi-ga-tan-thanh/binh-luan,"Gà Ta Tường Vy - Cơm Gà, Cháo & Gỏi Gà - Tân Thành","58 Tân Thành, P. Hoà Thạnh",19,725846,2,8.364,551,0,39,22,1724,5,10.7870652,106.6386104
/ho-chi-minh/quan-chi-toi-nguyen-son/binh-luan,Quán Chị Tôi - Nhậu Sân Vườn - Nguyễn Sơn,"3 Nguyễn Sơn, P. Phú Thạnh",19,71819,2,6.142,168,0,17,14,20095,15,10.780587,106.633871
/ho-chi-minh/3d-box-cinema-cafe-vuon-lai/binh-luan,3D Box Cinema Cafe - Vườn Lài," 425 Vườn Lài,  P. Phú Thọ Hòa",19,14845,2,7.63,40,0,7,25,18576,14,10.788012,106.624138
/ho-chi-minh/valentino-cafe-thoai-ngoc-hau/binh-luan,Valentino Cafe - Thoại Ngọc Hầu,Ngã ba Thoại Ngọc Hầu - Nguyễn Sơn,19,50030,2,6.974,216,0,17,20,17437,12,10.78036,106.63291
/ho-chi-minh/vuon-thien-thai/binh-luan,Vườn Thiên Thai - Nhà Hàng & Tiệc Cưới,"669 - 701 - 701A Trường Chinh, P. Tây Thạnh",19,1074,2,4.86,20,0,10,0,16461,6,10.807401,106.634443
